t,target_x,target_y,target_z,actual_x,actual_y,actual_z,inner_x,inner_y,inner_z,position_error_x,position_error_y,position_error_z,position_error_norm,orientation_error_x,orientation_error_y,orientation_error_z,orientation_error_norm_rad,orientation_error_norm_deg,target_roll_deg,target_pitch_deg,target_yaw_deg,actual_roll_deg,actual_pitch_deg,actual_yaw_deg,error_roll_deg,error_pitch_deg,error_yaw_deg,inner_vx,inner_vy,inner_vz,filtered_fx,filtered_fy,filtered_fz,masked_fx,masked_fy,masked_fz
0.000000,0.307000,0.000000,0.367000,0.368264,0.029745,0.332946,0.368264,0.029745,0.332946,0.061264,0.029745,-0.034054,0.076143,0.004594,0.021199,-0.003558,0.021981,1.259430,180.000000,-0.000000,0.000000,179.734594,-1.214158,0.206663,0.265406,1.214158,-0.206663,0.000000,0.000000,0.000000,0.000000,0.000000,0.000000,0.000000,0.000000,0.000000
0.001000,0.307000,0.000000,0.367000,0.368263,0.029744,0.332943,0.368264,0.029745,0.332946,0.061263,0.029744,-0.034057,0.076143,0.004595,0.021193,-0.003563,0.021976,1.259153,180.000000,-0.000000,0.000000,179.734511,-1.213803,0.206962,0.265489,1.213803,-0.206962,0.000000,0.000000,0.000000,0.000000,0.000000,0.000000,0.011509,-0.004848,-0.006921
0.002000,0.307000,0.000000,0.367000,0.368264,0.029747,0.332945,0.368264,0.029745,0.332946,0.061264,0.029747,-0.034055,0.076144,0.004597,0.021198,-0.003570,0.021982,1.259489,180.000000,-0.000000,0.000000,179.734418,-1.214061,0.207382,0.265582,1.214061,-0.207382,-0.000000,-0.000000,0.000000,0.000000,0.000000,0.000000,0.023816,0.001657,-0.010848
0.003000,0.307000,0.000000,0.367000,0.368263,0.029747,0.332942,0.368264,0.029745,0.332946,0.061263,0.029747,-0.034058,0.076144,0.004596,0.021194,-0.003564,0.021977,1.259193,180.000000,-0.000000,0.000000,179.734438,-1.213822,0.206996,0.265562,1.213822,-0.206996,-0.000000,-0.000000,0.000000,0.000000,0.000000,0.000000,0.003719,0.001810,0.011392
0.004000,0.307000,0.000000,0.367000,0.368262,0.029747,0.332941,0.368264,0.029745,0.332946,0.061262,0.029747,-0.034059,0.076144,0.004596,0.021191,-0.003567,0.021975,1.259064,180.000000,-0.000000,0.000000,179.734482,-1.213665,0.207194,0.265518,1.213665,-0.207194,-0.000000,-0.000000,0.000000,0.000000,0.000000,0.000000,0.011661,0.011615,-0.022270
0.005000,0.307000,0.000000,0.367000,0.368262,0.029747,0.332940,0.368264,0.029745,0.332946,0.061262,0.029747,-0.034060,0.076144,0.004594,0.021189,-0.003568,0.021973,1.258981,180.000000,-0.000000,0.000000,179.734578,-1.213592,0.207244,0.265422,1.213592,-0.207244,-0.000000,-0.000000,0.000000,0.000000,0.000000,0.000000,0.003560,-0.011601,-0.046330
0.006000,0.307000,0.000000,0.367000,0.368261,0.029746,0.332940,0.368264,0.029745,0.332946,0.061261,0.029746,-0.034060,0.076143,0.004594,0.021189,-0.003565,0.021972,1.258902,180.000000,-0.000000,0.000000,179.734601,-1.213543,0.207074,0.265399,1.213543,-0.207074,-0.000000,-0.000000,0.000000,0.000000,0.000000,0.000000,0.020304,0.025373,0.001591
0.007000,0.307000,0.000000,0.367000,0.368258,0.029746,0.332936,0.368264,0.029745,0.332946,0.061258,0.029746,-0.034064,0.076143,0.004597,0.021181,-0.003567,0.021966,1.258544,180.000000,-0.000000,0.000000,179.734423,-1.213114,0.207187,0.265577,1.213114,-0.207187,-0.000000,-0.000000,0.000000,0.000000,0.000000,0.000000,-0.007781,0.009151,0.042345
0.008000,0.307000,0.000000,0.367000,0.368257,0.029746,0.332934,0.368264,0.029745,0.332946,0.061257,0.029746,-0.034066,0.076144,0.004600,0.021179,-0.003572,0.021965,1.258523,180.000000,-0.000000,0.000000,179.734245,-1.213003,0.207484,0.265755,1.213003,-0.207484,-0.000000,-0.000000,0.000000,0.000000,0.000000,0.000000,0.013994,0.001837,0.016160
0.009000,0.307000,0.000000,0.367000,0.368257,0.029746,0.332933,0.368264,0.029745,0.332946,0.061257,0.029746,-0.034067,0.076143,0.004599,0.021178,-0.003577,0.021964,1.258473,180.000000,-0.000000,0.000000,179.734301,-1.212918,0.207753,0.265699,1.212918,-0.207753,-0.000000,-0.000000,0.000000,0.000000,0.000000,0.000000,0.023447,0.002464,-0.032527
0.010000,0.307000,0.000000,0.367000,0.368256,0.029746,0.332931,0.368264,0.029745,0.332946,0.061256,0.029746,-0.034069,0.076144,0.004607,0.021176,-0.003575,0.021964,1.258465,180.000000,-0.000000,0.000000,179.733846,-1.212823,0.207682,0.266154,1.212823,-0.207682,-0.000000,-0.000000,0.000000,0.000000,0.000000,0.000000,0.026526,-0.004280,0.010863
0.011000,0.307000,0.000000,0.367000,0.368256,0.029746,0.332931,0.368264,0.029745,0.332946,0.061256,0.029746,-0.034069,0.076143,0.004609,0.021177,-0.003574,0.021965,1.258523,180.000000,-0.000000,0.000000,179.733713,-1.212868,0.207597,0.266287,1.212868,-0.207597,-0.000000,-0.000000,0.000000,0.000000,0.000000,0.000000,-0.003006,0.016414,0.041095
0.012000,0.307000,0.000000,0.367000,0.368254,0.029748,0.332928,0.368264,0.029745,0.332946,0.061254,0.029748,-0.034072,0.076144,0.004611,0.021170,-0.003583,0.021960,1.258225,180.000000,-0.000000,0.000000,179.733623,-1.212446,0.208146,0.266377,1.212446,-0.208146,-0.000000,-0.000000,0.000000,0.000000,0.000000,0.000000,0.009292,0.010089,0.015678
0.013000,0.307000,0.000000,0.367000,0.368253,0.029746,0.332925,0.368264,0.029745,0.332946,0.061253,0.029746,-0.034075,0.076144,0.004613,0.021164,-0.003589,0.021957,1.258024,180.000000,-0.000000,0.000000,179.733455,-1.212148,0.208460,0.266545,1.212148,-0.208460,-0.000000,-0.000000,0.000000,0.000000,0.000000,0.000000,-0.007262,-0.014752,0.025015
0.014000,0.307000,0.000000,0.367000,0.368251,0.029747,0.332924,0.368264,0.029745,0.332946,0.061251,0.029747,-0.034076,0.076143,0.004615,0.021163,-0.003582,0.021955,1.257902,180.000000,-0.000000,0.000000,179.733389,-1.212072,0.208073,0.266611,1.212072,-0.208073,-0.000000,-0.000000,0.000000,0.000000,0.000000,0.000000,0.014552,-0.002470,0.049964
0.015000,0.307000,0.000000,0.367000,0.368249,0.029747,0.332922,0.368264,0.029745,0.332946,0.061249,0.029747,-0.034078,0.076142,0.004616,0.021156,-0.003585,0.021949,1.257559,180.000000,-0.000000,0.000000,179.733287,-1.211667,0.208235,0.266713,1.211667,-0.208235,-0.000000,-0.000000,0.000000,0.000000,0.000000,0.000000,-0.017176,-0.014814,-0.015932
0.016000,0.307000,0.000000,0.367000,0.368247,0.029747,0.332918,0.368264,0.029745,0.332946,0.061247,0.029747,-0.034082,0.076142,0.004618,0.021150,-0.003588,0.021943,1.257247,180.000000,-0.000000,0.000000,179.733202,-1.211296,0.208400,0.266798,1.211296,-0.208400,-0.000000,-0.000000,0.000000,0.000000,0.000000,0.000000,-0.025695,-0.037674,0.052049
0.017000,0.307000,0.000000,0.367000,0.368245,0.029748,0.332916,0.368264,0.029745,0.332946,0.061245,0.029748,-0.034084,0.076142,0.004615,0.021148,-0.003595,0.021943,1.257214,180.000000,-0.000000,0.000000,179.733338,-1.211221,0.208815,0.266662,1.211221,-0.208815,-0.000000,-0.000000,0.000000,0.000000,0.000000,0.000000,-0.017080,-0.040240,0.022945
0.018000,0.307000,0.000000,0.367000,0.368245,0.029746,0.332915,0.368264,0.029745,0.332946,0.061245,0.029746,-0.034085,0.076141,0.004613,0.021144,-0.003585,0.021936,1.256855,180.000000,-0.000000,0.000000,179.733499,-1.210979,0.208254,0.266501,1.210979,-0.208254,-0.000000,-0.000000,0.000000,0.000000,0.000000,0.000000,-0.014684,0.030074,-0.024680
0.019000,0.307000,0.000000,0.367000,0.368241,0.029747,0.332909,0.368264,0.029745,0.332946,0.061241,0.029747,-0.034091,0.076142,0.004619,0.021131,-0.003594,0.021927,1.256323,180.000000,-0.000000,0.000000,179.733124,-1.210258,0.208762,0.266876,1.210258,-0.208762,-0.000000,-0.000000,0.000000,0.000000,0.000000,0.000000,0.019532,0.003874,0.009955
0.020000,0.307000,0.000000,0.367000,0.368238,0.029748,0.332907,0.368264,0.029745,0.332946,0.061238,0.029748,-0.034093,0.076140,0.004623,0.021127,-0.003603,0.021926,1.256241,180.000000,-0.000000,0.000000,179.732889,-1.210031,0.209289,0.267111,1.210031,-0.209289,-0.000000,-0.000000,0.000000,0.000000,0.000000,0.000000,0.027017,0.024775,0.020523
0.021000,0.307000,0.000000,0.367000,0.368235,0.029747,0.332902,0.368264,0.029745,0.332946,0.061235,0.029747,-0.034098,0.076140,0.004632,0.021116,-0.003599,0.021916,1.255668,180.000000,-0.000000,0.000000,179.732399,-1.209373,0.209030,0.267601,1.209373,-0.209030,-0.000000,-0.000000,0.000000,0.000000,0.000000,0.000000,-0.007293,-0.024179,0.034066
0.022000,0.307000,0.000000,0.367000,0.368235,0.029748,0.332900,0.368264,0.029745,0.332946,0.061235,0.029748,-0.034100,0.076141,0.004632,0.021115,-0.003597,0.021914,1.255585,180.000000,-0.000000,0.000000,179.732367,-1.209293,0.208954,0.267633,1.209293,-0.208954,-0.000000,-0.000000,0.000000,0.000000,0.000000,0.000000,-0.031937,0.004172,-0.023198
0.023000,0.307000,0.000000,0.367000,0.368232,0.029748,0.332896,0.368264,0.029745,0.332946,0.061232,0.029748,-0.034104,0.076140,0.004632,0.021107,-0.003604,0.021907,1.255203,180.000000,-0.000000,0.000000,179.732365,-1.208834,0.209314,0.267635,1.208834,-0.209314,-0.000000,-0.000000,0.000000,0.000000,0.000000,0.000000,0.007187,0.022756,0.020724
0.024000,0.307000,0.000000,0.367000,0.368230,0.029748,0.332894,0.368264,0.029745,0.332946,0.061230,0.029748,-0.034106,0.076140,0.004633,0.021102,-0.003610,0.021904,1.255007,180.000000,-0.000000,0.000000,179.732339,-1.208566,0.209658,0.267661,1.208566,-0.209658,-0.000000,-0.000000,0.000000,0.000000,0.000000,0.000000,0.002596,-0.002472,-0.017064
0.025000,0.307000,0.000000,0.367000,0.368228,0.029749,0.332889,0.368264,0.029745,0.332946,0.061228,0.029749,-0.034111,0.076141,0.004641,0.021093,-0.003609,0.021897,1.254595,180.000000,-0.000000,0.000000,179.731846,-1.208040,0.209599,0.268154,1.208040,-0.209599,-0.000000,-0.000000,0.000000,0.000000,0.000000,0.000000,-0.007073,-0.010494,-0.015832
0.026000,0.307000,0.000000,0.367000,0.368225,0.029750,0.332886,0.368264,0.029745,0.332946,0.061225,0.029750,-0.034114,0.076140,0.004645,0.021088,-0.003618,0.021894,1.254429,180.000000,-0.000000,0.000000,179.731664,-1.207738,0.210116,0.268336,1.207738,-0.210116,-0.000000,-0.000000,0.000000,0.000000,0.000000,0.000000,-0.004468,0.003206,-0.001691
0.027000,0.307000,0.000000,0.367000,0.368222,0.029749,0.332881,0.368264,0.029745,0.332946,0.061222,0.029749,-0.034119,0.076139,0.004651,0.021078,-0.003620,0.021886,1.253986,180.000000,-0.000000,0.000000,179.731291,-1.207176,0.210234,0.268709,1.207176,-0.210234,-0.000000,-0.000000,0.000000,0.000000,0.000000,0.000000,-0.031860,0.001994,-0.019112
0.028000,0.307000,0.000000,0.367000,0.368219,0.029750,0.332877,0.368264,0.029745,0.332946,0.061219,0.029750,-0.034123,0.076139,0.004651,0.021070,-0.003618,0.021878,1.253542,180.000000,-0.000000,0.000000,179.731302,-1.206730,0.210158,0.268698,1.206730,-0.210158,-0.000000,-0.000000,0.000000,0.000000,0.000000,0.000000,0.000934,-0.002521,-0.054062
0.029000,0.307000,0.000000,0.367000,0.368218,0.029751,0.332874,0.368264,0.029745,0.332946,0.061218,0.029751,-0.034126,0.076140,0.004652,0.021067,-0.003614,0.021876,1.253383,180.000000,-0.000000,0.000000,179.731233,-1.206588,0.209931,0.268767,1.206588,-0.209931,-0.000000,-0.000000,0.000000,0.000000,0.000000,0.000000,-0.007226,-0.015982,-0.049756
0.030000,0.307000,0.000000,0.367000,0.368215,0.029750,0.332872,0.368264,0.029745,0.332946,0.061215,0.029750,-0.034128,0.076138,0.004654,0.021060,-0.003622,0.021870,1.253071,180.000000,-0.000000,0.000000,179.731126,-1.206166,0.210359,0.268874,1.206166,-0.210359,-0.000000,-0.000000,0.000000,0.000000,0.000000,0.000000,-0.008009,-0.037157,-0.080683
0.031000,0.307000,0.000000,0.367000,0.368213,0.029751,0.332868,0.368264,0.029745,0.332946,0.061213,0.029751,-0.034132,0.076139,0.004662,0.021052,-0.003630,0.021865,1.252768,180.000000,-0.000000,0.000000,179.730662,-1.205671,0.210816,0.269338,1.205671,-0.210816,-0.000000,-0.000000,0.000000,0.000000,0.000000,0.000000,0.006094,0.005419,-0.054781
0.032000,0.307000,0.000000,0.367000,0.368209,0.029750,0.332860,0.368264,0.029745,0.332946,0.061209,0.029750,-0.034140,0.076139,0.004666,0.021036,-0.003626,0.021851,1.251942,180.000000,-0.000000,0.000000,179.730417,-1.204793,0.210608,0.269583,1.204793,-0.210608,-0.000000,-0.000000,0.000000,0.000000,0.000000,0.000000,0.018172,0.023921,-0.056407
0.033000,0.307000,0.000000,0.367000,0.368206,0.029753,0.332857,0.368264,0.029745,0.332946,0.061206,0.029753,-0.034143,0.076139,0.004672,0.021031,-0.003634,0.021848,1.251805,180.000000,-0.000000,0.000000,179.730066,-1.204498,0.211039,0.269934,1.204498,-0.211039,-0.000000,-0.000000,0.000000,0.000000,0.000000,0.000000,0.024597,-0.013133,0.005121
0.034000,0.307000,0.000000,0.367000,0.368205,0.029750,0.332853,0.368264,0.029745,0.332946,0.061205,0.029750,-0.034147,0.076139,0.004674,0.021027,-0.003634,0.021844,1.251587,180.000000,-0.000000,0.000000,179.729981,-1.204248,0.211065,0.270019,1.204248,-0.211065,-0.000000,-0.000000,0.000000,0.000000,0.000000,0.000000,0.016159,-0.028410,-0.020902
0.035000,0.307000,0.000000,0.367000,0.368201,0.029751,0.332849,0.368264,0.029745,0.332946,0.061201,0.029751,-0.034151,0.076138,0.004678,0.021016,-0.003638,0.021836,1.251101,180.000000,-0.000000,0.000000,179.729735,-1.203645,0.211314,0.270265,1.203645,-0.211314,-0.000000,-0.000000,0.000000,0.000000,0.000000,0.000000,0.021817,-0.018883,-0.069600
0.036000,0.307000,0.000000,0.367000,0.368199,0.029751,0.332844,0.368264,0.029745,0.332946,0.061199,0.029751,-0.034156,0.076138,0.004681,0.021010,-0.003638,0.021831,1.250811,180.000000,-0.000000,0.000000,179.729570,-1.203311,0.211289,0.270430,1.203311,-0.211289,-0.000000,-0.000000,0.000000,0.000000,0.000000,0.000000,-0.000629,0.014042,0.010261
0.037000,0.307000,0.000000,0.367000,0.368196,0.029753,0.332841,0.368264,0.029745,0.332946,0.061196,0.029753,-0.034159,0.076138,0.004683,0.021003,-0.003645,0.021825,1.250502,180.000000,-0.000000,0.000000,179.729480,-1.202903,0.211673,0.270520,1.202903,-0.211673,-0.000001,-0.000000,0.000000,0.000000,0.000000,0.000000,-0.021406,-0.009028,-0.021035
0.038000,0.307000,0.000000,0.367000,0.368193,0.029756,0.332836,0.368264,0.029745,0.332946,0.061193,0.029756,-0.034164,0.076139,0.004687,0.020994,-0.003649,0.021819,1.250117,180.000000,-0.000000,0.000000,179.729199,-1.202395,0.211932,0.270801,1.202395,-0.211932,-0.000001,-0.000000,0.000000,0.000000,0.000000,0.000000,-0.020618,0.002498,-0.050263
0.039000,0.307000,0.000000,0.367000,0.368190,0.029754,0.332833,0.368264,0.029745,0.332946,0.061190,0.029754,-0.034167,0.076138,0.004689,0.020988,-0.003652,0.021813,1.249808,180.000000,-0.000000,0.000000,179.729122,-1.202030,0.212085,0.270878,1.202030,-0.212085,-0.000001,-0.000000,0.000000,0.000000,0.000000,0.000000,0.005837,0.006727,0.014195
0.040000,0.307000,0.000000,0.367000,0.368189,0.029753,0.332830,0.368264,0.029745,0.332946,0.061189,0.029753,-0.034170,0.076138,0.004690,0.020983,-0.003655,0.021809,1.249577,180.000000,-0.000000,0.000000,179.729072,-1.201748,0.212256,0.270928,1.201748,-0.212256,-0.000001,-0.000000,0.000000,0.000000,0.000000,0.000000,0.018735,-0.007948,-0.030689
0.041000,0.307000,0.000000,0.367000,0.368185,0.029755,0.332825,0.368264,0.029745,0.332946,0.061185,0.029755,-0.034175,0.076137,0.004693,0.020971,-0.003661,0.021799,1.249015,180.000000,-0.000000,0.000000,179.728871,-1.201057,0.212609,0.271129,1.201057,-0.212609,-0.000001,-0.000000,0.000000,0.000000,0.000000,0.000000,0.004630,0.032036,-0.053789
0.042000,0.307000,0.000000,0.367000,0.368182,0.029757,0.332818,0.368264,0.029745,0.332946,0.061182,0.029757,-0.034182,0.076138,0.004701,0.020958,-0.003661,0.021789,1.248403,180.000000,-0.000000,0.000000,179.728423,-1.200322,0.212597,0.271577,1.200322,-0.212597,-0.000001,-0.000000,0.000000,0.000000,0.000000,0.000000,-0.000104,0.015972,-0.034917
0.043000,0.307000,0.000000,0.367000,0.368179,0.029759,0.332815,0.368264,0.029745,0.332946,0.061179,0.029759,-0.034185,0.076138,0.004701,0.020954,-0.003667,0.021785,1.248193,180.000000,-0.000000,0.000000,179.728438,-1.200047,0.212935,0.271562,1.200047,-0.212935,-0.000001,-0.000000,0.000001,0.000000,0.000000,0.000000,0.028355,0.019813,-0.007962
0.044000,0.307000,0.000000,0.367000,0.368174,0.029758,0.332808,0.368264,0.029745,0.332946,0.061174,0.029758,-0.034192,0.076137,0.004705,0.020939,-0.003670,0.021773,1.247487,180.000000,-0.000000,0.000000,179.728164,-1.199220,0.213113,0.271836,1.199220,-0.213113,-0.000001,-0.000001,0.000001,0.000000,0.000000,0.000000,-0.002198,0.027435,-0.085780
0.045000,0.307000,0.000000,0.367000,0.368170,0.029757,0.332802,0.368264,0.029745,0.332946,0.061170,0.029757,-0.034198,0.076137,0.004711,0.020924,-0.003676,0.021760,1.246778,180.000000,-0.000000,0.000000,179.727851,-1.198345,0.213494,0.272149,1.198345,-0.213494,-0.000001,-0.000001,0.000001,0.000000,0.000000,0.000000,-0.001110,0.033395,-0.024274
0.046000,0.307000,0.000000,0.367000,0.368168,0.029758,0.332799,0.368264,0.029745,0.332946,0.061168,0.029758,-0.034201,0.076137,0.004711,0.020916,-0.003682,0.021754,1.246401,180.000000,-0.000000,0.000000,179.727817,-1.197886,0.213828,0.272183,1.197886,-0.213828,-0.000001,-0.000001,0.000001,0.000000,0.000000,0.000000,-0.026429,0.027660,-0.038486
0.047000,0.307000,0.000000,0.367000,0.368164,0.029759,0.332793,0.368264,0.029745,0.332946,0.061164,0.029759,-0.034207,0.076136,0.004716,0.020904,-0.003678,0.021743,1.245784,180.000000,-0.000000,0.000000,179.727562,-1.197229,0.213586,0.272438,1.197229,-0.213586,-0.000001,-0.000001,0.000001,0.000000,0.000000,0.000000,0.011106,0.011721,0.004619
0.048000,0.307000,0.000000,0.367000,0.368161,0.029758,0.332788,0.368264,0.029745,0.332946,0.061161,0.029758,-0.034212,0.076136,0.004714,0.020894,-0.003676,0.021733,1.245185,180.000000,-0.000000,0.000000,179.727663,-1.196646,0.213483,0.272337,1.196646,-0.213483,-0.000001,-0.000001,0.000001,0.000000,0.000000,0.000000,-0.017714,-0.043417,-0.047326
0.049000,0.307000,0.000000,0.367000,0.368156,0.029758,0.332781,0.368264,0.029745,0.332946,0.061156,0.029758,-0.034219,0.076135,0.004720,0.020882,-0.003694,0.021725,1.244733,180.000000,-0.000000,0.000000,179.727320,-1.195922,0.214481,0.272680,1.195922,-0.214481,-0.000002,-0.000001,0.000001,0.000000,0.000000,0.000000,-0.007822,0.000811,0.018258
0.050000,0.307000,0.000000,0.367000,0.368153,0.029760,0.332778,0.368264,0.029745,0.332946,0.061153,0.029760,-0.034222,0.076135,0.004721,0.020873,-0.003692,0.021717,1.244271,180.000000,-0.000000,0.000000,179.727241,-1.195440,0.214384,0.272759,1.195440,-0.214384,-0.000002,-0.000001,0.000001,0.000000,0.000000,0.000000,-0.010913,0.021876,0.049386
0.051000,0.307000,0.000000,0.367000,0.368150,0.029760,0.332774,0.368264,0.029745,0.332946,0.061150,0.029760,-0.034226,0.076134,0.004727,0.020866,-0.003688,0.021710,1.243896,180.000000,-0.000000,0.000000,179.726915,-1.195012,0.214183,0.273085,1.195012,-0.214183,-0.000002,-0.000001,0.000001,0.000000,0.000000,0.000000,-0.016688,-0.015599,0.025510
0.052000,0.307000,0.000000,0.367000,0.368146,0.029762,0.332767,0.368264,0.029745,0.332946,0.061146,0.029762,-0.034233,0.076134,0.004730,0.020853,-0.003691,0.021698,1.243232,180.000000,-0.000000,0.000000,179.726730,-1.194253,0.214326,0.273270,1.194253,-0.214326,-0.000002,-0.000001,0.000001,0.000000,0.000000,0.000000,-0.016248,0.015194,-0.000648
0.053000,0.307000,0.000000,0.367000,0.368142,0.029763,0.332762,0.368264,0.029745,0.332946,0.061142,0.029763,-0.034238,0.076134,0.004733,0.020843,-0.003713,0.021694,1.242987,180.000000,-0.000000,0.000000,179.726578,-1.193734,0.215612,0.273422,1.193734,-0.215612,-0.000002,-0.000001,0.000001,0.000000,0.000000,0.000000,-0.029718,-0.016375,-0.007422
0.054000,0.307000,0.000000,0.367000,0.368137,0.029764,0.332755,0.368264,0.029745,0.332946,0.061137,0.029764,-0.034245,0.076134,0.004738,0.020827,-0.003710,0.021679,1.242099,180.000000,-0.000000,0.000000,179.726277,-1.192773,0.215431,0.273723,1.192773,-0.215431,-0.000002,-0.000001,0.000001,0.000000,0.000000,0.000000,0.019492,-0.004906,-0.067957
0.055000,0.307000,0.000000,0.367000,0.368134,0.029765,0.332751,0.368264,0.029745,0.332946,0.061134,0.029765,-0.034249,0.076133,0.004737,0.020820,-0.003710,0.021672,1.241704,180.000000,-0.000000,0.000000,179.726350,-1.192382,0.215406,0.273650,1.192382,-0.215406,-0.000003,-0.000001,0.000001,0.000000,0.000000,0.000000,0.018741,-0.018526,-0.095386
0.056000,0.307000,0.000000,0.367000,0.368129,0.029765,0.332744,0.368264,0.029745,0.332946,0.061129,0.029765,-0.034256,0.076133,0.004741,0.020807,-0.003710,0.021660,1.241053,180.000000,-0.000000,0.000000,179.726127,-1.191648,0.215435,0.273873,1.191648,-0.215435,-0.000003,-0.000001,0.000001,0.000000,0.000000,0.000000,0.012808,0.018915,-0.073045
0.057000,0.307000,0.000000,0.367000,0.368125,0.029766,0.332738,0.368264,0.029745,0.332946,0.061125,0.029766,-0.034262,0.076133,0.004744,0.020792,-0.003722,0.021648,1.240366,180.000000,-0.000000,0.000000,179.725941,-1.190768,0.216115,0.274059,1.190768,-0.216115,-0.000003,-0.000001,0.000002,0.000000,0.000000,0.000000,0.012714,0.020340,0.035338
0.058000,0.307000,0.000000,0.367000,0.368121,0.029767,0.332732,0.368264,0.029745,0.332946,0.061121,0.029767,-0.034268,0.076133,0.004748,0.020781,-0.003725,0.021639,1.239825,180.000000,-0.000000,0.000000,179.725718,-1.190126,0.216270,0.274282,1.190126,-0.216270,-0.000003,-0.000001,0.000002,0.000000,0.000000,0.000000,0.021044,-0.010744,0.039617
0.059000,0.307000,0.000000,0.367000,0.368119,0.029766,0.332728,0.368264,0.029745,0.332946,0.061119,0.029766,-0.034272,0.076133,0.004749,0.020775,-0.003722,0.021633,1.239507,180.000000,-0.000000,0.000000,179.725646,-1.189803,0.216128,0.274354,1.189803,-0.216128,-0.000003,-0.000002,0.000002,0.000000,0.000000,0.000000,-0.013107,-0.025266,-0.003767
0.060000,0.307000,0.000000,0.367000,0.368115,0.029766,0.332721,0.368264,0.029745,0.332946,0.061115,0.029766,-0.034279,0.076132,0.004750,0.020758,-0.003718,0.021617,1.238567,180.000000,-0.000000,0.000000,179.725579,-1.188854,0.215878,0.274421,1.188854,-0.215878,-0.000003,-0.000002,0.000002,0.000000,0.000000,0.000000,0.001775,0.010704,-0.020222
0.061000,0.307000,0.000000,0.367000,0.368111,0.029768,0.332715,0.368264,0.029745,0.332946,0.061111,0.029768,-0.034285,0.076132,0.004759,0.020748,-0.003737,0.021612,1.238279,180.000000,-0.000000,0.000000,179.725070,-1.188242,0.216957,0.274930,1.188242,-0.216957,-0.000004,-0.000002,0.000002,0.000000,0.000000,0.000000,-0.014234,0.014342,0.053302
0.062000,0.307000,0.000000,0.367000,0.368108,0.029769,0.332713,0.368264,0.029745,0.332946,0.061108,0.029769,-0.034287,0.076132,0.004757,0.020743,-0.003730,0.021606,1.237906,180.000000,-0.000000,0.000000,179.725206,-1.187953,0.216577,0.274794,1.187953,-0.216577,-0.000004,-0.000002,0.000002,0.000000,0.000000,0.000000,-0.009509,0.001894,-0.075463
0.063000,0.307000,0.000000,0.367000,0.368105,0.029769,0.332708,0.368264,0.029745,0.332946,0.061105,0.029769,-0.034292,0.076131,0.004760,0.020735,-0.003735,0.021600,1.237589,180.000000,-0.000000,0.000000,179.725031,-1.187532,0.216853,0.274969,1.187532,-0.216853,-0.000004,-0.000002,0.000002,0.000000,0.000000,0.000000,-0.023150,0.003428,-0.058352
0.064000,0.307000,0.000000,0.367000,0.368100,0.029772,0.332703,0.368264,0.029745,0.332946,0.061100,0.029772,-0.034297,0.076131,0.004764,0.020726,-0.003747,0.021594,1.237237,180.000000,-0.000000,0.000000,179.724773,-1.186982,0.217539,0.275227,1.186982,-0.217539,-0.000004,-0.000002,0.000002,0.000000,0.000000,0.000000,0.007358,0.008322,-0.045222
0.065000,0.307000,0.000000,0.367000,0.368097,0.029769,0.332695,0.368264,0.029745,0.332946,0.061097,0.029769,-0.034305,0.076130,0.004767,0.020708,-0.003747,0.021577,1.236299,180.000000,-0.000000,0.000000,179.724589,-1.185962,0.217538,0.275411,1.185962,-0.217538,-0.000005,-0.000002,0.000003,0.000000,0.000000,0.000000,0.011916,0.001279,0.024702
0.066000,0.307000,0.000000,0.367000,0.368093,0.029771,0.332689,0.368264,0.029745,0.332946,0.061093,0.029771,-0.034311,0.076131,0.004769,0.020696,-0.003738,0.021565,1.235585,180.000000,-0.000000,0.000000,179.724480,-1.185286,0.217021,0.275520,1.185286,-0.217021,-0.000005,-0.000002,0.000003,0.000000,0.000000,0.000000,-0.007417,0.021760,0.008364
0.067000,0.307000,0.000000,0.367000,0.368091,0.029770,0.332687,0.368264,0.029745,0.332946,0.061091,0.029770,-0.034313,0.076130,0.004774,0.020693,-0.003746,0.021564,1.235537,180.000000,-0.000000,0.000000,179.724225,-1.185094,0.217480,0.275775,1.185094,-0.217480,-0.000005,-0.000003,0.000003,0.000000,0.000000,0.000000,-0.010935,-0.013132,0.000748
0.068000,0.307000,0.000000,0.367000,0.368087,0.029771,0.332680,0.368264,0.029745,0.332946,0.061087,0.029771,-0.034320,0.076130,0.004775,0.020678,-0.003747,0.021550,1.234730,180.000000,-0.000000,0.000000,179.724160,-1.184228,0.217530,0.275840,1.184228,-0.217530,-0.000006,-0.000003,0.000003,0.000000,0.000000,0.000000,-0.015637,-0.010284,0.017921
0.069000,0.307000,0.000000,0.367000,0.368082,0.029774,0.332675,0.368264,0.029745,0.332946,0.061082,0.029774,-0.034325,0.076130,0.004783,0.020669,-0.003770,0.021547,1.234564,180.000000,-0.000000,0.000000,179.723702,-1.183710,0.218847,0.276298,1.183710,-0.218847,-0.000006,-0.000003,0.000003,0.000000,0.000000,0.000000,-0.027025,-0.003193,-0.001916
0.070000,0.307000,0.000000,0.367000,0.368079,0.029773,0.332670,0.368264,0.029745,0.332946,0.061079,0.029773,-0.034330,0.076129,0.004785,0.020660,-0.003758,0.021537,1.233965,180.000000,-0.000000,0.000000,179.723575,-1.183182,0.218152,0.276425,1.183182,-0.218152,-0.000006,-0.000003,0.000003,0.000000,0.000000,0.000000,-0.015312,-0.039761,0.021904
0.071000,0.307000,0.000000,0.367000,0.368075,0.029774,0.332664,0.368264,0.029745,0.332946,0.061075,0.029774,-0.034336,0.076129,0.004792,0.020645,-0.003770,0.021527,1.233398,180.000000,-0.000000,0.000000,179.723180,-1.182371,0.218850,0.276820,1.182371,-0.218850,-0.000007,-0.000003,0.000004,0.000000,0.000000,0.000000,0.010391,-0.012477,0.023066
0.072000,0.307000,0.000000,0.367000,0.368074,0.029774,0.332661,0.368264,0.029745,0.332946,0.061074,0.029774,-0.034339,0.076129,0.004792,0.020641,-0.003762,0.021521,1.233086,180.000000,-0.000000,0.000000,179.723165,-1.182119,0.218427,0.276835,1.182119,-0.218427,-0.000007,-0.000003,0.000004,0.000000,0.000000,0.000000,0.000152,0.003960,0.001131
0.073000,0.307000,0.000000,0.367000,0.368069,0.029776,0.332655,0.368264,0.029745,0.332946,0.061069,0.029776,-0.034345,0.076129,0.004791,0.020629,-0.003780,0.021513,1.232594,180.000000,-0.000000,0.000000,179.723208,-1.181433,0.219421,0.276792,1.181433,-0.219421,-0.000007,-0.000004,0.000004,0.000000,0.000000,0.000000,-0.028853,-0.017264,-0.022489
0.074000,0.307000,0.000000,0.367000,0.368068,0.029777,0.332653,0.368264,0.029745,0.332946,0.061068,0.029777,-0.034347,0.076129,0.004793,0.020627,-0.003768,0.021509,1.232395,180.000000,-0.000000,0.000000,179.723091,-1.181322,0.218745,0.276909,1.181322,-0.218745,-0.000008,-0.000004,0.000004,0.000000,0.000000,0.000000,-0.033413,0.000570,0.023066
0.075000,0.307000,0.000000,0.367000,0.368063,0.029777,0.332647,0.368264,0.029745,0.332946,0.061063,0.029777,-0.034353,0.076128,0.004796,0.020612,-0.003784,0.021498,1.231743,180.000000,-0.000000,0.000000,179.722952,-1.180445,0.219648,0.277048,1.180445,-0.219648,-0.000008,-0.000004,0.000005,0.000000,0.000000,0.000000,-0.000990,-0.000948,0.004850
0.076000,0.307000,0.000000,0.367000,0.368059,0.029778,0.332640,0.368264,0.029745,0.332946,0.061059,0.029778,-0.034360,0.076128,0.004802,0.020598,-0.003787,0.021487,1.231122,180.000000,-0.000000,0.000000,179.722572,-1.179672,0.219841,0.277428,1.179672,-0.219841,-0.000009,-0.000004,0.000005,0.000000,0.000000,0.000000,-0.014669,0.004318,0.036141
0.077000,0.307000,0.000000,0.367000,0.368055,0.029779,0.332635,0.368264,0.029745,0.332946,0.061055,0.029779,-0.034365,0.076128,0.004805,0.020588,-0.003792,0.021478,1.230612,180.000000,-0.000000,0.000000,179.722414,-1.179054,0.220102,0.277586,1.179054,-0.220102,-0.000009,-0.000004,0.000005,0.000000,0.000000,0.000000,0.019844,-0.013370,0.025851
0.078000,0.307000,0.000000,0.367000,0.368052,0.029781,0.332629,0.368264,0.029745,0.332946,0.061052,0.029781,-0.034371,0.076129,0.004808,0.020577,-0.003789,0.021468,1.230018,180.000000,-0.000000,0.000000,179.722250,-1.178421,0.219960,0.277750,1.178421,-0.219960,-0.000009,-0.000005,0.000005,0.000000,0.000000,0.000000,-0.005253,-0.019402,0.037925
0.079000,0.307000,0.000000,0.367000,0.368050,0.029782,0.332628,0.368264,0.029745,0.332946,0.061050,0.029782,-0.034372,0.076128,0.004813,0.020576,-0.003808,0.021471,1.230224,180.000000,-0.000000,0.000000,179.721977,-1.178376,0.221028,0.278023,1.178376,-0.221028,-0.000010,-0.000005,0.000006,0.000000,0.000000,0.000000,-0.008067,-0.018918,0.019603
0.080000,0.307000,0.000000,0.367000,0.368045,0.029780,0.332619,0.368264,0.029745,0.332946,0.061045,0.029780,-0.034381,0.076127,0.004811,0.020555,-0.003794,0.021449,1.228926,180.000000,-0.000000,0.000000,179.722086,-1.177188,0.220256,0.277914,1.177188,-0.220256,-0.000010,-0.000005,0.000006,0.000000,0.000000,0.000000,0.014985,0.036871,-0.011573
0.081000,0.307000,0.000000,0.367000,0.368043,0.029781,0.332616,0.368264,0.029745,0.332946,0.061043,0.029781,-0.034384,0.076128,0.004815,0.020549,-0.003798,0.021445,1.228705,180.000000,-0.000000,0.000000,179.721864,-1.176861,0.220494,0.278136,1.176861,-0.220494,-0.000011,-0.000005,0.000006,0.000000,0.000000,0.000000,0.005629,0.018071,-0.012700
0.082000,0.307000,0.000000,0.367000,0.368040,0.029783,0.332611,0.368264,0.029745,0.332946,0.061040,0.029783,-0.034389,0.076128,0.004819,0.020540,-0.003803,0.021437,1.228276,180.000000,-0.000000,0.000000,179.721619,-1.176304,0.220773,0.278381,1.176304,-0.220773,-0.000011,-0.000006,0.000006,0.000000,0.000000,0.000000,-0.045348,-0.010695,0.014869
0.083000,0.307000,0.000000,0.367000,0.368036,0.029781,0.332605,0.368264,0.029745,0.332946,0.061036,0.029781,-0.034395,0.076127,0.004824,0.020527,-0.003806,0.021427,1.227678,180.000000,-0.000000,0.000000,179.721342,-1.175579,0.220962,0.278658,1.175579,-0.220962,-0.000012,-0.000006,0.000007,0.000000,0.000000,0.000000,-0.046650,-0.007438,0.029885
0.084000,0.307000,0.000000,0.367000,0.368033,0.029784,0.332602,0.368264,0.029745,0.332946,0.061033,0.029784,-0.034398,0.076127,0.004821,0.020522,-0.003815,0.021423,1.227445,180.000000,-0.000000,0.000000,179.721472,-1.175280,0.221427,0.278528,1.175280,-0.221427,-0.000013,-0.000006,0.000007,0.000000,0.000000,0.000000,-0.012500,0.008804,-0.057898
0.085000,0.307000,0.000000,0.367000,0.368029,0.029785,0.332597,0.368264,0.029745,0.332946,0.061029,0.029785,-0.034403,0.076127,0.004825,0.020511,-0.003813,0.021414,1.226903,180.000000,-0.000000,0.000000,179.721248,-1.174684,0.221306,0.278752,1.174684,-0.221306,-0.000013,-0.000006,0.000007,0.000000,0.000000,0.000000,-0.025129,-0.011399,-0.045254
0.086000,0.307000,0.000000,0.367000,0.368024,0.029784,0.332589,0.368264,0.029745,0.332946,0.061024,0.029784,-0.034411,0.076126,0.004829,0.020495,-0.003816,0.021399,1.226084,180.000000,-0.000000,0.000000,179.721056,-1.173746,0.221497,0.278944,1.173746,-0.221497,-0.000014,-0.000007,0.000008,0.000000,0.000000,0.000000,0.018189,-0.015356,0.028348
0.087000,0.307000,0.000000,0.367000,0.368023,0.029786,0.332587,0.368264,0.029745,0.332946,0.061023,0.029786,-0.034413,0.076126,0.004831,0.020490,-0.003829,0.021398,1.225996,180.000000,-0.000000,0.000000,179.720935,-1.173480,0.222280,0.279065,1.173480,-0.222280,-0.000014,-0.000007,0.000008,0.000000,0.000000,0.000000,0.031846,0.032118,0.001122
0.088000,0.307000,0.000000,0.367000,0.368018,0.029786,0.332579,0.368264,0.029745,0.332946,0.061018,0.029786,-0.034421,0.076126,0.004838,0.020475,-0.003829,0.021385,1.225264,180.000000,-0.000000,0.000000,179.720493,-1.172614,0.222260,0.279507,1.172614,-0.222260,-0.000015,-0.000007,0.000008,0.000000,0.000000,0.000000,-0.007244,-0.005369,0.029593
0.089000,0.307000,0.000000,0.367000,0.368015,0.029785,0.332574,0.368264,0.029745,0.332946,0.061015,0.029785,-0.034426,0.076126,0.004843,0.020464,-0.003820,0.021373,1.224584,180.000000,-0.000000,0.000000,179.720257,-1.171951,0.221711,0.279743,1.171951,-0.221711,-0.000016,-0.000008,0.000009,0.000000,0.000000,0.000000,-0.037895,0.014777,-0.001678
0.090000,0.307000,0.000000,0.367000,0.368012,0.029788,0.332571,0.368264,0.029745,0.332946,0.061012,0.029788,-0.034429,0.076126,0.004840,0.020458,-0.003834,0.021369,1.224376,180.000000,-0.000000,0.000000,179.720420,-1.171612,0.222565,0.279580,1.171612,-0.222565,-0.000016,-0.000008,0.000009,0.000000,0.000000,0.000000,-0.000128,0.027474,0.042770
0.091000,0.307000,0.000000,0.367000,0.368008,0.029787,0.332566,0.368264,0.029745,0.332946,0.061008,0.029787,-0.034434,0.076125,0.004848,0.020447,-0.003837,0.021361,1.223922,180.000000,-0.000000,0.000000,179.719937,-1.170994,0.222711,0.280063,1.170994,-0.222711,-0.000017,-0.000008,0.000009,0.000000,0.000000,0.000000,0.019492,0.036749,0.004463
0.092000,0.307000,0.000000,0.367000,0.368005,0.029791,0.332562,0.368264,0.029745,0.332946,0.061005,0.029791,-0.034438,0.076125,0.004844,0.020441,-0.003838,0.021355,1.223569,180.000000,-0.000000,0.000000,179.720170,-1.170668,0.222779,0.279830,1.170668,-0.222779,-0.000018,-0.000009,0.000010,0.000000,0.000000,0.000000,-0.017303,0.058592,0.055018
0.093000,0.307000,0.000000,0.367000,0.368003,0.029790,0.332559,0.368264,0.029745,0.332946,0.061003,0.029790,-0.034441,0.076125,0.004848,0.020435,-0.003840,0.021350,1.223278,180.000000,-0.000000,0.000000,179.719965,-1.170295,0.222884,0.280035,1.170295,-0.222884,-0.000018,-0.000009,0.000010,0.000000,0.000000,0.000000,0.008054,0.039809,0.013064
0.094000,0.307000,0.000000,0.367000,0.367998,0.029791,0.332552,0.368264,0.029745,0.332946,0.060998,0.029791,-0.034448,0.076125,0.004851,0.020421,-0.003849,0.021340,1.222677,180.000000,-0.000000,0.000000,179.719751,-1.169522,0.223382,0.280249,1.169522,-0.223382,-0.000019,-0.000009,0.000011,0.000000,0.000000,0.000000,0.008447,0.052078,-0.022364
0.095000,0.307000,0.000000,0.367000,0.367994,0.029790,0.332546,0.368264,0.029745,0.332946,0.060994,0.029790,-0.034454,0.076124,0.004858,0.020406,-0.003849,0.021327,1.221932,180.000000,-0.000000,0.000000,179.719375,-1.168651,0.223394,0.280625,1.168651,-0.223394,-0.000020,-0.000010,0.000011,0.000000,0.000000,0.000000,-0.034333,-0.001507,0.098966
0.096000,0.307000,0.000000,0.367000,0.367991,0.029792,0.332543,0.368264,0.029745,0.332946,0.060991,0.029792,-0.034457,0.076124,0.004858,0.020403,-0.003852,0.021324,1.221788,180.000000,-0.000000,0.000000,179.719348,-1.168459,0.223578,0.280652,1.168459,-0.223578,-0.000021,-0.000010,0.000011,0.000000,0.000000,0.000000,-0.010249,0.016399,-0.030539
0.097000,0.307000,0.000000,0.367000,0.367987,0.029794,0.332537,0.368264,0.029745,0.332946,0.060987,0.029794,-0.034463,0.076124,0.004864,0.020387,-0.003861,0.021312,1.221102,180.000000,-0.000000,0.000000,179.718998,-1.167566,0.224062,0.281002,1.167566,-0.224062,-0.000021,-0.000010,0.000012,0.000000,0.000000,0.000000,0.046554,-0.001194,0.045307
0.098000,0.307000,0.000000,0.367000,0.367985,0.029794,0.332532,0.368264,0.029745,0.332946,0.060985,0.029794,-0.034468,0.076124,0.004861,0.020378,-0.003858,0.021302,1.220524,180.000000,-0.000000,0.000000,179.719206,-1.167042,0.223903,0.280794,1.167042,-0.223903,-0.000022,-0.000011,0.000012,0.000000,0.000000,0.000000,-0.033642,0.000684,0.032097
0.099000,0.307000,0.000000,0.367000,0.367981,0.029795,0.332526,0.368264,0.029745,0.332946,0.060981,0.029795,-0.034474,0.076123,0.004867,0.020367,-0.003859,0.021293,1.219983,180.000000,-0.000000,0.000000,179.718830,-1.166372,0.223976,0.281170,1.166372,-0.223976,-0.000023,-0.000011,0.000013,0.000000,0.000000,0.000000,0.041075,-0.022551,0.027583
0.100000,0.307000,0.000000,0.367000,0.367978,0.029794,0.332521,0.368264,0.029745,0.332946,0.060978,0.029794,-0.034479,0.076123,0.004868,0.020358,-0.003863,0.021285,1.219527,180.000000,-0.000000,0.000000,179.718816,-1.165853,0.224179,0.281184,1.165853,-0.224179,-0.000024,-0.000012,0.000013,0.000000,0.000000,0.000000,0.009495,-0.008191,0.011905
0.101000,0.307000,0.000000,0.367000,0.367974,0.029795,0.332517,0.368264,0.029745,0.332946,0.060974,0.029795,-0.034483,0.076123,0.004871,0.020346,-0.003872,0.021277,1.219063,180.000000,-0.000000,0.000000,179.718616,-1.165220,0.224701,0.281384,1.165220,-0.224701,-0.000025,-0.000012,0.000014,0.000000,0.000000,0.000000,0.001479,-0.006262,-0.069837
0.102000,0.307000,0.000000,0.367000,0.367972,0.029795,0.332514,0.368264,0.029745,0.332946,0.060972,0.029795,-0.034486,0.076122,0.004871,0.020345,-0.003867,0.021274,1.218932,180.000000,-0.000000,0.000000,179.718622,-1.165132,0.224450,0.281378,1.165132,-0.224450,-0.000026,-0.000012,0.000014,0.000000,0.000000,0.000000,-0.010815,-0.030352,-0.006413
0.103000,0.307000,0.000000,0.367000,0.367967,0.029797,0.332506,0.368264,0.029745,0.332946,0.060967,0.029797,-0.034494,0.076123,0.004878,0.020327,-0.003875,0.021261,1.218137,180.000000,-0.000000,0.000000,179.718236,-1.164128,0.224865,0.281764,1.164128,-0.224865,-0.000027,-0.000013,0.000015,0.000000,0.000000,0.000000,0.010710,-0.016964,0.071796
0.104000,0.307000,0.000000,0.367000,0.367965,0.029797,0.332504,0.368264,0.029745,0.332946,0.060965,0.029797,-0.034496,0.076122,0.004878,0.020326,-0.003881,0.021260,1.218125,180.000000,-0.000000,0.000000,179.718208,-1.164033,0.225258,0.281792,1.164033,-0.225258,-0.000028,-0.000013,0.000015,0.000000,0.000000,0.000000,-0.035995,-0.007778,0.064826
0.105000,0.307000,0.000000,0.367000,0.367960,0.029799,0.332498,0.368264,0.029744,0.332946,0.060960,0.029799,-0.034502,0.076122,0.004885,0.020311,-0.003890,0.021250,1.217516,180.000000,-0.000000,0.000000,179.717780,-1.163198,0.225755,0.282220,1.163198,-0.225755,-0.000029,-0.000014,0.000016,0.000000,0.000000,0.000000,0.016686,-0.012324,0.044630
0.106000,0.307000,0.000000,0.367000,0.367957,0.029799,0.332493,0.368264,0.029744,0.332946,0.060957,0.029799,-0.034507,0.076122,0.004885,0.020300,-0.003882,0.021237,1.216791,180.000000,-0.000000,0.000000,179.717797,-1.162533,0.225287,0.282203,1.162533,-0.225287,-0.000030,-0.000014,0.000016,0.000000,0.000000,0.000000,0.000856,-0.002383,-0.021485
0.107000,0.307000,0.000000,0.367000,0.367954,0.029798,0.332488,0.368263,0.029744,0.332946,0.060954,0.029798,-0.034512,0.076121,0.004889,0.020290,-0.003892,0.021230,1.216417,180.000000,-0.000000,0.000000,179.717589,-1.161977,0.225883,0.282411,1.161977,-0.225883,-0.000031,-0.000015,0.000017,0.000000,0.000000,0.000000,0.015200,0.003242,-0.018118
0.108000,0.307000,0.000000,0.367000,0.367951,0.029800,0.332484,0.368263,0.029744,0.332946,0.060951,0.029800,-0.034516,0.076121,0.004890,0.020280,-0.003895,0.021222,1.215937,180.000000,-0.000000,0.000000,179.717508,-1.161421,0.226052,0.282492,1.161421,-0.226052,-0.000032,-0.000015,0.000018,0.000000,0.000000,0.000000,-0.018231,-0.002045,-0.025830
0.109000,0.307000,0.000000,0.367000,0.367947,0.029798,0.332477,0.368263,0.029744,0.332946,0.060947,0.029798,-0.034523,0.076120,0.004892,0.020266,-0.003890,0.021208,1.215104,180.000000,-0.000000,0.000000,179.717421,-1.160586,0.225749,0.282579,1.160586,-0.225749,-0.000033,-0.000016,0.000018,0.000000,0.000000,0.000000,-0.030118,-0.019745,0.031004
0.110000,0.307000,0.000000,0.367000,0.367946,0.029799,0.332476,0.368263,0.029744,0.332946,0.060946,0.029799,-0.034524,0.076120,0.004891,0.020265,-0.003892,0.021207,1.215087,180.000000,-0.000000,0.000000,179.717493,-1.160561,0.225880,0.282507,1.160561,-0.225880,-0.000034,-0.000016,0.000019,0.000000,0.000000,0.000000,-0.023967,-0.013602,-0.042260
0.111000,0.307000,0.000000,0.367000,0.367944,0.029801,0.332471,0.368263,0.029744,0.332946,0.060944,0.029801,-0.034529,0.076121,0.004896,0.020258,-0.003904,0.021204,1.214875,180.000000,-0.000000,0.000000,179.717191,-1.160137,0.226548,0.282809,1.160137,-0.226548,-0.000035,-0.000017,0.000019,0.000000,0.000000,0.000000,-0.008708,0.019111,0.001133
0.112000,0.307000,0.000000,0.367000,0.367938,0.029803,0.332465,0.368263,0.029744,0.332946,0.060938,0.029803,-0.034535,0.076120,0.004902,0.020245,-0.003907,0.021193,1.214274,180.000000,-0.000000,0.000000,179.716827,-1.159381,0.226749,0.283173,1.159381,-0.226749,-0.000036,-0.000018,0.000020,0.000000,0.000000,0.000000,-0.016907,0.022867,0.045689
0.113000,0.307000,0.000000,0.367000,0.367936,0.029802,0.332462,0.368263,0.029744,0.332946,0.060936,0.029802,-0.034538,0.076120,0.004900,0.020241,-0.003905,0.021188,1.214008,180.000000,-0.000000,0.000000,179.716937,-1.159160,0.226586,0.283063,1.159160,-0.226586,-0.000037,-0.000018,0.000021,0.000000,0.000000,0.000000,-0.006479,0.011708,0.020447
0.114000,0.307000,0.000000,0.367000,0.367935,0.029803,0.332459,0.368263,0.029744,0.332946,0.060935,0.029803,-0.034541,0.076121,0.004904,0.020236,-0.003912,0.021186,1.213881,180.000000,-0.000000,0.000000,179.716693,-1.158884,0.227020,0.283307,1.158884,-0.227020,-0.000039,-0.000019,0.000021,0.000000,0.000000,0.000000,-0.002528,0.000400,-0.003841
0.115000,0.307000,0.000000,0.367000,0.367930,0.029805,0.332452,0.368263,0.029744,0.332946,0.060930,0.029805,-0.034548,0.076121,0.004904,0.020219,-0.003920,0.021172,1.213042,180.000000,-0.000000,0.000000,179.716729,-1.157924,0.227480,0.283271,1.157924,-0.227480,-0.000040,-0.000019,0.000022,0.000000,0.000000,0.000000,0.010047,0.004409,-0.060591
0.116000,0.307000,0.000000,0.367000,0.367927,0.029805,0.332448,0.368263,0.029744,0.332946,0.060927,0.029805,-0.034552,0.076120,0.004906,0.020210,-0.003923,0.021164,1.212605,180.000000,-0.000000,0.000000,179.716607,-1.157409,0.227620,0.283393,1.157409,-0.227620,-0.000041,-0.000020,0.000023,0.000000,0.000000,0.000000,0.029485,0.013713,-0.016506
0.117000,0.307000,0.000000,0.367000,0.367924,0.029806,0.332444,0.368263,0.029744,0.332946,0.060924,0.029806,-0.034556,0.076120,0.004911,0.020202,-0.003921,0.021157,1.212204,180.000000,-0.000000,0.000000,179.716306,-1.156935,0.227521,0.283694,1.156935,-0.227521,-0.000042,-0.000021,0.000024,0.000000,0.000000,0.000000,0.023095,-0.023609,-0.006203
0.118000,0.307000,0.000000,0.367000,0.367922,0.029806,0.332441,0.368263,0.029744,0.332946,0.060922,0.029806,-0.034559,0.076120,0.004906,0.020195,-0.003914,0.021148,1.211704,180.000000,-0.000000,0.000000,179.716582,-1.156556,0.227119,0.283418,1.156556,-0.227119,-0.000044,-0.000021,0.000024,0.000000,0.000000,0.000000,-0.018664,0.017388,0.007217
0.119000,0.307000,0.000000,0.367000,0.367918,0.029805,0.332435,0.368263,0.029744,0.332946,0.060918,0.029805,-0.034565,0.076119,0.004915,0.020183,-0.003928,0.021141,1.211294,180.000000,-0.000000,0.000000,179.716057,-1.155836,0.227957,0.283943,1.155836,-0.227957,-0.000045,-0.000022,0.000025,0.000000,0.000000,0.000000,-0.033611,0.001812,0.010643
0.120000,0.307000,0.000000,0.367000,0.367918,0.029808,0.332435,0.368263,0.029744,0.332946,0.060918,0.029808,-0.034565,0.076120,0.004913,0.020185,-0.003931,0.021143,1.211430,180.000000,-0.000000,0.000000,179.716169,-1.155976,0.228108,0.283831,1.155976,-0.228108,-0.000047,-0.000023,0.000026,0.000000,0.000000,0.000000,-0.019048,-0.021346,0.029271
0.121000,0.307000,0.000000,0.367000,0.367914,0.029807,0.332429,0.368263,0.029744,0.332946,0.060914,0.029807,-0.034571,0.076119,0.004920,0.020173,-0.003929,0.021133,1.210811,180.000000,-0.000000,0.000000,179.715791,-1.155256,0.227995,0.284209,1.155256,-0.227995,-0.000048,-0.000023,0.000027,0.000000,0.000000,0.000000,-0.019589,-0.031160,0.009252
0.122000,0.307000,0.000000,0.367000,0.367910,0.029807,0.332424,0.368263,0.029744,0.332946,0.060910,0.029807,-0.034576,0.076118,0.004922,0.020160,-0.003937,0.021123,1.210231,180.000000,-0.000000,0.000000,179.715689,-1.154539,0.228431,0.284311,1.154539,-0.228431,-0.000049,-0.000024,0.000027,0.000000,0.000000,0.000000,0.002263,-0.025430,0.023041
0.123000,0.307000,0.000000,0.367000,0.367907,0.029808,0.332420,0.368263,0.029744,0.332946,0.060907,0.029808,-0.034580,0.076118,0.004926,0.020156,-0.003935,0.021119,1.210026,180.000000,-0.000000,0.000000,179.715473,-1.154295,0.228306,0.284527,1.154295,-0.228306,-0.000051,-0.000025,0.000028,0.000000,0.000000,0.000000,0.015186,-0.013756,0.076636
0.124000,0.307000,0.000000,0.367000,0.367905,0.029810,0.332416,0.368263,0.029744,0.332946,0.060905,0.029810,-0.034584,0.076119,0.004932,0.020147,-0.003941,0.021113,1.209678,180.000000,-0.000000,0.000000,179.715116,-1.153775,0.228652,0.284884,1.153775,-0.228652,-0.000052,-0.000025,0.000029,0.000000,0.000000,0.000000,0.025817,-0.013555,0.006675
0.125000,0.307000,0.000000,0.367000,0.367900,0.029811,0.332409,0.368263,0.029744,0.332946,0.060900,0.029811,-0.034591,0.076119,0.004934,0.020130,-0.003945,0.021098,1.208801,180.000000,-0.000000,0.000000,179.714968,-1.152773,0.228884,0.285032,1.152773,-0.228884,-0.000054,-0.000026,0.000030,0.000000,0.000000,0.000000,0.014828,0.006904,-0.039177
0.126000,0.307000,0.000000,0.367000,0.367899,0.029812,0.332408,0.368263,0.029744,0.332946,0.060899,0.029812,-0.034592,0.076119,0.004932,0.020127,-0.003954,0.021097,1.208745,180.000000,-0.000000,0.000000,179.715071,-1.152633,0.229427,0.284929,1.152633,-0.229427,-0.000056,-0.000027,0.000031,0.000000,0.000000,0.000000,0.004512,0.002435,-0.043424
0.127000,0.307000,0.000000,0.367000,0.367897,0.029810,0.332403,0.368263,0.029744,0.332946,0.060897,0.029810,-0.034597,0.076119,0.004934,0.020119,-0.003943,0.021087,1.208207,180.000000,-0.000000,0.000000,179.714984,-1.152174,0.228782,0.285016,1.152174,-0.228782,-0.000057,-0.000028,0.000032,0.000000,0.000000,0.000000,-0.016345,-0.004708,0.016149
0.128000,0.307000,0.000000,0.367000,0.367894,0.029811,0.332399,0.368263,0.029744,0.332946,0.060894,0.029811,-0.034601,0.076118,0.004937,0.020112,-0.003949,0.021083,1.207949,180.000000,-0.000000,0.000000,179.714802,-1.151790,0.229131,0.285198,1.151790,-0.229131,-0.000059,-0.000029,0.000033,0.000000,0.000000,0.000000,0.002680,0.056782,-0.014477
0.129000,0.307000,0.000000,0.367000,0.367891,0.029812,0.332395,0.368262,0.029744,0.332946,0.060891,0.029812,-0.034605,0.076118,0.004939,0.020104,-0.003952,0.021076,1.207544,180.000000,-0.000000,0.000000,179.714704,-1.151310,0.229287,0.285296,1.151310,-0.229287,-0.000060,-0.000029,0.000034,0.000000,0.000000,0.000000,-0.010370,0.008469,-0.003188
0.130000,0.307000,0.000000,0.367000,0.367889,0.029811,0.332392,0.368262,0.029744,0.332947,0.060889,0.029811,-0.034608,0.076117,0.004937,0.020097,-0.003954,0.021069,1.207164,180.000000,-0.000000,0.000000,179.714801,-1.150907,0.229428,0.285199,1.150907,-0.229428,-0.000062,-0.000030,0.000035,0.000000,0.000000,0.000000,-0.054611,0.023327,0.000875
0.131000,0.307000,0.000000,0.367000,0.367886,0.029812,0.332387,0.368262,0.029744,0.332947,0.060886,0.029812,-0.034613,0.076118,0.004945,0.020086,-0.003951,0.021060,1.206633,180.000000,-0.000000,0.000000,179.714385,-1.150282,0.229254,0.285615,1.150282,-0.229254,-0.000064,-0.000031,0.000035,0.000000,0.000000,0.000000,-0.003084,0.017932,0.003036
0.132000,0.307000,0.000000,0.367000,0.367882,0.029813,0.332383,0.368262,0.029744,0.332947,0.060882,0.029813,-0.034617,0.076117,0.004945,0.020077,-0.003959,0.021053,1.206230,180.000000,-0.000000,0.000000,179.714332,-1.149751,0.229734,0.285668,1.149751,-0.229734,-0.000066,-0.000032,0.000036,0.000000,0.000000,0.000000,-0.004763,0.024867,-0.035633
0.133000,0.307000,0.000000,0.367000,0.367880,0.029815,0.332380,0.368262,0.029744,0.332947,0.060880,0.029815,-0.034620,0.076118,0.004950,0.020074,-0.003969,0.021053,1.206229,180.000000,-0.000000,0.000000,179.714041,-1.149573,0.230273,0.285959,1.149573,-0.230273,-0.000067,-0.000033,0.000037,0.000000,0.000000,0.000000,0.025445,-0.017367,-0.067738
0.134000,0.307000,0.000000,0.367000,0.367877,0.029814,0.332376,0.368262,0.029744,0.332947,0.060877,0.029814,-0.034624,0.076117,0.004949,0.020065,-0.003956,0.021041,1.205567,180.000000,-0.000000,0.000000,179.714142,-1.149047,0.229542,0.285858,1.149047,-0.229542,-0.000069,-0.000034,0.000038,0.000000,0.000000,0.000000,0.003323,-0.001291,-0.073273
0.135000,0.307000,0.000000,0.367000,0.367874,0.029815,0.332372,0.368262,0.029744,0.332947,0.060874,0.029815,-0.034628,0.076116,0.004953,0.020054,-0.003960,0.021033,1.205112,180.000000,-0.000000,0.000000,179.713920,-1.148468,0.229777,0.286080,1.148468,-0.229777,-0.000071,-0.000035,0.000040,0.000000,0.000000,0.000000,0.041932,-0.006960,-0.042046
0.136000,0.307000,0.000000,0.367000,0.367873,0.029815,0.332370,0.368262,0.029744,0.332947,0.060873,0.029815,-0.034630,0.076116,0.004954,0.020051,-0.003970,0.021032,1.205028,180.000000,-0.000000,0.000000,179.713853,-1.148254,0.230328,0.286147,1.148254,-0.230328,-0.000073,-0.000035,0.000041,0.000000,0.000000,0.000000,0.003044,0.018213,0.014370
0.137000,0.307000,0.000000,0.367000,0.367869,0.029817,0.332364,0.368262,0.029744,0.332947,0.060869,0.029817,-0.034636,0.076117,0.004953,0.020038,-0.003977,0.021020,1.204373,180.000000,-0.000000,0.000000,179.713867,-1.147493,0.230715,0.286133,1.147493,-0.230715,-0.000075,-0.000036,0.000042,0.000000,0.000000,0.000000,0.011648,0.063787,-0.055618
0.138000,0.307000,0.000000,0.367000,0.367868,0.029817,0.332362,0.368262,0.029744,0.332947,0.060868,0.029817,-0.034638,0.076116,0.004959,0.020039,-0.003965,0.021020,1.204379,180.000000,-0.000000,0.000000,179.713577,-1.147564,0.230029,0.286423,1.147564,-0.230029,-0.000077,-0.000037,0.000043,0.000000,0.000000,0.000000,-0.013949,0.023368,0.094968
0.139000,0.307000,0.000000,0.367000,0.367864,0.029818,0.332357,0.368262,0.029744,0.332947,0.060864,0.029818,-0.034643,0.076116,0.004957,0.020025,-0.003977,0.021010,1.203764,180.000000,-0.000000,0.000000,179.713662,-1.146798,0.230739,0.286338,1.146798,-0.230739,-0.000079,-0.000038,0.000044,0.000000,0.000000,0.000000,0.005506,0.015309,0.031035
0.140000,0.307000,0.000000,0.367000,0.367862,0.029817,0.332352,0.368262,0.029744,0.332947,0.060862,0.029817,-0.034648,0.076116,0.004964,0.020017,-0.003983,0.021005,1.203473,180.000000,-0.000000,0.000000,179.713268,-1.146324,0.231091,0.286732,1.146324,-0.231091,-0.000081,-0.000039,0.000045,0.000000,0.000000,0.000000,0.011187,-0.006579,-0.033465
0.141000,0.307000,0.000000,0.367000,0.367857,0.029818,0.332347,0.368262,0.029744,0.332947,0.060857,0.029818,-0.034653,0.076116,0.004966,0.020005,-0.003981,0.020993,1.202828,180.000000,-0.000000,0.000000,179.713146,-1.145644,0.230953,0.286854,1.145644,-0.230953,-0.000083,-0.000040,0.000046,0.000000,0.000000,0.000000,0.009652,-0.015343,-0.003834
0.142000,0.307000,0.000000,0.367000,0.367856,0.029819,0.332344,0.368262,0.029744,0.332947,0.060856,0.029819,-0.034656,0.076116,0.004968,0.020000,-0.003986,0.020989,1.202600,180.000000,-0.000000,0.000000,179.713049,-1.145317,0.231269,0.286951,1.145317,-0.231269,-0.000085,-0.000041,0.000047,0.000000,0.000000,0.000000,0.017654,-0.010513,-0.023734
0.143000,0.307000,0.000000,0.367000,0.367853,0.029819,0.332339,0.368261,0.029743,0.332947,0.060853,0.029819,-0.034661,0.076116,0.004968,0.019990,-0.003989,0.020981,1.202107,180.000000,-0.000000,0.000000,179.713031,-1.144767,0.231409,0.286969,1.144767,-0.231409,-0.000087,-0.000042,0.000049,0.000000,0.000000,0.000000,0.010953,-0.003600,-0.019888
0.144000,0.307000,0.000000,0.367000,0.367852,0.029819,0.332338,0.368261,0.029743,0.332947,0.060852,0.029819,-0.034662,0.076116,0.004967,0.019991,-0.003989,0.020982,1.202159,180.000000,-0.000000,0.000000,179.713077,-1.144826,0.231441,0.286923,1.144826,-0.231441,-0.000089,-0.000043,0.000050,0.000000,0.000000,0.000000,-0.003678,0.000291,-0.079920
0.145000,0.307000,0.000000,0.367000,0.367849,0.029819,0.332335,0.368261,0.029743,0.332947,0.060849,0.029819,-0.034665,0.076115,0.004971,0.019983,-0.003992,0.020975,1.201787,180.000000,-0.000000,0.000000,179.712884,-1.144357,0.231593,0.287116,1.144357,-0.231593,-0.000092,-0.000045,0.000051,0.000000,0.000000,0.000000,0.013573,-0.014947,-0.052575
0.146000,0.307000,0.000000,0.367000,0.367846,0.029821,0.332329,0.368261,0.029743,0.332947,0.060846,0.029821,-0.034671,0.076115,0.004973,0.019970,-0.003995,0.020964,1.201164,180.000000,-0.000000,0.000000,179.712747,-1.143635,0.231766,0.287253,1.143635,-0.231766,-0.000094,-0.000046,0.000052,0.000000,0.000000,0.000000,0.012765,-0.015731,-0.081848
0.147000,0.307000,0.000000,0.367000,0.367843,0.029820,0.332327,0.368261,0.029743,0.332947,0.060843,0.029820,-0.034673,0.076114,0.004972,0.019968,-0.004004,0.020964,1.201147,180.000000,-0.000000,0.000000,179.712801,-1.143524,0.232288,0.287199,1.143524,-0.232288,-0.000096,-0.000047,0.000054,0.000000,0.000000,0.000000,0.009295,-0.008835,-0.101315
0.148000,0.307000,0.000000,0.367000,0.367841,0.029821,0.332324,0.368261,0.029743,0.332947,0.060841,0.029821,-0.034676,0.076114,0.004976,0.019960,-0.004001,0.020956,1.200699,180.000000,-0.000000,0.000000,179.712597,-1.143042,0.232094,0.287403,1.143042,-0.232094,-0.000099,-0.000048,0.000055,0.000000,0.000000,0.000000,-0.016166,0.001979,-0.034478
0.149000,0.307000,0.000000,0.367000,0.367838,0.029822,0.332318,0.368261,0.029743,0.332947,0.060838,0.029822,-0.034682,0.076115,0.004977,0.019947,-0.003999,0.020944,1.200006,180.000000,-0.000000,0.000000,179.712517,-1.142310,0.232012,0.287483,1.142310,-0.232012,-0.000101,-0.000049,0.000056,0.000000,0.000000,0.000000,-0.002584,0.029050,-0.063930
0.150000,0.307000,0.000000,0.367000,0.367837,0.029821,0.332317,0.368261,0.029743,0.332947,0.060837,0.029821,-0.034683,0.076114,0.004979,0.019945,-0.004005,0.020943,1.199961,180.000000,-0.000000,0.000000,179.712376,-1.142163,0.232339,0.287624,1.142163,-0.232339,-0.000103,-0.000050,0.000057,0.000000,0.000000,0.000000,-0.031287,0.003602,-0.008507
0.151000,0.307000,0.000000,0.367000,0.367834,0.029823,0.332312,0.368261,0.029743,0.332947,0.060834,0.029823,-0.034688,0.076114,0.004982,0.019934,-0.004013,0.020936,1.199532,180.000000,-0.000000,0.000000,179.712210,-1.141581,0.232778,0.287790,1.141581,-0.232778,-0.000106,-0.000051,0.000059,0.000000,0.000000,0.000000,0.003247,0.039998,0.049654
0.152000,0.307000,0.000000,0.367000,0.367832,0.029821,0.332309,0.368261,0.029743,0.332948,0.060832,0.029821,-0.034691,0.076114,0.004986,0.019929,-0.004003,0.020929,1.199150,180.000000,-0.000000,0.000000,179.712028,-1.141244,0.232228,0.287972,1.141244,-0.232228,-0.000108,-0.000053,0.000060,0.000000,0.000000,0.000000,-0.022767,0.017569,0.067745
0.153000,0.307000,0.000000,0.367000,0.367828,0.029823,0.332305,0.368260,0.029743,0.332948,0.060828,0.029823,-0.034695,0.076113,0.004985,0.019920,-0.004013,0.020922,1.198754,180.000000,-0.000000,0.000000,179.712065,-1.140724,0.232792,0.287935,1.140724,-0.232792,-0.000111,-0.000054,0.000062,0.000000,0.000000,0.000000,-0.013237,-0.016917,0.018394
0.154000,0.307000,0.000000,0.367000,0.367825,0.029824,0.332299,0.368260,0.029743,0.332948,0.060825,0.029824,-0.034701,0.076114,0.004991,0.019909,-0.004013,0.020913,1.198242,180.000000,-0.000000,0.000000,179.711731,-1.140095,0.232830,0.288269,1.140095,-0.232830,-0.000113,-0.000055,0.000063,0.000000,0.000000,0.000000,0.028320,0.005590,-0.006623
0.155000,0.307000,0.000000,0.367000,0.367825,0.029825,0.332300,0.368260,0.029743,0.332948,0.060825,0.029825,-0.034700,0.076114,0.004989,0.019914,-0.004017,0.020919,1.198576,180.000000,-0.000000,0.000000,179.711831,-1.140430,0.233034,0.288169,1.140430,-0.233034,-0.000116,-0.000056,0.000064,0.000000,0.000000,0.000000,0.013885,-0.031173,-0.033095
0.156000,0.307000,0.000000,0.367000,0.367822,0.029824,0.332295,0.368260,0.029743,0.332948,0.060822,0.029824,-0.034705,0.076113,0.004990,0.019901,-0.004009,0.020905,1.197761,180.000000,-0.000000,0.000000,179.711787,-1.139651,0.232591,0.288213,1.139651,-0.232591,-0.000119,-0.000058,0.000066,0.000000,0.000000,0.000000,0.016745,-0.008585,-0.012361
0.157000,0.307000,0.000000,0.367000,0.367819,0.029826,0.332292,0.368260,0.029743,0.332948,0.060819,0.029826,-0.034708,0.076112,0.004992,0.019895,-0.004022,0.020902,1.197587,180.000000,-0.000000,0.000000,179.711679,-1.139299,0.233292,0.288321,1.139299,-0.233292,-0.000121,-0.000059,0.000067,0.000000,0.000000,0.000000,0.014596,0.004104,0.083399
0.158000,0.307000,0.000000,0.367000,0.367816,0.029827,0.332286,0.368260,0.029743,0.332948,0.060816,0.029827,-0.034714,0.076114,0.004995,0.019882,-0.004031,0.020893,1.197062,180.000000,-0.000000,0.000000,179.711466,-1.138580,0.233850,0.288534,1.138580,-0.233850,-0.000124,-0.000060,0.000069,0.000000,0.000000,0.000000,-0.003301,0.006384,0.021490
0.159000,0.307000,0.000000,0.367000,0.367815,0.029828,0.332284,0.368260,0.029743,0.332948,0.060815,0.029828,-0.034716,0.076114,0.004996,0.019879,-0.004024,0.020889,1.196850,180.000000,-0.000000,0.000000,179.711394,-1.138421,0.233446,0.288606,1.138421,-0.233446,-0.000127,-0.000062,0.000071,0.000000,0.000000,0.000000,0.007308,0.006862,-0.004183
0.160000,0.307000,0.000000,0.367000,0.367812,0.029827,0.332281,0.368260,0.029743,0.332948,0.060812,0.029827,-0.034719,0.076113,0.004996,0.019871,-0.004024,0.020881,1.196406,180.000000,-0.000000,0.000000,179.711432,-1.137968,0.233427,0.288568,1.137968,-0.233427,-0.000130,-0.000063,0.000072,0.000000,0.000000,0.000000,-0.037859,-0.034335,-0.021958
0.161000,0.307000,0.000000,0.367000,0.367809,0.029827,0.332276,0.368259,0.029743,0.332948,0.060809,0.029827,-0.034724,0.076112,0.004999,0.019862,-0.004030,0.020874,1.196015,180.000000,-0.000000,0.000000,179.711238,-1.137431,0.233802,0.288762,1.137431,-0.233802,-0.000133,-0.000064,0.000074,0.000000,0.000000,0.000000,-0.002378,-0.009304,-0.088593
0.162000,0.307000,0.000000,0.367000,0.367807,0.029829,0.332276,0.368259,0.029742,0.332948,0.060807,0.029829,-0.034724,0.076112,0.004998,0.019862,-0.004035,0.020875,1.196050,180.000000,-0.000000,0.000000,179.711325,-1.137435,0.234071,0.288675,1.137435,-0.234071,-0.000135,-0.000066,0.000075,0.000000,0.000000,0.000000,0.015112,-0.002156,0.006558
0.163000,0.307000,0.000000,0.367000,0.367806,0.029829,0.332272,0.368259,0.029742,0.332948,0.060806,0.029829,-0.034728,0.076113,0.005005,0.019853,-0.004030,0.020867,1.195586,180.000000,-0.000000,0.000000,179.710879,-1.136900,0.233751,0.289121,1.136900,-0.233751,-0.000138,-0.000067,0.000077,0.000000,0.000000,0.000000,-0.025302,0.025246,-0.019081
0.164000,0.307000,0.000000,0.367000,0.367804,0.029828,0.332268,0.368259,0.029742,0.332948,0.060804,0.029828,-0.034732,0.076112,0.005004,0.019845,-0.004028,0.020858,1.195103,180.000000,-0.000000,0.000000,179.710981,-1.136431,0.233688,0.289019,1.136431,-0.233688,-0.000141,-0.000069,0.000079,0.000000,0.000000,0.000000,0.011850,0.011548,0.012345
0.165000,0.307000,0.000000,0.367000,0.367800,0.029826,0.332264,0.368259,0.029742,0.332948,0.060800,0.029826,-0.034736,0.076111,0.005000,0.019836,-0.004028,0.020850,1.194592,180.000000,-0.000000,0.000000,179.711202,-1.135953,0.233667,0.288798,1.135953,-0.233667,-0.000144,-0.000070,0.000080,0.000000,0.000000,0.000000,-0.012698,0.001866,0.026673
0.166000,0.307000,0.000000,0.367000,0.367798,0.029829,0.332260,0.368259,0.029742,0.332949,0.060798,0.029829,-0.034740,0.076112,0.005002,0.019828,-0.004034,0.020843,1.194212,180.000000,-0.000000,0.000000,179.711057,-1.135447,0.234006,0.288943,1.135447,-0.234006,-0.000147,-0.000072,0.000082,0.000000,0.000000,0.000000,0.020263,-0.015527,-0.052253
0.167000,0.307000,0.000000,0.367000,0.367797,0.029831,0.332260,0.368259,0.029742,0.332949,0.060797,0.029831,-0.034740,0.076112,0.005005,0.019828,-0.004035,0.020845,1.194308,180.000000,-0.000000,0.000000,179.710905,-1.135503,0.234043,0.289095,1.135503,-0.234043,-0.000151,-0.000073,0.000084,0.000000,0.000000,0.000000,0.037253,0.012867,0.025673
0.168000,0.307000,0.000000,0.367000,0.367795,0.029830,0.332256,0.368258,0.029742,0.332949,0.060795,0.029830,-0.034744,0.076112,0.005013,0.019820,-0.004044,0.020840,1.194059,180.000000,-0.000000,0.000000,179.710444,-1.135012,0.234590,0.289556,1.135012,-0.234590,-0.000154,-0.000075,0.000085,0.000000,0.000000,0.000000,-0.019326,-0.006637,-0.007007
0.169000,0.307000,0.000000,0.367000,0.367792,0.029833,0.332254,0.368258,0.029742,0.332949,0.060792,0.029833,-0.034746,0.076112,0.005014,0.019818,-0.004045,0.020838,1.193948,180.000000,-0.000000,0.000000,179.710404,-1.134871,0.234659,0.289596,1.134871,-0.234659,-0.000157,-0.000076,0.000087,0.000000,0.000000,0.000000,-0.023330,-0.001237,-0.021447
0.170000,0.307000,0.000000,0.367000,0.367791,0.029833,0.332250,0.368258,0.029742,0.332949,0.060791,0.029833,-0.034750,0.076112,0.005008,0.019810,-0.004039,0.020828,1.193372,180.000000,-0.000000,0.000000,179.710705,-1.134415,0.234295,0.289295,1.134415,-0.234295,-0.000160,-0.000078,0.000089,0.000000,0.000000,0.000000,0.011283,0.008049,-0.007532
0.171000,0.307000,0.000000,0.367000,0.367788,0.029835,0.332246,0.368258,0.029742,0.332949,0.060788,0.029835,-0.034754,0.076113,0.005018,0.019802,-0.004056,0.020827,1.193285,180.000000,-0.000000,0.000000,179.710147,-1.133982,0.235274,0.289853,1.133982,-0.235274,-0.000163,-0.000079,0.000091,0.000000,0.000000,0.000000,0.012214,0.005751,-0.054921
