t,target_x,target_y,target_z,actual_x,actual_y,actual_z,inner_x,inner_y,inner_z,position_error_x,position_error_y,position_error_z,position_error_norm,orientation_error_x,orientation_error_y,orientation_error_z,orientation_error_norm_rad,orientation_error_norm_deg,target_roll_deg,target_pitch_deg,target_yaw_deg,actual_roll_deg,actual_pitch_deg,actual_yaw_deg,error_roll_deg,error_pitch_deg,error_yaw_deg,inner_vx,inner_vy,inner_vz,filtered_fx,filtered_fy,filtered_fz,masked_fx,masked_fy,masked_fz
0.000000,0.307000,0.000000,0.367000,0.499452,-0.000171,0.281300,0.499452,-0.000171,0.281300,0.192452,-0.000171,-0.085700,0.210671,0.001196,-0.001119,0.785117,0.785119,44.983999,180.000000,-0.000000,0.000000,179.914408,0.032205,-44.983937,0.085592,-0.032205,44.983937,0.000000,0.000000,0.000000,0.000000,0.000000,0.000000,0.000000,0.000000,0.000000
0.001000,0.307000,0.000000,0.367000,0.499453,-0.000176,0.281301,0.499452,-0.000171,0.281300,0.192453,-0.000176,-0.085699,0.210671,0.001193,-0.001117,0.785131,0.785132,44.984764,180.000000,-0.000000,0.000000,179.914578,0.032118,-44.984700,0.085422,-0.032118,44.984700,0.000000,0.000000,0.000000,0.000000,0.000000,0.000000,0.027852,0.006194,0.016965
0.002000,0.307000,0.000000,0.367000,0.499452,-0.000174,0.281299,0.499452,-0.000171,0.281300,0.192452,-0.000174,-0.085701,0.210671,0.001195,-0.001122,0.785137,0.785138,44.985117,180.000000,-0.000000,0.000000,179.914371,0.032342,-44.985052,0.085629,-0.032342,44.985052,-0.000000,0.000000,0.000000,0.000000,0.000000,0.000000,0.037281,-0.013311,0.014113
0.003000,0.307000,0.000000,0.367000,0.499454,-0.000177,0.281302,0.499452,-0.000171,0.281300,0.192454,-0.000177,-0.085698,0.210672,0.001191,-0.001113,0.785135,0.785137,44.985034,180.000000,-0.000000,0.000000,179.914789,0.031977,-44.984970,0.085211,-0.031977,44.984970,-0.000000,0.000000,0.000000,0.000000,0.000000,0.000000,-0.007316,-0.008801,-0.014788
0.004000,0.307000,0.000000,0.367000,0.499453,-0.000175,0.281298,0.499452,-0.000171,0.281300,0.192453,-0.000175,-0.085702,0.210673,0.001197,-0.001121,0.785133,0.785135,44.984912,180.000000,-0.000000,0.000000,179.914277,0.032278,-44.984849,0.085723,-0.032278,44.984849,-0.000000,0.000000,0.000000,0.000000,0.000000,0.000000,0.006066,0.004402,-0.028427
0.005000,0.307000,0.000000,0.367000,0.499453,-0.000175,0.281301,0.499452,-0.000171,0.281300,0.192453,-0.000175,-0.085699,0.210671,0.001191,-0.001119,0.785139,0.785141,44.985237,180.000000,-0.000000,0.000000,179.914629,0.032285,-44.985173,0.085371,-0.032285,44.985173,-0.000000,0.000000,0.000000,0.000000,0.000000,0.000000,0.025582,-0.016661,0.022126
0.006000,0.307000,0.000000,0.367000,0.499452,-0.000175,0.281301,0.499452,-0.000171,0.281300,0.192452,-0.000175,-0.085699,0.210671,0.001192,-0.001119,0.785139,0.785141,44.985257,180.000000,-0.000000,0.000000,179.914635,0.032253,-44.985192,0.085365,-0.032253,44.985192,-0.000000,0.000000,0.000000,0.000000,0.000000,0.000000,0.043608,0.006512,-0.009462
0.007000,0.307000,0.000000,0.367000,0.499449,-0.000172,0.281295,0.499452,-0.000171,0.281300,0.192449,-0.000172,-0.085705,0.210670,0.001193,-0.001133,0.785133,0.785135,44.984894,180.000000,-0.000000,0.000000,179.914238,0.032973,-44.984830,0.085762,-0.032973,44.984830,-0.000000,0.000000,0.000000,0.000000,0.000000,0.000000,0.020449,0.024645,0.005764
0.008000,0.307000,0.000000,0.367000,0.499448,-0.000173,0.281296,0.499452,-0.000171,0.281300,0.192448,-0.000173,-0.085704,0.210669,0.001196,-0.001130,0.785138,0.785140,44.985193,180.000000,-0.000000,0.000000,179.914164,0.032761,-44.985129,0.085836,-0.032761,44.985129,-0.000000,0.000000,0.000000,0.000000,0.000000,0.000000,0.001281,0.002782,0.039816
0.009000,0.307000,0.000000,0.367000,0.499448,-0.000174,0.281294,0.499452,-0.000171,0.281300,0.192448,-0.000174,-0.085706,0.210669,0.001203,-0.001131,0.785130,0.785132,44.984731,180.000000,-0.000000,0.000000,179.913800,0.032650,-44.984666,0.086200,-0.032650,44.984666,-0.000000,0.000000,0.000000,0.000000,0.000000,0.000000,-0.014349,-0.012017,0.052651
0.010000,0.307000,0.000000,0.367000,0.499445,-0.000174,0.281290,0.499452,-0.000171,0.281300,0.192445,-0.000174,-0.085710,0.210669,0.001208,-0.001138,0.785125,0.785127,44.984475,180.000000,-0.000000,0.000000,179.913378,0.032877,-44.984410,0.086622,-0.032877,44.984410,-0.000000,0.000000,0.000000,0.000000,0.000000,0.000000,0.002462,0.009160,-0.011244
0.011000,0.307000,0.000000,0.367000,0.499444,-0.000175,0.281291,0.499452,-0.000171,0.281300,0.192444,-0.000175,-0.085709,0.210668,0.001212,-0.001135,0.785126,0.785128,44.984524,180.000000,-0.000000,0.000000,179.913213,0.032675,-44.984458,0.086787,-0.032675,44.984458,-0.000000,0.000000,0.000000,0.000000,0.000000,0.000000,0.036303,0.027485,-0.004284
0.012000,0.307000,0.000000,0.367000,0.499443,-0.000174,0.281289,0.499452,-0.000171,0.281300,0.192443,-0.000174,-0.085711,0.210668,0.001215,-0.001142,0.785112,0.785114,44.983715,180.000000,-0.000000,0.000000,179.912915,0.032932,-44.983649,0.087085,-0.032932,44.983649,-0.000000,0.000000,0.000000,0.000000,0.000000,0.000000,0.029654,0.023666,-0.047024
0.013000,0.307000,0.000000,0.367000,0.499443,-0.000176,0.281288,0.499452,-0.000171,0.281300,0.192443,-0.000176,-0.085712,0.210667,0.001214,-0.001140,0.785121,0.785123,44.984212,180.000000,-0.000000,0.000000,179.912998,0.032878,-44.984147,0.087002,-0.032878,44.984147,-0.000000,0.000000,0.000000,0.000000,0.000000,0.000000,0.041368,0.023728,0.005346
0.014000,0.307000,0.000000,0.367000,0.499441,-0.000176,0.281288,0.499452,-0.000171,0.281300,0.192441,-0.000176,-0.085712,0.210666,0.001215,-0.001144,0.785122,0.785124,44.984289,180.000000,-0.000000,0.000000,179.912901,0.033042,-44.984221,0.087099,-0.033042,44.984221,-0.000001,0.000000,0.000000,0.000000,0.000000,0.000000,-0.020703,-0.024743,-0.043927
0.015000,0.307000,0.000000,0.367000,0.499442,-0.000173,0.281288,0.499452,-0.000171,0.281300,0.192442,-0.000173,-0.085712,0.210667,0.001216,-0.001145,0.785105,0.785107,44.983311,180.000000,-0.000000,0.000000,179.912816,0.033117,-44.983246,0.087184,-0.033117,44.983246,-0.000001,0.000000,0.000000,0.000000,0.000000,0.000000,0.001164,0.012780,-0.027625
0.016000,0.307000,0.000000,0.367000,0.499442,-0.000176,0.281289,0.499452,-0.000171,0.281300,0.192442,-0.000176,-0.085711,0.210666,0.001216,-0.001139,0.785119,0.785121,44.984115,180.000000,-0.000000,0.000000,179.912937,0.032797,-44.984050,0.087063,-0.032797,44.984050,-0.000001,0.000000,0.000000,0.000000,0.000000,0.000000,-0.009059,0.010228,0.053280
0.017000,0.307000,0.000000,0.367000,0.499437,-0.000176,0.281283,0.499452,-0.000171,0.281300,0.192437,-0.000176,-0.085717,0.210664,0.001225,-0.001155,0.785115,0.785116,44.983860,180.000000,-0.000000,0.000000,179.912117,0.033431,-44.983792,0.087883,-0.033431,44.983792,-0.000001,0.000000,0.000001,0.000000,0.000000,0.000000,0.030282,0.023621,0.050809
0.018000,0.307000,0.000000,0.367000,0.499438,-0.000174,0.281287,0.499452,-0.000171,0.281300,0.192438,-0.000174,-0.085713,0.210664,0.001225,-0.001146,0.785114,0.785116,44.983825,180.000000,-0.000000,0.000000,179.912303,0.032964,-44.983758,0.087697,-0.032964,44.983758,-0.000002,0.000000,0.000001,0.000000,0.000000,0.000000,0.010348,0.009994,-0.001809
0.019000,0.307000,0.000000,0.367000,0.499436,-0.000174,0.281281,0.499452,-0.000171,0.281300,0.192436,-0.000174,-0.085719,0.210664,0.001230,-0.001157,0.785107,0.785109,44.983450,180.000000,-0.000000,0.000000,179.911841,0.033394,-44.983381,0.088159,-0.033394,44.983381,-0.000002,0.000000,0.000001,0.000000,0.000000,0.000000,-0.009964,0.007359,-0.024315
0.020000,0.307000,0.000000,0.367000,0.499433,-0.000176,0.281279,0.499452,-0.000171,0.281300,0.192433,-0.000176,-0.085721,0.210662,0.001237,-0.001159,0.785113,0.785115,44.983750,180.000000,-0.000000,0.000000,179.911455,0.033370,-44.983681,0.088545,-0.033370,44.983681,-0.000002,0.000000,0.000001,0.000000,0.000000,0.000000,-0.028425,0.006071,-0.016636
0.021000,0.307000,0.000000,0.367000,0.499432,-0.000176,0.281277,0.499452,-0.000171,0.281300,0.192432,-0.000176,-0.085723,0.210662,0.001238,-0.001163,0.785110,0.785112,44.983601,180.000000,-0.000000,0.000000,179.911288,0.033546,-44.983531,0.088712,-0.033546,44.983531,-0.000003,0.000000,0.000001,0.000000,0.000000,0.000000,-0.003760,0.028639,-0.063649
0.022000,0.307000,0.000000,0.367000,0.499432,-0.000180,0.281277,0.499452,-0.000171,0.281300,0.192432,-0.000180,-0.085723,0.210662,0.001241,-0.001161,0.785115,0.785117,44.983877,180.000000,-0.000000,0.000000,179.911205,0.033367,-44.983809,0.088795,-0.033367,44.983809,-0.000003,0.000000,0.000002,0.000000,0.000000,0.000000,0.000092,-0.002154,-0.025087
0.023000,0.307000,0.000000,0.367000,0.499430,-0.000179,0.281274,0.499452,-0.000171,0.281300,0.192430,-0.000179,-0.085726,0.210661,0.001246,-0.001165,0.785110,0.785112,44.983583,180.000000,-0.000000,0.000000,179.910822,0.033457,-44.983514,0.089178,-0.033457,44.983514,-0.000004,0.000000,0.000002,0.000000,0.000000,0.000000,0.002062,0.003938,0.012953
0.024000,0.307000,0.000000,0.367000,0.499427,-0.000179,0.281273,0.499452,-0.000171,0.281300,0.192427,-0.000179,-0.085727,0.210659,0.001248,-0.001173,0.785107,0.785109,44.983446,180.000000,-0.000000,0.000000,179.910550,0.033867,-44.983376,0.089450,-0.033867,44.983376,-0.000005,0.000000,0.000002,0.000000,0.000000,0.000000,-0.013172,0.007010,0.062564
0.025000,0.307000,0.000000,0.367000,0.499425,-0.000178,0.281269,0.499452,-0.000171,0.281300,0.192425,-0.000178,-0.085731,0.210659,0.001252,-0.001179,0.785100,0.785102,44.983047,180.000000,-0.000000,0.000000,179.910197,0.034097,-44.982978,0.089803,-0.034097,44.982978,-0.000006,0.000000,0.000003,0.000000,0.000000,0.000000,-0.003390,0.033953,-0.059285
0.026000,0.307000,0.000000,0.367000,0.499424,-0.000181,0.281268,0.499452,-0.000171,0.281300,0.192424,-0.000181,-0.085732,0.210659,0.001260,-0.001180,0.785106,0.785108,44.983374,180.000000,-0.000000,0.000000,179.909820,0.033947,-44.983301,0.090180,-0.033947,44.983301,-0.000007,0.000000,0.000003,0.000000,0.000000,0.000000,0.011584,0.007175,-0.040898
0.027000,0.307000,0.000000,0.367000,0.499423,-0.000177,0.281268,0.499452,-0.000171,0.281300,0.192423,-0.000177,-0.085732,0.210658,0.001257,-0.001183,0.785101,0.785103,44.983067,180.000000,-0.000000,0.000000,179.909887,0.034160,-44.982995,0.090113,-0.034160,44.982995,-0.000008,0.000000,0.000003,0.000000,0.000000,0.000000,0.004404,0.015235,0.034471
0.028000,0.307000,0.000000,0.367000,0.499420,-0.000179,0.281265,0.499452,-0.000171,0.281300,0.192420,-0.000179,-0.085735,0.210656,0.001262,-0.001186,0.785099,0.785101,44.982981,180.000000,-0.000000,0.000000,179.909581,0.034220,-44.982910,0.090419,-0.034220,44.982910,-0.000009,0.000000,0.000004,0.000000,0.000000,0.000000,-0.020413,-0.027993,0.001012
0.029000,0.307000,0.000000,0.367000,0.499419,-0.000182,0.281263,0.499452,-0.000171,0.281301,0.192419,-0.000182,-0.085737,0.210656,0.001266,-0.001190,0.785108,0.785110,44.983469,180.000000,-0.000000,0.000000,179.909286,0.034331,-44.983398,0.090714,-0.034331,44.983398,-0.000010,0.000000,0.000004,0.000000,0.000000,0.000000,-0.034190,-0.031693,-0.038698
0.030000,0.307000,0.000000,0.367000,0.499415,-0.000179,0.281258,0.499452,-0.000171,0.281301,0.192415,-0.000179,-0.085742,0.210655,0.001273,-0.001203,0.785089,0.785091,44.982376,180.000000,-0.000000,0.000000,179.908624,0.034873,-44.982302,0.091376,-0.034873,44.982302,-0.000011,0.000000,0.000005,0.000000,0.000000,0.000000,-0.012534,-0.000360,-0.045093
0.031000,0.307000,0.000000,0.367000,0.499414,-0.000181,0.281256,0.499452,-0.000171,0.281301,0.192414,-0.000181,-0.085744,0.210654,0.001274,-0.001204,0.785090,0.785092,44.982448,180.000000,-0.000000,0.000000,179.908549,0.034918,-44.982374,0.091451,-0.034918,44.982374,-0.000013,0.000000,0.000006,0.000000,0.000000,0.000000,0.024896,0.025583,-0.061161
0.032000,0.307000,0.000000,0.367000,0.499412,-0.000184,0.281254,0.499452,-0.000171,0.281301,0.192412,-0.000184,-0.085746,0.210653,0.001279,-0.001208,0.785093,0.785095,44.982652,180.000000,-0.000000,0.000000,179.908203,0.035021,-44.982577,0.091797,-0.035021,44.982577,-0.000014,0.000000,0.000006,0.000000,0.000000,0.000000,0.023147,0.003728,-0.005212
0.033000,0.307000,0.000000,0.367000,0.499411,-0.000180,0.281254,0.499452,-0.000171,0.281301,0.192411,-0.000180,-0.085746,0.210652,0.001282,-0.001205,0.785074,0.785076,44.981539,180.000000,-0.000000,0.000000,179.908143,0.034794,-44.981466,0.091857,-0.034794,44.981466,-0.000016,0.000000,0.000007,0.000000,0.000000,0.000000,-0.078159,0.016553,0.026921
0.034000,0.307000,0.000000,0.367000,0.499410,-0.000181,0.281252,0.499452,-0.000171,0.281301,0.192410,-0.000181,-0.085748,0.210652,0.001286,-0.001208,0.785081,0.785083,44.981922,180.000000,-0.000000,0.000000,179.907838,0.034831,-44.981848,0.092162,-0.034831,44.981848,-0.000017,0.000000,0.000008,0.000000,0.000000,0.000000,-0.036253,-0.029642,0.029313
0.035000,0.307000,0.000000,0.367000,0.499407,-0.000181,0.281250,0.499452,-0.000171,0.281301,0.192407,-0.000181,-0.085750,0.210650,0.001292,-0.001216,0.785077,0.785079,44.981725,180.000000,-0.000000,0.000000,179.907370,0.035138,-44.981650,0.092630,-0.035138,44.981650,-0.000019,0.000000,0.000009,0.000000,0.000000,0.000000,-0.031251,-0.040808,-0.037220
0.036000,0.307000,0.000000,0.367000,0.499405,-0.000182,0.281246,0.499452,-0.000171,0.281301,0.192405,-0.000182,-0.085754,0.210650,0.001299,-0.001222,0.785070,0.785072,44.981301,180.000000,-0.000000,0.000000,179.906887,0.035284,-44.981225,0.093113,-0.035284,44.981225,-0.000021,0.000000,0.000010,0.000000,0.000000,0.000000,-0.056685,-0.009038,-0.009939
0.037000,0.307000,0.000000,0.367000,0.499403,-0.000182,0.281244,0.499452,-0.000171,0.281301,0.192403,-0.000182,-0.085756,0.210649,0.001303,-0.001225,0.785074,0.785076,44.981548,180.000000,-0.000000,0.000000,179.906609,0.035348,-44.981471,0.093391,-0.035348,44.981471,-0.000024,0.000000,0.000011,0.000000,0.000000,0.000000,-0.040346,0.011968,0.020997
0.038000,0.307000,0.000000,0.367000,0.499400,-0.000183,0.281239,0.499452,-0.000171,0.281301,0.192400,-0.000183,-0.085761,0.210648,0.001313,-0.001233,0.785065,0.785067,44.981030,180.000000,-0.000000,0.000000,179.905911,0.035573,-44.980952,0.094089,-0.035573,44.980952,-0.000026,0.000000,0.000012,0.000000,0.000000,0.000000,-0.015955,-0.027656,-0.019186
0.039000,0.307000,0.000000,0.367000,0.499399,-0.000185,0.281238,0.499452,-0.000171,0.281301,0.192399,-0.000185,-0.085762,0.210648,0.001314,-0.001235,0.785063,0.785065,44.980932,180.000000,-0.000000,0.000000,179.905850,0.035656,-44.980855,0.094150,-0.035656,44.980855,-0.000029,0.000000,0.000013,0.000000,0.000000,0.000000,0.018505,-0.005325,-0.018128
0.040000,0.307000,0.000000,0.367000,0.499397,-0.000184,0.281238,0.499452,-0.000171,0.281301,0.192397,-0.000184,-0.085762,0.210646,0.001318,-0.001233,0.785062,0.785064,44.980847,180.000000,-0.000000,0.000000,179.905653,0.035438,-44.980768,0.094347,-0.035438,44.980768,-0.000031,0.000000,0.000014,0.000000,0.000000,0.000000,0.034167,-0.005180,-0.038334
0.041000,0.307000,0.000000,0.367000,0.499395,-0.000186,0.281235,0.499452,-0.000171,0.281301,0.192395,-0.000186,-0.085765,0.210646,0.001328,-0.001236,0.785061,0.785064,44.980826,180.000000,-0.000000,0.000000,179.905081,0.035408,-44.980747,0.094919,-0.035408,44.980747,-0.000034,0.000000,0.000015,0.000000,0.000000,0.000000,0.016752,-0.024947,-0.019221
0.042000,0.307000,0.000000,0.367000,0.499395,-0.000189,0.281232,0.499452,-0.000171,0.281301,0.192395,-0.000189,-0.085768,0.210646,0.001337,-0.001238,0.785060,0.785062,44.980722,180.000000,-0.000000,0.000000,179.904558,0.035318,-44.980643,0.095442,-0.035318,44.980643,-0.000037,0.000000,0.000017,0.000000,0.000000,0.000000,-0.007025,-0.006841,-0.063363
0.043000,0.307000,0.000000,0.367000,0.499392,-0.000190,0.281231,0.499452,-0.000171,0.281301,0.192392,-0.000190,-0.085769,0.210644,0.001347,-0.001241,0.785058,0.785060,44.980608,180.000000,-0.000000,0.000000,179.904014,0.035263,-44.980527,0.095986,-0.035263,44.980527,-0.000040,0.000000,0.000018,0.000000,0.000000,0.000000,0.011291,0.000846,-0.069698
0.044000,0.307000,0.000000,0.367000,0.499388,-0.000188,0.281225,0.499452,-0.000171,0.281301,0.192388,-0.000188,-0.085775,0.210643,0.001360,-0.001252,0.785041,0.785043,44.979647,180.000000,-0.000000,0.000000,179.903080,0.035564,-44.979566,0.096920,-0.035564,44.979566,-0.000044,0.000000,0.000019,0.000000,0.000000,0.000000,0.009766,-0.015654,-0.032023
0.045000,0.307000,0.000000,0.367000,0.499387,-0.000194,0.281224,0.499452,-0.000171,0.281301,0.192387,-0.000194,-0.085776,0.210642,0.001373,-0.001250,0.785044,0.785046,44.979837,180.000000,-0.000000,0.000000,179.902476,0.035154,-44.979754,0.097524,-0.035154,44.979754,-0.000047,0.000000,0.000021,0.000000,0.000000,0.000000,-0.044796,0.034612,0.065878
0.046000,0.307000,0.000000,0.367000,0.499384,-0.000195,0.281222,0.499452,-0.000171,0.281301,0.192384,-0.000195,-0.085778,0.210641,0.001389,-0.001249,0.785030,0.785032,44.979012,180.000000,-0.000000,0.000000,179.901641,0.034771,-44.978928,0.098359,-0.034771,44.978928,-0.000051,0.000000,0.000023,0.000000,0.000000,0.000000,-0.027000,0.003007,0.002299
0.047000,0.307000,0.000000,0.367000,0.499382,-0.000198,0.281220,0.499452,-0.000171,0.281301,0.192382,-0.000198,-0.085780,0.210640,0.001408,-0.001246,0.785012,0.785014,44.978013,180.000000,-0.000000,0.000000,179.900721,0.034213,-44.977926,0.099279,-0.034213,44.977926,-0.000055,0.000000,0.000025,0.000000,0.000000,0.000000,-0.052461,0.003095,0.004376
0.048000,0.307000,0.000000,0.367000,0.499379,-0.000199,0.281216,0.499452,-0.000171,0.281301,0.192379,-0.000199,-0.085784,0.210639,0.001427,-0.001252,0.785004,0.785006,44.977530,180.000000,-0.000000,0.000000,179.899631,0.034097,-44.977441,0.100369,-0.034097,44.977441,-0.000059,0.000000,0.000026,0.000000,0.000000,0.000000,-0.055097,-0.022753,0.058535
0.049000,0.307000,0.000000,0.367000,0.499379,-0.000204,0.281217,0.499452,-0.000171,0.281301,0.192379,-0.000204,-0.085783,0.210639,0.001444,-0.001242,0.784993,0.784995,44.976896,180.000000,-0.000000,0.000000,179.898975,0.033204,-44.976805,0.101025,-0.033204,44.976805,-0.000064,0.000000,0.000028,0.000000,0.000000,0.000000,-0.064560,0.022126,0.010827
0.050000,0.307000,0.000000,0.367000,0.499375,-0.000211,0.281210,0.499452,-0.000171,0.281301,0.192375,-0.000211,-0.085790,0.210638,0.001467,-0.001247,0.784980,0.784983,44.976186,180.000000,-0.000000,0.000000,179.897674,0.033020,-44.976093,0.102326,-0.033020,44.976093,-0.000068,0.000000,0.000030,0.000000,0.000000,0.000000,0.027049,0.018207,0.030103
0.051000,0.307000,0.000000,0.367000,0.499374,-0.000210,0.281210,0.499452,-0.000171,0.281301,0.192374,-0.000210,-0.085790,0.210637,0.001488,-0.001241,0.784962,0.784964,44.975152,180.000000,-0.000000,0.000000,179.896742,0.032261,-44.975057,0.103258,-0.032261,44.975057,-0.000073,0.000000,0.000032,0.000000,0.000000,0.000000,0.023384,0.023296,0.008921
0.052000,0.307000,0.000000,0.367000,0.499371,-0.000212,0.281206,0.499452,-0.000171,0.281301,0.192371,-0.000212,-0.085794,0.210636,0.001504,-0.001241,0.784945,0.784947,44.974171,180.000000,-0.000000,0.000000,179.895884,0.031910,-44.974074,0.104116,-0.031910,44.974074,-0.000078,0.000000,0.000035,0.000000,0.000000,0.000000,0.012896,0.011224,0.008304
0.053000,0.307000,0.000000,0.367000,0.499368,-0.000217,0.281204,0.499451,-0.000171,0.281301,0.192368,-0.000217,-0.085796,0.210633,0.001525,-0.001241,0.784933,0.784935,44.973462,180.000000,-0.000000,0.000000,179.894841,0.031474,-44.973364,0.105159,-0.031474,44.973364,-0.000083,0.000000,0.000037,0.000000,0.000000,0.000000,0.030679,-0.017679,0.046197
0.054000,0.307000,0.000000,0.367000,0.499365,-0.000216,0.281200,0.499451,-0.000171,0.281301,0.192365,-0.000216,-0.085800,0.210632,0.001538,-0.001244,0.784925,0.784927,44.973025,180.000000,-0.000000,0.000000,179.894079,0.031356,-44.972925,0.105921,-0.031356,44.972925,-0.000088,0.000000,0.000039,0.000000,0.000000,0.000000,0.017423,-0.020570,-0.040409
0.055000,0.307000,0.000000,0.367000,0.499364,-0.000217,0.281198,0.499451,-0.000171,0.281301,0.192364,-0.000217,-0.085802,0.210632,0.001549,-0.001240,0.784911,0.784914,44.972234,180.000000,-0.000000,0.000000,179.893587,0.030897,-44.972133,0.106413,-0.030897,44.972133,-0.000094,0.000000,0.000042,0.000000,0.000000,0.000000,0.043947,-0.027331,-0.062395
0.056000,0.307000,0.000000,0.367000,0.499362,-0.000219,0.281196,0.499451,-0.000171,0.281301,0.192362,-0.000219,-0.085804,0.210631,0.001559,-0.001244,0.784910,0.784913,44.972181,180.000000,-0.000000,0.000000,179.893023,0.030899,-44.972080,0.106977,-0.030899,44.972080,-0.000100,0.000000,0.000045,0.000000,0.000000,0.000000,0.024170,-0.050586,-0.062126
0.057000,0.307000,0.000000,0.367000,0.499360,-0.000220,0.281193,0.499451,-0.000171,0.281301,0.192360,-0.000220,-0.085807,0.210630,0.001568,-0.001250,0.784908,0.784911,44.972089,180.000000,-0.000000,0.000000,179.892404,0.031025,-44.971988,0.107596,-0.031025,44.971988,-0.000106,0.000000,0.000047,0.000000,0.000000,0.000000,0.020574,-0.006136,-0.073418
0.058000,0.307000,0.000000,0.367000,0.499356,-0.000220,0.281188,0.499451,-0.000171,0.281301,0.192356,-0.000220,-0.085812,0.210629,0.001574,-0.001259,0.784898,0.784901,44.971516,180.000000,-0.000000,0.000000,179.891929,0.031353,-44.971413,0.108071,-0.031353,44.971413,-0.000112,0.000000,0.000050,0.000000,0.000000,0.000000,0.003914,-0.014453,0.009374
0.059000,0.307000,0.000000,0.367000,0.499355,-0.000223,0.281186,0.499451,-0.000171,0.281301,0.192355,-0.000223,-0.085814,0.210629,0.001578,-0.001261,0.784905,0.784907,44.971877,180.000000,-0.000000,0.000000,179.891638,0.031365,-44.971771,0.108362,-0.031365,44.971771,-0.000119,0.000000,0.000053,0.000000,0.000000,0.000000,-0.008202,-0.001278,-0.018077
0.060000,0.307000,0.000000,0.367000,0.499353,-0.000225,0.281184,0.499451,-0.000171,0.281301,0.192353,-0.000225,-0.085816,0.210628,0.001578,-0.001266,0.784912,0.784914,44.972271,180.000000,-0.000000,0.000000,179.891541,0.031588,-44.972167,0.108459,-0.031588,44.972167,-0.000126,0.000000,0.000056,0.000000,0.000000,0.000000,-0.004890,0.023668,0.000806
0.061000,0.307000,0.000000,0.367000,0.499349,-0.000224,0.281178,0.499451,-0.000171,0.281301,0.192349,-0.000224,-0.085822,0.210626,0.001585,-0.001278,0.784909,0.784912,44.972134,180.000000,-0.000000,0.000000,179.890952,0.032119,-44.972029,0.109048,-0.032119,44.972029,-0.000133,0.000000,0.000059,0.000000,0.000000,0.000000,-0.018327,0.019325,-0.055516
0.062000,0.307000,0.000000,0.367000,0.499349,-0.000222,0.281181,0.499450,-0.000171,0.281301,0.192349,-0.000222,-0.085819,0.210625,0.001582,-0.001276,0.784908,0.784911,44.972087,180.000000,-0.000000,0.000000,179.891138,0.032067,-44.971983,0.108862,-0.032067,44.971983,-0.000140,0.000000,0.000062,0.000000,0.000000,0.000000,-0.010934,0.021394,0.018431
0.063000,0.307000,0.000000,0.367000,0.499347,-0.000221,0.281177,0.499450,-0.000171,0.281301,0.192347,-0.000221,-0.085823,0.210625,0.001587,-0.001283,0.784903,0.784905,44.971766,180.000000,-0.000000,0.000000,179.890726,0.032329,-44.971659,0.109274,-0.032329,44.971659,-0.000148,0.000000,0.000066,0.000000,0.000000,0.000000,0.019555,0.013239,0.002525
0.064000,0.307000,0.000000,0.367000,0.499342,-0.000222,0.281171,0.499450,-0.000171,0.281302,0.192342,-0.000222,-0.085829,0.210623,0.001589,-0.001296,0.784902,0.784905,44.971732,180.000000,-0.000000,0.000000,179.890333,0.032900,-44.971626,0.109667,-0.032900,44.971626,-0.000156,0.000000,0.000069,0.000000,0.000000,0.000000,0.010659,0.036292,0.015382
0.065000,0.307000,0.000000,0.367000,0.499342,-0.000223,0.281172,0.499450,-0.000171,0.281302,0.192342,-0.000223,-0.085828,0.210623,0.001593,-0.001296,0.784908,0.784911,44.972067,180.000000,-0.000000,0.000000,179.890150,0.032835,-44.971959,0.109850,-0.032835,44.971959,-0.000164,0.000000,0.000073,0.000000,0.000000,0.000000,-0.021736,-0.003771,0.075706
0.066000,0.307000,0.000000,0.367000,0.499338,-0.000224,0.281169,0.499450,-0.000171,0.281302,0.192338,-0.000224,-0.085831,0.210621,0.001592,-0.001304,0.784908,0.784910,44.972058,180.000000,-0.000000,0.000000,179.890006,0.033255,-44.971949,0.109994,-0.033255,44.971949,-0.000172,0.000000,0.000077,0.000000,0.000000,0.000000,-0.018782,0.019451,0.021748
0.067000,0.307000,0.000000,0.367000,0.499337,-0.000224,0.281167,0.499450,-0.000171,0.281302,0.192337,-0.000224,-0.085833,0.210620,0.001593,-0.001307,0.784906,0.784909,44.971952,180.000000,-0.000000,0.000000,179.889886,0.033420,-44.971845,0.110114,-0.033420,44.971845,-0.000181,0.000000,0.000081,0.000000,0.000000,0.000000,-0.012868,0.009470,0.041312
0.068000,0.307000,0.000000,0.367000,0.499334,-0.000223,0.281162,0.499449,-0.000171,0.281302,0.192334,-0.000223,-0.085838,0.210620,0.001600,-0.001313,0.784907,0.784909,44.971995,180.000000,-0.000000,0.000000,179.889426,0.033588,-44.971886,0.110574,-0.033588,44.971886,-0.000190,0.000000,0.000084,0.000000,0.000000,0.000000,-0.003048,-0.003520,0.015635
0.069000,0.307000,0.000000,0.367000,0.499333,-0.000222,0.281161,0.499449,-0.000171,0.281302,0.192333,-0.000222,-0.085839,0.210619,0.001599,-0.001316,0.784906,0.784908,44.971944,180.000000,-0.000000,0.000000,179.889378,0.033744,-44.971836,0.110622,-0.033744,44.971836,-0.000199,0.000000,0.000089,0.000000,0.000000,0.000000,-0.006734,-0.025652,0.055397
0.070000,0.307000,0.000000,0.367000,0.499331,-0.000222,0.281161,0.499449,-0.000171,0.281302,0.192331,-0.000222,-0.085839,0.210618,0.001599,-0.001319,0.784908,0.784911,44.972097,180.000000,-0.000000,0.000000,179.889316,0.033914,-44.971990,0.110684,-0.033914,44.971990,-0.000208,0.000000,0.000093,0.000000,0.000000,0.000000,-0.012788,0.006146,0.029124
0.071000,0.307000,0.000000,0.367000,0.499329,-0.000222,0.281157,0.499449,-0.000171,0.281302,0.192329,-0.000222,-0.085843,0.210617,0.001601,-0.001328,0.784910,0.784913,44.972180,180.000000,-0.000000,0.000000,179.889051,0.034321,-44.972070,0.110949,-0.034321,44.972070,-0.000218,0.000000,0.000097,0.000000,0.000000,0.000000,-0.002240,-0.002639,0.007037
0.072000,0.307000,0.000000,0.367000,0.499327,-0.000221,0.281156,0.499449,-0.000171,0.281302,0.192327,-0.000221,-0.085844,0.210615,0.001605,-0.001331,0.784899,0.784902,44.971573,180.000000,-0.000000,0.000000,179.888760,0.034362,-44.971461,0.111240,-0.034362,44.971461,-0.000228,0.000000,0.000102,0.000000,0.000000,0.000000,-0.013019,0.000236,0.009636
0.073000,0.307000,0.000000,0.367000,0.499325,-0.000223,0.281151,0.499448,-0.000171,0.281302,0.192325,-0.000223,-0.085849,0.210616,0.001610,-0.001341,0.784903,0.784906,44.971788,180.000000,-0.000000,0.000000,179.888320,0.034804,-44.971676,0.111680,-0.034804,44.971676,-0.000238,0.000000,0.000106,0.000000,0.000000,0.000000,0.025091,0.006757,-0.011006
0.074000,0.307000,0.000000,0.367000,0.499322,-0.000224,0.281147,0.499448,-0.000171,0.281302,0.192322,-0.000224,-0.085853,0.210614,0.001615,-0.001348,0.784903,0.784905,44.971762,180.000000,-0.000000,0.000000,179.887913,0.035063,-44.971652,0.112087,-0.035063,44.971652,-0.000249,0.000000,0.000111,0.000000,0.000000,0.000000,0.001404,-0.012751,-0.018677
0.075000,0.307000,0.000000,0.367000,0.499318,-0.000224,0.281142,0.499448,-0.000171,0.281303,0.192318,-0.000224,-0.085858,0.210613,0.001618,-0.001357,0.784898,0.784900,44.971479,180.000000,-0.000000,0.000000,179.887521,0.035461,-44.971367,0.112479,-0.035461,44.971367,-0.000260,0.000000,0.000116,0.000000,0.000000,0.000000,0.022973,-0.021274,-0.049344
0.076000,0.307000,0.000000,0.367000,0.499319,-0.000222,0.281146,0.499448,-0.000171,0.281303,0.192319,-0.000222,-0.085854,0.210612,0.001617,-0.001348,0.784890,0.784893,44.971033,180.000000,-0.000000,0.000000,179.887780,0.034995,-44.970923,0.112220,-0.034995,44.970923,-0.000271,0.000000,0.000121,0.000000,0.000000,0.000000,-0.005369,0.014321,-0.034531
0.077000,0.307000,0.000000,0.367000,0.499317,-0.000222,0.281142,0.499447,-0.000171,0.281303,0.192317,-0.000222,-0.085858,0.210613,0.001623,-0.001355,0.784891,0.784894,44.971095,180.000000,-0.000000,0.000000,179.887336,0.035265,-44.970983,0.112664,-0.035265,44.970983,-0.000282,0.000000,0.000126,0.000000,0.000000,0.000000,-0.023933,0.005579,0.002260
0.078000,0.307000,0.000000,0.367000,0.499313,-0.000222,0.281138,0.499447,-0.000171,0.281303,0.192313,-0.000222,-0.085862,0.210611,0.001628,-0.001365,0.784883,0.784886,44.970673,180.000000,-0.000000,0.000000,179.886881,0.035642,-44.970561,0.113119,-0.035642,44.970561,-0.000294,0.000000,0.000131,0.000000,0.000000,0.000000,-0.051111,0.021632,0.030933
0.079000,0.307000,0.000000,0.367000,0.499311,-0.000224,0.281138,0.499447,-0.000171,0.281303,0.192311,-0.000224,-0.085862,0.210608,0.001631,-0.001365,0.784886,0.784889,44.970807,180.000000,-0.000000,0.000000,179.886708,0.035575,-44.970694,0.113292,-0.035575,44.970694,-0.000306,0.000000,0.000136,0.000000,0.000000,0.000000,-0.003740,0.029326,-0.009056
0.080000,0.307000,0.000000,0.367000,0.499310,-0.000224,0.281134,0.499446,-0.000171,0.281303,0.192310,-0.000224,-0.085866,0.210609,0.001637,-0.001372,0.784886,0.784888,44.970794,180.000000,-0.000000,0.000000,179.886234,0.035842,-44.970679,0.113766,-0.035842,44.970679,-0.000319,0.000000,0.000142,0.000000,0.000000,0.000000,-0.006913,0.019519,0.084244
0.081000,0.307000,0.000000,0.367000,0.499310,-0.000222,0.281133,0.499446,-0.000171,0.281303,0.192310,-0.000222,-0.085867,0.210609,0.001638,-0.001371,0.784881,0.784884,44.970520,180.000000,-0.000000,0.000000,179.886209,0.035768,-44.970406,0.113791,-0.035768,44.970406,-0.000331,0.000000,0.000147,0.000000,0.000000,0.000000,-0.002027,-0.003817,0.027694
0.082000,0.307000,0.000000,0.367000,0.499307,-0.000224,0.281133,0.499446,-0.000171,0.281304,0.192307,-0.000224,-0.085867,0.210607,0.001642,-0.001374,0.784887,0.784890,44.970889,180.000000,-0.000000,0.000000,179.885965,0.035848,-44.970773,0.114035,-0.035848,44.970773,-0.000344,0.000000,0.000153,0.000000,0.000000,0.000000,0.037606,0.011777,0.004105
0.083000,0.307000,0.000000,0.367000,0.499305,-0.000222,0.281129,0.499445,-0.000171,0.281304,0.192305,-0.000222,-0.085871,0.210607,0.001646,-0.001378,0.784880,0.784883,44.970495,180.000000,-0.000000,0.000000,179.885645,0.035940,-44.970380,0.114355,-0.035940,44.970380,-0.000357,0.000000,0.000159,0.000000,0.000000,0.000000,0.011177,0.007697,0.048405
0.084000,0.307000,0.000000,0.367000,0.499303,-0.000221,0.281125,0.499445,-0.000171,0.281304,0.192303,-0.000221,-0.085875,0.210606,0.001651,-0.001387,0.784875,0.784878,44.970202,180.000000,-0.000000,0.000000,179.885217,0.036281,-44.970085,0.114783,-0.036281,44.970085,-0.000371,0.000000,0.000165,0.000000,0.000000,0.000000,-0.047046,0.006942,0.023816
0.085000,0.307000,0.000000,0.367000,0.499302,-0.000223,0.281125,0.499445,-0.000171,0.281304,0.192302,-0.000223,-0.085875,0.210606,0.001650,-0.001386,0.784885,0.784888,44.970771,180.000000,-0.000000,0.000000,179.885246,0.036276,-44.970655,0.114754,-0.036276,44.970655,-0.000385,0.000000,0.000171,0.000000,0.000000,0.000000,0.005347,-0.003918,-0.047593
0.086000,0.307000,0.000000,0.367000,0.499302,-0.000225,0.281123,0.499444,-0.000171,0.281304,0.192302,-0.000225,-0.085877,0.210606,0.001653,-0.001388,0.784883,0.784886,44.970668,180.000000,-0.000000,0.000000,179.885079,0.036331,-44.970551,0.114921,-0.036331,44.970551,-0.000399,0.000000,0.000178,0.000000,0.000000,0.000000,-0.013887,0.023284,0.018848
0.087000,0.307000,0.000000,0.367000,0.499298,-0.000222,0.281120,0.499444,-0.000171,0.281304,0.192298,-0.000222,-0.085880,0.210604,0.001661,-0.001398,0.784872,0.784875,44.970004,180.000000,-0.000000,0.000000,179.884465,0.036676,-44.969885,0.115535,-0.036676,44.969885,-0.000413,0.000000,0.000184,0.000000,0.000000,0.000000,0.025110,0.002943,0.014756
0.088000,0.307000,0.000000,0.367000,0.499297,-0.000223,0.281118,0.499443,-0.000171,0.281305,0.192297,-0.000223,-0.085882,0.210603,0.001664,-0.001400,0.784878,0.784881,44.970386,180.000000,-0.000000,0.000000,179.884274,0.036702,-44.970266,0.115726,-0.036702,44.970266,-0.000428,0.000000,0.000191,0.000000,0.000000,0.000000,0.033983,0.012109,0.008720
0.089000,0.307000,0.000000,0.367000,0.499293,-0.000226,0.281114,0.499443,-0.000171,0.281305,0.192293,-0.000226,-0.085886,0.210601,0.001669,-0.001412,0.784884,0.784887,44.970688,180.000000,-0.000000,0.000000,179.883774,0.037196,-44.970568,0.116226,-0.037196,44.970568,-0.000443,0.000000,0.000197,0.000000,0.000000,0.000000,0.020751,-0.009205,0.006367
0.090000,0.307000,0.000000,0.367000,0.499293,-0.000227,0.281113,0.499442,-0.000171,0.281305,0.192293,-0.000227,-0.085887,0.210602,0.001668,-0.001410,0.784879,0.784882,44.970424,180.000000,-0.000000,0.000000,179.883812,0.037141,-44.970305,0.116188,-0.037141,44.970305,-0.000459,0.000000,0.000204,0.000000,0.000000,0.000000,0.015237,0.021262,0.001753
0.091000,0.307000,0.000000,0.367000,0.499290,-0.000226,0.281109,0.499442,-0.000171,0.281305,0.192290,-0.000226,-0.085891,0.210601,0.001674,-0.001418,0.784877,0.784880,44.970320,180.000000,-0.000000,0.000000,179.883334,0.037395,-44.970201,0.116666,-0.037395,44.970201,-0.000474,0.000000,0.000211,0.000000,0.000000,0.000000,-0.005125,-0.004214,0.057456
0.092000,0.307000,0.000000,0.367000,0.499289,-0.000226,0.281109,0.499441,-0.000171,0.281305,0.192289,-0.000226,-0.085891,0.210600,0.001672,-0.001418,0.784874,0.784877,44.970165,180.000000,-0.000000,0.000000,179.883435,0.037440,-44.970044,0.116565,-0.037440,44.970044,-0.000491,0.000000,0.000218,0.000000,0.000000,0.000000,-0.027702,0.032690,0.063924
0.093000,0.307000,0.000000,0.367000,0.499287,-0.000223,0.281107,0.499441,-0.000171,0.281306,0.192287,-0.000223,-0.085893,0.210599,0.001677,-0.001421,0.784863,0.784866,44.969491,180.000000,-0.000000,0.000000,179.883119,0.037492,-44.969370,0.116881,-0.037492,44.969370,-0.000507,0.000000,0.000226,0.000000,0.000000,0.000000,-0.000077,0.026466,0.028200
0.094000,0.307000,0.000000,0.367000,0.499286,-0.000228,0.281105,0.499440,-0.000171,0.281306,0.192286,-0.000228,-0.085895,0.210599,0.001680,-0.001425,0.784877,0.784880,44.970312,180.000000,-0.000000,0.000000,179.882893,0.037661,-44.970191,0.117107,-0.037661,44.970191,-0.000524,0.000000,0.000233,0.000000,0.000000,0.000000,-0.014214,0.002071,0.037643
0.095000,0.307000,0.000000,0.367000,0.499283,-0.000230,0.281101,0.499440,-0.000171,0.281306,0.192283,-0.000230,-0.085899,0.210598,0.001684,-0.001436,0.784878,0.784881,44.970356,180.000000,-0.000000,0.000000,179.882476,0.038141,-44.970235,0.117524,-0.038141,44.970235,-0.000541,0.000000,0.000241,0.000000,0.000000,0.000000,0.010961,0.012961,0.003190
0.096000,0.307000,0.000000,0.367000,0.499280,-0.000229,0.281098,0.499439,-0.000171,0.281306,0.192280,-0.000229,-0.085902,0.210597,0.001687,-0.001442,0.784868,0.784871,44.969777,180.000000,-0.000000,0.000000,179.882183,0.038392,-44.969655,0.117817,-0.038392,44.969655,-0.000558,0.000000,0.000248,0.000000,0.000000,0.000000,-0.012005,-0.007816,0.039393
0.097000,0.307000,0.000000,0.367000,0.499281,-0.000226,0.281099,0.499439,-0.000171,0.281307,0.192281,-0.000226,-0.085901,0.210596,0.001683,-0.001437,0.784871,0.784874,44.969994,180.000000,-0.000000,0.000000,179.882463,0.038211,-44.969872,0.117537,-0.038211,44.969872,-0.000576,0.000001,0.000256,0.000000,0.000000,0.000000,0.003107,-0.010795,0.018465
0.098000,0.307000,0.000000,0.367000,0.499279,-0.000226,0.281100,0.499438,-0.000171,0.281307,0.192279,-0.000226,-0.085900,0.210594,0.001688,-0.001438,0.784865,0.784868,44.969640,180.000000,-0.000000,0.000000,179.882228,0.038159,-44.969518,0.117772,-0.038159,44.969518,-0.000594,0.000001,0.000264,0.000000,0.000000,0.000000,0.038191,-0.019396,-0.019889
0.099000,0.307000,0.000000,0.367000,0.499275,-0.000226,0.281092,0.499438,-0.000171,0.281307,0.192275,-0.000226,-0.085908,0.210594,0.001694,-0.001454,0.784862,0.784865,44.969467,180.000000,-0.000000,0.000000,179.881545,0.038808,-44.969344,0.118455,-0.038808,44.969344,-0.000612,0.000001,0.000272,0.000000,0.000000,0.000000,0.037286,-0.016873,-0.028769
0.100000,0.307000,0.000000,0.367000,0.499275,-0.000228,0.281091,0.499437,-0.000171,0.281307,0.192275,-0.000228,-0.085909,0.210594,0.001697,-0.001455,0.784874,0.784877,44.970155,180.000000,-0.000000,0.000000,179.881372,0.038825,-44.970032,0.118628,-0.038825,44.970032,-0.000630,0.000001,0.000281,0.000000,0.000000,0.000000,0.061341,-0.008933,-0.075790
0.101000,0.307000,0.000000,0.367000,0.499272,-0.000229,0.281089,0.499436,-0.000171,0.281308,0.192272,-0.000229,-0.085911,0.210593,0.001702,-0.001458,0.784870,0.784873,44.969913,180.000000,-0.000000,0.000000,179.881057,0.038894,-44.969788,0.118943,-0.038894,44.969788,-0.000649,0.000001,0.000289,0.000000,0.000000,0.000000,0.000451,-0.016761,0.001988
0.102000,0.307000,0.000000,0.367000,0.499271,-0.000229,0.281088,0.499436,-0.000171,0.281308,0.192271,-0.000229,-0.085912,0.210592,0.001701,-0.001462,0.784868,0.784871,44.969797,180.000000,-0.000000,0.000000,179.881008,0.039085,-44.969672,0.118992,-0.039085,44.969672,-0.000669,0.000001,0.000298,0.000000,0.000000,0.000000,-0.017663,-0.023110,-0.021431
0.103000,0.307000,0.000000,0.367000,0.499268,-0.000231,0.281083,0.499435,-0.000171,0.281308,0.192268,-0.000231,-0.085917,0.210592,0.001709,-0.001471,0.784872,0.784875,44.970039,180.000000,-0.000000,0.000000,179.880416,0.039367,-44.969914,0.119584,-0.039367,44.969914,-0.000688,0.000001,0.000306,0.000000,0.000000,0.000000,0.003640,0.032467,-0.039869
0.104000,0.307000,0.000000,0.367000,0.499268,-0.000231,0.281083,0.499434,-0.000171,0.281309,0.192268,-0.000231,-0.085917,0.210591,0.001712,-0.001467,0.784868,0.784871,44.969808,180.000000,-0.000000,0.000000,179.880341,0.039138,-44.969682,0.119659,-0.039138,44.969682,-0.000708,0.000001,0.000315,0.000000,0.000000,0.000000,0.013374,-0.019190,0.059983
0.105000,0.307000,0.000000,0.367000,0.499266,-0.000231,0.281083,0.499433,-0.000171,0.281309,0.192266,-0.000231,-0.085917,0.210589,0.001714,-0.001469,0.784863,0.784867,44.969542,180.000000,-0.000000,0.000000,179.880222,0.039213,-44.969416,0.119778,-0.039213,44.969416,-0.000729,0.000001,0.000324,0.000000,0.000000,0.000000,-0.032645,-0.009743,-0.041425
0.106000,0.307000,0.000000,0.367000,0.499264,-0.000230,0.281079,0.499433,-0.000171,0.281309,0.192264,-0.000230,-0.085921,0.210589,0.001717,-0.001476,0.784866,0.784869,44.969703,180.000000,-0.000000,0.000000,179.879900,0.039502,-44.969575,0.120100,-0.039502,44.969575,-0.000749,0.000001,0.000334,0.000000,0.000000,0.000000,-0.000732,-0.000255,-0.027557
0.107000,0.307000,0.000000,0.367000,0.499264,-0.000230,0.281078,0.499432,-0.000171,0.281310,0.192264,-0.000230,-0.085922,0.210590,0.001717,-0.001477,0.784868,0.784871,44.969819,180.000000,-0.000000,0.000000,179.879880,0.039510,-44.969691,0.120120,-0.039510,44.969691,-0.000770,0.000001,0.000343,0.000000,0.000000,0.000000,0.012886,-0.012262,0.040192
0.108000,0.307000,0.000000,0.367000,0.499261,-0.000231,0.281077,0.499431,-0.000171,0.281310,0.192261,-0.000231,-0.085923,0.210588,0.001721,-0.001485,0.784862,0.784865,44.969442,180.000000,-0.000000,0.000000,179.879487,0.039844,-44.969315,0.120513,-0.039844,44.969315,-0.000791,0.000001,0.000352,0.000000,0.000000,0.000000,-0.040604,-0.033320,-0.035570
0.109000,0.307000,0.000000,0.367000,0.499260,-0.000228,0.281075,0.499430,-0.000171,0.281310,0.192260,-0.000228,-0.085925,0.210588,0.001728,-0.001486,0.784850,0.784853,44.968771,180.000000,-0.000000,0.000000,179.879098,0.039765,-44.968643,0.120902,-0.039765,44.968643,-0.000813,0.000001,0.000362,0.000000,0.000000,0.000000,-0.017474,-0.022142,-0.016381
0.110000,0.307000,0.000000,0.367000,0.499258,-0.000232,0.281072,0.499430,-0.000171,0.281311,0.192258,-0.000232,-0.085928,0.210586,0.001731,-0.001492,0.784852,0.784855,44.968882,180.000000,-0.000000,0.000000,179.878823,0.039982,-44.968754,0.121177,-0.039982,44.968754,-0.000835,0.000001,0.000372,0.000000,0.000000,0.000000,-0.057083,-0.013398,-0.029950
0.111000,0.307000,0.000000,0.367000,0.499256,-0.000228,0.281071,0.499429,-0.000171,0.281311,0.192256,-0.000228,-0.085929,0.210586,0.001732,-0.001495,0.784844,0.784847,44.968411,180.000000,-0.000000,0.000000,179.878705,0.040148,-44.968281,0.121295,-0.040148,44.968281,-0.000857,0.000001,0.000382,0.000000,0.000000,0.000000,-0.011344,-0.032676,-0.036678
0.112000,0.307000,0.000000,0.367000,0.499255,-0.000233,0.281068,0.499428,-0.000171,0.281311,0.192255,-0.000233,-0.085932,0.210585,0.001737,-0.001500,0.784858,0.784862,44.969267,180.000000,-0.000000,0.000000,179.878363,0.040280,-44.969136,0.121637,-0.040280,44.969136,-0.000880,0.000001,0.000392,0.000000,0.000000,0.000000,0.013613,-0.008569,-0.033566
0.113000,0.307000,0.000000,0.367000,0.499252,-0.000231,0.281066,0.499427,-0.000171,0.281312,0.192252,-0.000231,-0.085934,0.210584,0.001744,-0.001502,0.784849,0.784852,44.968702,180.000000,-0.000000,0.000000,179.877931,0.040247,-44.968571,0.122069,-0.040247,44.968571,-0.000903,0.000001,0.000402,0.000000,0.000000,0.000000,0.027972,-0.006967,0.013744
0.114000,0.307000,0.000000,0.367000,0.499254,-0.000233,0.281069,0.499426,-0.000171,0.281312,0.192254,-0.000233,-0.085931,0.210585,0.001740,-0.001497,0.784849,0.784852,44.968721,180.000000,-0.000000,0.000000,179.878282,0.040081,-44.968590,0.121718,-0.040081,44.968590,-0.000926,0.000001,0.000412,0.000000,0.000000,0.000000,0.018083,0.008422,-0.017302
0.115000,0.307000,0.000000,0.367000,0.499251,-0.000232,0.281063,0.499425,-0.000171,0.281313,0.192251,-0.000232,-0.085937,0.210585,0.001747,-0.001507,0.784850,0.784853,44.968790,180.000000,-0.000000,0.000000,179.877661,0.040458,-44.968658,0.122339,-0.040458,44.968658,-0.000950,0.000001,0.000423,0.000000,0.000000,0.000000,0.021473,-0.003092,-0.015940
0.116000,0.307000,0.000000,0.367000,0.499249,-0.000232,0.281063,0.499424,-0.000171,0.281313,0.192249,-0.000232,-0.085937,0.210583,0.001748,-0.001509,0.784848,0.784851,44.968665,180.000000,-0.000000,0.000000,179.877618,0.040512,-44.968532,0.122382,-0.040512,44.968532,-0.000973,0.000001,0.000434,0.000000,0.000000,0.000000,-0.013092,0.022070,-0.003783
0.117000,0.307000,0.000000,0.367000,0.499249,-0.000232,0.281063,0.499423,-0.000171,0.281314,0.192249,-0.000232,-0.085937,0.210582,0.001750,-0.001507,0.784847,0.784850,44.968607,180.000000,-0.000000,0.000000,179.877511,0.040369,-44.968474,0.122489,-0.040369,44.968474,-0.000998,0.000001,0.000444,0.000000,0.000000,0.000000,0.013492,0.026766,-0.012495
0.118000,0.307000,0.000000,0.367000,0.499248,-0.000233,0.281061,0.499422,-0.000171,0.281314,0.192248,-0.000233,-0.085939,0.210583,0.001750,-0.001508,0.784857,0.784860,44.969182,180.000000,-0.000000,0.000000,179.877489,0.040437,-44.969049,0.122511,-0.040437,44.969049,-0.001022,0.000001,0.000455,0.000000,0.000000,0.000000,0.002402,-0.009740,-0.016848
0.119000,0.307000,0.000000,0.367000,0.499247,-0.000233,0.281059,0.499421,-0.000171,0.281315,0.192247,-0.000233,-0.085941,0.210582,0.001754,-0.001515,0.784851,0.784855,44.968865,180.000000,-0.000000,0.000000,179.877177,0.040706,-44.968730,0.122823,-0.040706,44.968730,-0.001047,0.000001,0.000466,0.000000,0.000000,0.000000,0.025974,-0.004748,-0.029658
0.120000,0.307000,0.000000,0.367000,0.499246,-0.000234,0.281057,0.499420,-0.000171,0.281315,0.192246,-0.000234,-0.085943,0.210582,0.001758,-0.001514,0.784847,0.784850,44.968621,180.000000,-0.000000,0.000000,179.876959,0.040558,-44.968489,0.123041,-0.040558,44.968489,-0.001073,0.000001,0.000478,0.000000,0.000000,0.000000,0.007271,-0.005328,-0.034256
0.121000,0.307000,0.000000,0.367000,0.499245,-0.000230,0.281059,0.499419,-0.000171,0.281315,0.192245,-0.000230,-0.085941,0.210581,0.001756,-0.001513,0.784844,0.784848,44.968454,180.000000,-0.000000,0.000000,179.877080,0.040542,-44.968320,0.122920,-0.040542,44.968320,-0.001098,0.000001,0.000489,0.000000,0.000000,0.000000,-0.033228,-0.004198,0.000521
0.122000,0.307000,0.000000,0.367000,0.499243,-0.000234,0.281056,0.499418,-0.000171,0.281316,0.192243,-0.000234,-0.085944,0.210580,0.001762,-0.001518,0.784841,0.784845,44.968287,180.000000,-0.000000,0.000000,179.876698,0.040715,-44.968153,0.123302,-0.040715,44.968153,-0.001124,0.000001,0.000501,0.000000,0.000000,0.000000,-0.003158,0.014131,0.012353
0.123000,0.307000,0.000000,0.367000,0.499242,-0.000235,0.281056,0.499417,-0.000171,0.281316,0.192242,-0.000235,-0.085944,0.210578,0.001761,-0.001521,0.784848,0.784852,44.968698,180.000000,-0.000000,0.000000,179.876654,0.040856,-44.968564,0.123346,-0.040856,44.968564,-0.001151,0.000001,0.000512,0.000000,0.000000,0.000000,0.007632,-0.014522,-0.015994
0.124000,0.307000,0.000000,0.367000,0.499241,-0.000234,0.281055,0.499415,-0.000171,0.281317,0.192241,-0.000234,-0.085945,0.210579,0.001767,-0.001520,0.784842,0.784845,44.968310,180.000000,-0.000000,0.000000,179.876381,0.040701,-44.968175,0.123619,-0.040701,44.968175,-0.001177,0.000001,0.000524,0.000000,0.000000,0.000000,0.025526,0.025627,0.028529
0.125000,0.307000,0.000000,0.367000,0.499240,-0.000235,0.281053,0.499414,-0.000171,0.281318,0.192240,-0.000235,-0.085947,0.210578,0.001769,-0.001521,0.784836,0.784839,44.967982,180.000000,-0.000000,0.000000,179.876245,0.040674,-44.967846,0.123755,-0.040674,44.967846,-0.001204,0.000001,0.000536,0.000000,0.000000,0.000000,-0.027055,0.037817,0.011524
0.126000,0.307000,0.000000,0.367000,0.499238,-0.000235,0.281049,0.499413,-0.000171,0.281318,0.192238,-0.000235,-0.085951,0.210578,0.001773,-0.001532,0.784835,0.784839,44.967960,180.000000,-0.000000,0.000000,179.875803,0.041179,-44.967825,0.124197,-0.041179,44.967825,-0.001232,0.000001,0.000548,0.000000,0.000000,0.000000,-0.037218,-0.009853,0.057558
0.127000,0.307000,0.000000,0.367000,0.499239,-0.000232,0.281050,0.499412,-0.000171,0.281319,0.192239,-0.000232,-0.085950,0.210579,0.001773,-0.001523,0.784830,0.784833,44.967635,180.000000,-0.000000,0.000000,179.875998,0.040720,-44.967499,0.124002,-0.040720,44.967499,-0.001259,0.000001,0.000561,0.000000,0.000000,0.000000,-0.009045,-0.017573,0.004039
0.128000,0.307000,0.000000,0.367000,0.499238,-0.000235,0.281051,0.499410,-0.000171,0.281319,0.192238,-0.000235,-0.085949,0.210577,0.001777,-0.001523,0.784822,0.784825,44.967172,180.000000,-0.000000,0.000000,179.875816,0.040631,-44.967035,0.124184,-0.040631,44.967035,-0.001287,0.000001,0.000573,0.000000,0.000000,0.000000,-0.016286,-0.011921,-0.035039
0.129000,0.307000,0.000000,0.367000,0.499236,-0.000235,0.281047,0.499409,-0.000171,0.281320,0.192236,-0.000235,-0.085953,0.210577,0.001782,-0.001532,0.784828,0.784832,44.967534,180.000000,-0.000000,0.000000,179.875357,0.040972,-44.967397,0.124643,-0.040972,44.967397,-0.001316,0.000001,0.000586,0.000000,0.000000,0.000000,0.005800,-0.021519,-0.002488
0.130000,0.307000,0.000000,0.367000,0.499235,-0.000233,0.281045,0.499408,-0.000171,0.281320,0.192235,-0.000233,-0.085955,0.210577,0.001785,-0.001535,0.784826,0.784829,44.967400,180.000000,-0.000000,0.000000,179.875127,0.041107,-44.967262,0.124873,-0.041107,44.967262,-0.001344,0.000001,0.000599,0.000000,0.000000,0.000000,0.003251,-0.010458,-0.026238
0.131000,0.307000,0.000000,0.367000,0.499235,-0.000234,0.281045,0.499406,-0.000171,0.281321,0.192235,-0.000234,-0.085955,0.210577,0.001787,-0.001533,0.784825,0.784828,44.967351,180.000000,-0.000000,0.000000,179.875054,0.040939,-44.967214,0.124946,-0.040939,44.967214,-0.001373,0.000001,0.000612,0.000000,0.000000,0.000000,0.003704,-0.013443,0.027886
0.132000,0.307000,0.000000,0.367000,0.499232,-0.000237,0.281043,0.499405,-0.000171,0.281322,0.192232,-0.000237,-0.085957,0.210575,0.001789,-0.001539,0.784830,0.784833,44.967638,180.000000,-0.000000,0.000000,179.874830,0.041186,-44.967501,0.125170,-0.041186,44.967501,-0.001403,0.000001,0.000625,0.000000,0.000000,0.000000,0.012402,0.001839,0.019836
0.133000,0.307000,0.000000,0.367000,0.499231,-0.000235,0.281043,0.499404,-0.000171,0.281322,0.192231,-0.000235,-0.085957,0.210574,0.001792,-0.001539,0.784828,0.784831,44.967517,180.000000,-0.000000,0.000000,179.874670,0.041143,-44.967380,0.125330,-0.041143,44.967380,-0.001432,0.000001,0.000638,0.000000,0.000000,0.000000,-0.015878,-0.039454,-0.023510
0.134000,0.307000,0.000000,0.367000,0.499230,-0.000236,0.281041,0.499402,-0.000171,0.281323,0.192230,-0.000236,-0.085959,0.210574,0.001797,-0.001540,0.784822,0.784826,44.967215,180.000000,-0.000000,0.000000,179.874410,0.041113,-44.967076,0.125590,-0.041113,44.967076,-0.001462,0.000001,0.000651,0.000000,0.000000,0.000000,-0.011483,0.001775,-0.041270
0.135000,0.307000,0.000000,0.367000,0.499229,-0.000236,0.281039,0.499401,-0.000171,0.281324,0.192229,-0.000236,-0.085961,0.210574,0.001800,-0.001545,0.784822,0.784826,44.967216,180.000000,-0.000000,0.000000,179.874142,0.041304,-44.967076,0.125858,-0.041304,44.967076,-0.001493,0.000001,0.000665,0.000000,0.000000,0.000000,0.016378,0.036948,-0.085040
0.136000,0.307000,0.000000,0.367000,0.499228,-0.000233,0.281036,0.499399,-0.000171,0.281324,0.192228,-0.000233,-0.085964,0.210574,0.001806,-0.001550,0.784819,0.784823,44.967017,180.000000,-0.000000,0.000000,179.873745,0.041386,-44.966878,0.126255,-0.041386,44.966878,-0.001523,0.000001,0.000678,0.000000,0.000000,0.000000,0.030758,-0.024151,-0.028839
0.137000,0.307000,0.000000,0.367000,0.499227,-0.000237,0.281037,0.499397,-0.000171,0.281325,0.192227,-0.000237,-0.085963,0.210573,0.001805,-0.001548,0.784820,0.784823,44.967072,180.000000,-0.000000,0.000000,179.873849,0.041315,-44.966931,0.126151,-0.041315,44.966931,-0.001555,0.000001,0.000692,0.000000,0.000000,0.000000,-0.001723,-0.008545,0.021673
0.138000,0.307000,0.000000,0.367000,0.499225,-0.000237,0.281033,0.499396,-0.000171,0.281326,0.192225,-0.000237,-0.085967,0.210573,0.001811,-0.001554,0.784824,0.784828,44.967312,180.000000,-0.000000,0.000000,179.873387,0.041486,-44.967170,0.126613,-0.041486,44.967170,-0.001586,0.000001,0.000706,0.000000,0.000000,0.000000,-0.015675,-0.001980,-0.011238
0.139000,0.307000,0.000000,0.367000,0.499223,-0.000240,0.281032,0.499394,-0.000171,0.281326,0.192223,-0.000240,-0.085968,0.210572,0.001813,-0.001556,0.784823,0.784827,44.967265,180.000000,-0.000000,0.000000,179.873219,0.041556,-44.967124,0.126781,-0.041556,44.967124,-0.001618,0.000001,0.000720,0.000000,0.000000,0.000000,0.020791,0.013759,-0.029322
0.140000,0.307000,0.000000,0.367000,0.499222,-0.000239,0.281030,0.499393,-0.000171,0.281327,0.192222,-0.000239,-0.085970,0.210571,0.001818,-0.001562,0.784813,0.784817,44.966674,180.000000,-0.000000,0.000000,179.872825,0.041763,-44.966530,0.127175,-0.041763,44.966530,-0.001650,0.000001,0.000735,0.000000,0.000000,0.000000,-0.001673,0.018481,-0.033851
0.141000,0.307000,0.000000,0.367000,0.499222,-0.000240,0.281029,0.499391,-0.000171,0.281328,0.192222,-0.000240,-0.085971,0.210571,0.001820,-0.001561,0.784814,0.784818,44.966736,180.000000,-0.000000,0.000000,179.872798,0.041674,-44.966593,0.127202,-0.041674,44.966593,-0.001682,0.000001,0.000749,0.000000,0.000000,0.000000,-0.026952,0.030919,-0.002335
0.142000,0.307000,0.000000,0.367000,0.499220,-0.000239,0.281028,0.499389,-0.000171,0.281329,0.192220,-0.000239,-0.085972,0.210570,0.001823,-0.001561,0.784811,0.784815,44.966566,180.000000,-0.000000,0.000000,179.872587,0.041625,-44.966424,0.127413,-0.041625,44.966424,-0.001715,0.000002,0.000764,0.000000,0.000000,0.000000,-0.027303,0.010617,0.041749
0.143000,0.307000,0.000000,0.367000,0.499219,-0.000242,0.281027,0.499387,-0.000171,0.281329,0.192219,-0.000242,-0.085973,0.210570,0.001829,-0.001566,0.784809,0.784813,44.966451,180.000000,-0.000000,0.000000,179.872188,0.041734,-44.966308,0.127812,-0.041734,44.966308,-0.001748,0.000002,0.000778,0.000000,0.000000,0.000000,0.000967,-0.011101,0.085178
0.144000,0.307000,0.000000,0.367000,0.499218,-0.000238,0.281028,0.499386,-0.000171,0.281330,0.192218,-0.000238,-0.085972,0.210569,0.001830,-0.001563,0.784797,0.784801,44.965785,180.000000,-0.000000,0.000000,179.872223,0.041566,-44.965642,0.127777,-0.041566,44.965642,-0.001781,0.000002,0.000793,0.000000,0.000000,0.000000,-0.000454,0.011311,0.023587
0.145000,0.307000,0.000000,0.367000,0.499218,-0.000239,0.281024,0.499384,-0.000171,0.281331,0.192218,-0.000239,-0.085976,0.210570,0.001834,-0.001570,0.784801,0.784804,44.965975,180.000000,-0.000000,0.000000,179.871864,0.041853,-44.965830,0.128136,-0.041853,44.965830,-0.001815,0.000002,0.000808,0.000000,0.000000,0.000000,0.013502,-0.015188,-0.022313
0.146000,0.307000,0.000000,0.367000,0.499218,-0.000241,0.281026,0.499382,-0.000171,0.281332,0.192218,-0.000241,-0.085974,0.210569,0.001833,-0.001565,0.784800,0.784804,44.965929,180.000000,-0.000000,0.000000,179.872020,0.041597,-44.965784,0.127980,-0.041597,44.965784,-0.001849,0.000002,0.000823,0.000000,0.000000,0.000000,-0.039796,0.029693,-0.025957
0.147000,0.307000,0.000000,0.367000,0.499218,-0.000241,0.281025,0.499380,-0.000171,0.281333,0.192218,-0.000241,-0.085975,0.210570,0.001835,-0.001565,0.784799,0.784802,44.965856,180.000000,-0.000000,0.000000,179.871892,0.041565,-44.965709,0.128108,-0.041565,44.965709,-0.001884,0.000002,0.000839,0.000000,0.000000,0.000000,-0.012249,-0.010281,-0.019416
0.148000,0.307000,0.000000,0.367000,0.499215,-0.000240,0.281023,0.499378,-0.000171,0.281334,0.192215,-0.000240,-0.085977,0.210568,0.001838,-0.001572,0.784804,0.784807,44.966150,180.000000,-0.000000,0.000000,179.871613,0.041851,-44.966004,0.128387,-0.041851,44.966004,-0.001918,0.000002,0.000854,0.000000,0.000000,0.000000,-0.009216,0.020216,0.008224
0.149000,0.307000,0.000000,0.367000,0.499216,-0.000241,0.281022,0.499376,-0.000171,0.281334,0.192216,-0.000241,-0.085978,0.210569,0.001839,-0.001573,0.784810,0.784813,44.966497,180.000000,-0.000000,0.000000,179.871547,0.041885,-44.966352,0.128453,-0.041885,44.966352,-0.001954,0.000002,0.000870,0.000000,0.000000,0.000000,-0.006908,0.007621,0.026367
0.150000,0.307000,0.000000,0.367000,0.499215,-0.000241,0.281022,0.499374,-0.000171,0.281335,0.192215,-0.000241,-0.085978,0.210568,0.001841,-0.001572,0.784800,0.784804,44.965962,180.000000,-0.000000,0.000000,179.871456,0.041825,-44.965816,0.128544,-0.041825,44.965816,-0.001989,0.000002,0.000886,0.000000,0.000000,0.000000,-0.025493,-0.019712,-0.009271
0.151000,0.307000,0.000000,0.367000,0.499214,-0.000241,0.281019,0.499372,-0.000171,0.281336,0.192214,-0.000241,-0.085981,0.210568,0.001843,-0.001576,0.784804,0.784808,44.966185,180.000000,-0.000000,0.000000,179.871255,0.041969,-44.966038,0.128745,-0.041969,44.966038,-0.002025,0.000002,0.000902,0.000000,0.000000,0.000000,-0.002870,-0.021274,-0.016129
0.152000,0.307000,0.000000,0.367000,0.499213,-0.000241,0.281019,0.499370,-0.000171,0.281337,0.192213,-0.000241,-0.085981,0.210568,0.001847,-0.001574,0.784802,0.784806,44.966057,180.000000,-0.000000,0.000000,179.871109,0.041797,-44.965912,0.128891,-0.041797,44.965912,-0.002061,0.000002,0.000918,0.000000,0.000000,0.000000,0.019364,0.013148,-0.060645
0.153000,0.307000,0.000000,0.367000,0.499211,-0.000242,0.281017,0.499368,-0.000171,0.281338,0.192211,-0.000242,-0.085983,0.210566,0.001846,-0.001584,0.784804,0.784808,44.966197,180.000000,-0.000000,0.000000,179.870923,0.042293,-44.966050,0.129077,-0.042293,44.966050,-0.002097,0.000002,0.000934,0.000000,0.000000,0.000000,-0.015456,0.008909,-0.063790
0.154000,0.307000,0.000000,0.367000,0.499212,-0.000244,0.281018,0.499366,-0.000171,0.281339,0.192212,-0.000244,-0.085982,0.210567,0.001844,-0.001579,0.784809,0.784813,44.966475,180.000000,-0.000000,0.000000,179.871132,0.042068,-44.966328,0.128868,-0.042068,44.966328,-0.002134,0.000002,0.000950,0.000000,0.000000,0.000000,0.005893,-0.005386,-0.072790
0.155000,0.307000,0.000000,0.367000,0.499211,-0.000242,0.281016,0.499364,-0.000171,0.281340,0.192211,-0.000242,-0.085984,0.210566,0.001845,-0.001582,0.784802,0.784806,44.966053,180.000000,-0.000000,0.000000,179.871013,0.042220,-44.965907,0.128987,-0.042220,44.965907,-0.002171,0.000002,0.000967,0.000000,0.000000,0.000000,-0.046458,-0.045831,-0.023038
0.156000,0.307000,0.000000,0.367000,0.499210,-0.000241,0.281016,0.499362,-0.000171,0.281341,0.192210,-0.000241,-0.085984,0.210566,0.001850,-0.001581,0.784791,0.784795,44.965431,180.000000,-0.000000,0.000000,179.870807,0.042088,-44.965284,0.129193,-0.042088,44.965284,-0.002209,0.000002,0.000983,0.000000,0.000000,0.000000,0.004901,-0.015311,-0.028573
0.157000,0.307000,0.000000,0.367000,0.499209,-0.000241,0.281015,0.499359,-0.000171,0.281342,0.192209,-0.000241,-0.085985,0.210565,0.001852,-0.001584,0.784792,0.784795,44.965460,180.000000,-0.000000,0.000000,179.870650,0.042172,-44.965313,0.129350,-0.042172,44.965313,-0.002246,0.000002,0.001000,0.000000,0.000000,0.000000,-0.000468,-0.004280,0.018387
0.158000,0.307000,0.000000,0.367000,0.499208,-0.000241,0.281016,0.499357,-0.000171,0.281343,0.192208,-0.000241,-0.085984,0.210564,0.001851,-0.001586,0.784791,0.784795,44.965435,180.000000,-0.000000,0.000000,179.870611,0.042295,-44.965287,0.129389,-0.042295,44.965287,-0.002284,0.000002,0.001017,0.000000,0.000000,0.000000,0.030446,-0.006577,0.042832
0.159000,0.307000,0.000000,0.367000,0.499207,-0.000239,0.281013,0.499355,-0.000171,0.281344,0.192207,-0.000239,-0.085987,0.210565,0.001852,-0.001588,0.784790,0.784794,44.965396,180.000000,-0.000000,0.000000,179.870553,0.042397,-44.965248,0.129447,-0.042397,44.965248,-0.002323,0.000002,0.001034,0.000000,0.000000,0.000000,0.021054,0.002272,0.001736
0.160000,0.307000,0.000000,0.367000,0.499207,-0.000241,0.281012,0.499352,-0.000171,0.281345,0.192207,-0.000241,-0.085988,0.210565,0.001855,-0.001591,0.784795,0.784798,44.965641,180.000000,-0.000000,0.000000,179.870333,0.042453,-44.965492,0.129667,-0.042453,44.965492,-0.002362,0.000002,0.001052,0.000000,0.000000,0.000000,-0.005139,0.033502,-0.031219
0.161000,0.307000,0.000000,0.367000,0.499205,-0.000244,0.281009,0.499350,-0.000171,0.281346,0.192205,-0.000244,-0.085991,0.210564,0.001858,-0.001598,0.784804,0.784807,44.966157,180.000000,-0.000000,0.000000,179.870005,0.042750,-44.966009,0.129995,-0.042750,44.966009,-0.002401,0.000002,0.001069,0.000000,0.000000,0.000000,0.000282,0.003238,0.034429
0.162000,0.307000,0.000000,0.367000,0.499204,-0.000241,0.281010,0.499348,-0.000171,0.281347,0.192204,-0.000241,-0.085990,0.210563,0.001860,-0.001595,0.784793,0.784797,44.965542,180.000000,-0.000000,0.000000,179.869999,0.042590,-44.965393,0.130001,-0.042590,44.965393,-0.002440,0.000002,0.001087,0.000000,0.000000,0.000000,-0.016782,-0.042327,0.004470
0.163000,0.307000,0.000000,0.367000,0.499204,-0.000244,0.281009,0.499345,-0.000171,0.281348,0.192204,-0.000244,-0.085991,0.210563,0.001858,-0.001598,0.784802,0.784805,44.966036,180.000000,-0.000000,0.000000,179.870039,0.042777,-44.965888,0.129961,-0.042777,44.965888,-0.002480,0.000002,0.001104,0.000000,0.000000,0.000000,-0.011634,-0.006217,0.000053
0.164000,0.307000,0.000000,0.367000,0.499204,-0.000246,0.281010,0.499343,-0.000171,0.281349,0.192204,-0.000246,-0.085990,0.210563,0.001860,-0.001595,0.784807,0.784811,44.966369,180.000000,-0.000000,0.000000,179.869984,0.042603,-44.966221,0.130016,-0.042603,44.966221,-0.002520,0.000002,0.001122,0.000000,0.000000,0.000000,0.023785,0.032620,0.051176
0.165000,0.307000,0.000000,0.367000,0.499202,-0.000245,0.281005,0.499340,-0.000171,0.281351,0.192202,-0.000245,-0.085995,0.210563,0.001863,-0.001604,0.784801,0.784805,44.966019,180.000000,-0.000000,0.000000,179.869601,0.042983,-44.965869,0.130399,-0.042983,44.965869,-0.002561,0.000002,0.001140,0.000000,0.000000,0.000000,0.040627,0.008539,0.054976
0.166000,0.307000,0.000000,0.367000,0.499201,-0.000242,0.281003,0.499337,-0.000171,0.281352,0.192201,-0.000242,-0.085997,0.210563,0.001865,-0.001610,0.784798,0.784802,44.965861,180.000000,-0.000000,0.000000,179.869390,0.043225,-44.965712,0.130610,-0.043225,44.965712,-0.002601,0.000002,0.001158,0.000000,0.000000,0.000000,0.002458,0.022932,0.005183
0.167000,0.307000,0.000000,0.367000,0.499202,-0.000242,0.281005,0.499335,-0.000171,0.281353,0.192202,-0.000242,-0.085995,0.210563,0.001863,-0.001603,0.784795,0.784799,44.965683,180.000000,-0.000000,0.000000,179.869657,0.042935,-44.965533,0.130343,-0.042935,44.965533,-0.002642,0.000002,0.001177,0.000000,0.000000,0.000000,0.013506,0.004479,-0.025502
0.168000,0.307000,0.000000,0.367000,0.499201,-0.000244,0.281005,0.499332,-0.000171,0.281354,0.192201,-0.000244,-0.085995,0.210562,0.001864,-0.001605,0.784795,0.784799,44.965661,180.000000,-0.000000,0.000000,179.869540,0.043014,-44.965511,0.130460,-0.043014,44.965511,-0.002684,0.000002,0.001195,0.000000,0.000000,0.000000,0.000627,-0.028933,0.023604
