t,target_x,target_y,target_z,actual_x,actual_y,actual_z,inner_x,inner_y,inner_z,position_error_x,position_error_y,position_error_z,position_error_norm,orientation_error_x,orientation_error_y,orientation_error_z,orientation_error_norm_rad,orientation_error_norm_deg,target_roll_deg,target_pitch_deg,target_yaw_deg,actual_roll_deg,actual_pitch_deg,actual_yaw_deg,error_roll_deg,error_pitch_deg,error_yaw_deg,inner_vx,inner_vy,inner_vz,filtered_fx,filtered_fy,filtered_fz,masked_fx,masked_fy,masked_fz
0.000000,0.307000,0.000000,0.367000,0.499436,-0.000233,0.281277,0.499436,-0.000233,0.281277,0.192436,-0.000233,-0.085723,0.210665,0.001199,-0.001173,0.785252,0.785253,44.991703,180.000000,-0.000000,0.000000,179.913072,0.034864,-44.991637,0.086928,-0.034864,44.991637,0.000000,0.000000,0.000000,0.000000,0.000000,0.000000,0.000000,0.000000,0.000000
0.001000,0.307000,0.000000,0.367000,0.499436,-0.000238,0.281276,0.499436,-0.000233,0.281277,0.192436,-0.000238,-0.085724,0.210666,0.001198,-0.001176,0.785266,0.785268,44.992555,180.000000,-0.000000,0.000000,179.913093,0.035056,-44.992490,0.086907,-0.035056,44.992490,0.000000,0.000000,0.000000,0.000000,0.000000,0.000000,0.005043,-0.012920,-0.027681
0.002000,0.307000,0.000000,0.367000,0.499435,-0.000237,0.281274,0.499436,-0.000233,0.281277,0.192435,-0.000237,-0.085726,0.210666,0.001199,-0.001178,0.785262,0.785264,44.992292,180.000000,-0.000000,0.000000,179.912968,0.035119,-44.992224,0.087032,-0.035119,44.992224,-0.000000,0.000000,0.000000,0.000000,0.000000,0.000000,-0.001713,-0.009118,0.048801
0.003000,0.307000,0.000000,0.367000,0.499436,-0.000235,0.281278,0.499436,-0.000233,0.281277,0.192436,-0.000235,-0.085722,0.210666,0.001195,-0.001172,0.785260,0.785262,44.992197,180.000000,-0.000000,0.000000,179.913330,0.034925,-44.992132,0.086670,-0.034925,44.992132,-0.000000,0.000000,0.000000,0.000000,0.000000,0.000000,-0.014336,-0.015064,-0.010000
0.004000,0.307000,0.000000,0.367000,0.499435,-0.000235,0.281276,0.499436,-0.000233,0.281277,0.192435,-0.000235,-0.085724,0.210665,0.001192,-0.001178,0.785268,0.785269,44.992620,180.000000,-0.000000,0.000000,179.913313,0.035311,-44.992555,0.086687,-0.035311,44.992555,-0.000000,0.000000,0.000000,0.000000,0.000000,0.000000,0.006121,0.012540,0.015055
0.005000,0.307000,0.000000,0.367000,0.499431,-0.000235,0.281272,0.499436,-0.000233,0.281277,0.192431,-0.000235,-0.085728,0.210664,0.001201,-0.001186,0.785264,0.785266,44.992436,180.000000,-0.000000,0.000000,179.912715,0.035556,-44.992369,0.087285,-0.035556,44.992369,-0.000000,0.000000,0.000000,0.000000,0.000000,0.000000,0.033980,0.004473,-0.019284
0.006000,0.307000,0.000000,0.367000,0.499431,-0.000237,0.281270,0.499436,-0.000233,0.281277,0.192431,-0.000237,-0.085730,0.210664,0.001203,-0.001188,0.785264,0.785266,44.992437,180.000000,-0.000000,0.000000,179.912560,0.035569,-44.992369,0.087440,-0.035569,44.992369,-0.000000,0.000000,0.000000,0.000000,0.000000,0.000000,-0.027939,0.008720,-0.009691
0.007000,0.307000,0.000000,0.367000,0.499430,-0.000237,0.281269,0.499436,-0.000233,0.281277,0.192430,-0.000237,-0.085731,0.210664,0.001211,-0.001187,0.785249,0.785251,44.991577,180.000000,-0.000000,0.000000,179.912189,0.035388,-44.991509,0.087811,-0.035388,44.991509,-0.000000,0.000000,0.000000,0.000000,0.000000,0.000000,-0.024438,0.007667,-0.008481
0.008000,0.307000,0.000000,0.367000,0.499429,-0.000239,0.281268,0.499436,-0.000233,0.281277,0.192429,-0.000239,-0.085732,0.210663,0.001219,-0.001185,0.785251,0.785253,44.991660,180.000000,-0.000000,0.000000,179.911795,0.035110,-44.991592,0.088205,-0.035110,44.991592,-0.000000,0.000000,0.000000,0.000000,0.000000,0.000000,-0.026698,0.029763,0.024935
0.009000,0.307000,0.000000,0.367000,0.499427,-0.000242,0.281267,0.499436,-0.000233,0.281277,0.192427,-0.000242,-0.085733,0.210662,0.001224,-0.001185,0.785256,0.785258,44.991950,180.000000,-0.000000,0.000000,179.911516,0.034978,-44.991881,0.088484,-0.034978,44.991881,-0.000000,0.000000,0.000000,0.000000,0.000000,0.000000,-0.004993,0.001733,0.041300
0.010000,0.307000,0.000000,0.367000,0.499425,-0.000241,0.281263,0.499436,-0.000233,0.281277,0.192425,-0.000241,-0.085737,0.210661,0.001233,-0.001193,0.785245,0.785247,44.991343,180.000000,-0.000000,0.000000,179.910928,0.035223,-44.991273,0.089072,-0.035223,44.991273,-0.000000,0.000000,0.000000,0.000000,0.000000,0.000000,-0.023814,0.006480,-0.022288
0.011000,0.307000,0.000000,0.367000,0.499426,-0.000241,0.281265,0.499436,-0.000233,0.281277,0.192426,-0.000241,-0.085735,0.210661,0.001236,-0.001186,0.785236,0.785238,44.990832,180.000000,-0.000000,0.000000,179.910875,0.034787,-44.990763,0.089125,-0.034787,44.990763,-0.000000,0.000000,0.000000,0.000000,0.000000,0.000000,0.003217,0.011401,0.003301
0.012000,0.307000,0.000000,0.367000,0.499425,-0.000241,0.281263,0.499436,-0.000233,0.281277,0.192425,-0.000241,-0.085737,0.210662,0.001242,-0.001190,0.785239,0.785241,44.990985,180.000000,-0.000000,0.000000,179.910531,0.034835,-44.990915,0.089469,-0.034835,44.990915,-0.000001,0.000000,0.000000,0.000000,0.000000,0.000000,0.040257,0.001233,0.051722
0.013000,0.307000,0.000000,0.367000,0.499425,-0.000241,0.281265,0.499436,-0.000233,0.281277,0.192425,-0.000241,-0.085735,0.210661,0.001245,-0.001185,0.785235,0.785237,44.990768,180.000000,-0.000000,0.000000,179.910454,0.034539,-44.990698,0.089546,-0.034539,44.990698,-0.000001,0.000000,0.000000,0.000000,0.000000,0.000000,0.021455,-0.024962,0.022949
0.014000,0.307000,0.000000,0.367000,0.499423,-0.000244,0.281263,0.499436,-0.000233,0.281277,0.192423,-0.000244,-0.085737,0.210660,0.001249,-0.001189,0.785229,0.785231,44.990436,180.000000,-0.000000,0.000000,179.910155,0.034658,-44.990365,0.089845,-0.034658,44.990365,-0.000001,0.000000,0.000001,0.000000,0.000000,0.000000,0.023278,-0.005872,0.033612
0.015000,0.307000,0.000000,0.367000,0.499420,-0.000244,0.281261,0.499436,-0.000233,0.281277,0.192420,-0.000244,-0.085739,0.210658,0.001259,-0.001194,0.785219,0.785221,44.989858,180.000000,-0.000000,0.000000,179.909529,0.034682,-44.989785,0.090471,-0.034682,44.989785,-0.000001,0.000000,0.000001,0.000000,0.000000,0.000000,0.011835,-0.041173,-0.036544
0.016000,0.307000,0.000000,0.367000,0.499417,-0.000246,0.281257,0.499436,-0.000233,0.281277,0.192417,-0.000246,-0.085743,0.210657,0.001269,-0.001200,0.785229,0.785231,44.990438,180.000000,-0.000000,0.000000,179.908886,0.034761,-44.990365,0.091114,-0.034761,44.990365,-0.000002,0.000000,0.000001,0.000000,0.000000,0.000000,0.021132,0.021770,0.017911
0.017000,0.307000,0.000000,0.367000,0.499419,-0.000247,0.281258,0.499436,-0.000233,0.281277,0.192419,-0.000247,-0.085742,0.210658,0.001273,-0.001193,0.785223,0.785225,44.990064,180.000000,-0.000000,0.000000,179.908841,0.034351,-44.989993,0.091159,-0.034351,44.989993,-0.000002,0.000000,0.000001,0.000000,0.000000,0.000000,0.007023,-0.003431,0.011193
0.018000,0.307000,0.000000,0.367000,0.499415,-0.000244,0.281253,0.499436,-0.000233,0.281277,0.192415,-0.000244,-0.085747,0.210656,0.001283,-0.001203,0.785203,0.785204,44.988903,180.000000,-0.000000,0.000000,179.908130,0.034645,-44.988829,0.091870,-0.034645,44.988829,-0.000003,0.000000,0.000001,0.000000,0.000000,0.000000,-0.027600,0.023653,0.043674
0.019000,0.307000,0.000000,0.367000,0.499415,-0.000250,0.281252,0.499436,-0.000233,0.281277,0.192415,-0.000250,-0.085748,0.210657,0.001288,-0.001200,0.785209,0.785211,44.989256,180.000000,-0.000000,0.000000,179.907912,0.034384,-44.989182,0.092088,-0.034384,44.989182,-0.000004,0.000000,0.000002,0.000000,0.000000,0.000000,-0.057038,0.018526,0.063533
0.020000,0.307000,0.000000,0.367000,0.499413,-0.000248,0.281252,0.499436,-0.000233,0.281277,0.192413,-0.000248,-0.085748,0.210655,0.001297,-0.001201,0.785205,0.785207,44.989034,180.000000,-0.000000,0.000000,179.907469,0.034233,-44.988959,0.092531,-0.034233,44.988959,-0.000004,0.000000,0.000002,0.000000,0.000000,0.000000,-0.006884,0.008882,0.033248
0.021000,0.307000,0.000000,0.367000,0.499409,-0.000249,0.281247,0.499436,-0.000233,0.281277,0.192409,-0.000249,-0.085753,0.210653,0.001307,-0.001210,0.785194,0.785196,44.988392,180.000000,-0.000000,0.000000,179.906735,0.034488,-44.988317,0.093265,-0.034488,44.988317,-0.000005,0.000000,0.000002,0.000000,0.000000,0.000000,0.016781,-0.026335,-0.029050
0.022000,0.307000,0.000000,0.367000,0.499409,-0.000253,0.281248,0.499436,-0.000233,0.281277,0.192409,-0.000253,-0.085752,0.210653,0.001312,-0.001206,0.785188,0.785190,44.988090,180.000000,-0.000000,0.000000,179.906567,0.034174,-44.988013,0.093433,-0.034174,44.988013,-0.000006,0.000000,0.000003,0.000000,0.000000,0.000000,-0.004695,-0.008691,0.001338
0.023000,0.307000,0.000000,0.367000,0.499406,-0.000250,0.281244,0.499436,-0.000233,0.281277,0.192406,-0.000250,-0.085756,0.210652,0.001322,-0.001211,0.785184,0.785186,44.987844,180.000000,-0.000000,0.000000,179.905948,0.034231,-44.987766,0.094052,-0.034231,44.987766,-0.000007,0.000000,0.000003,0.000000,0.000000,0.000000,-0.006140,-0.001693,0.036071
0.024000,0.307000,0.000000,0.367000,0.499405,-0.000253,0.281242,0.499436,-0.000233,0.281277,0.192405,-0.000253,-0.085758,0.210651,0.001328,-0.001214,0.785188,0.785190,44.988099,180.000000,-0.000000,0.000000,179.905582,0.034254,-44.988020,0.094418,-0.034254,44.988020,-0.000009,0.000000,0.000004,0.000000,0.000000,0.000000,0.019343,-0.016850,-0.026100
0.025000,0.307000,0.000000,0.367000,0.499403,-0.000253,0.281241,0.499436,-0.000233,0.281277,0.192403,-0.000253,-0.085759,0.210650,0.001334,-0.001214,0.785172,0.785174,44.987164,180.000000,-0.000000,0.000000,179.905236,0.034138,-44.987085,0.094764,-0.034138,44.987085,-0.000010,0.000000,0.000004,0.000000,0.000000,0.000000,0.008466,0.035892,-0.024474
0.026000,0.307000,0.000000,0.367000,0.499402,-0.000258,0.281238,0.499435,-0.000233,0.281277,0.192402,-0.000258,-0.085762,0.210650,0.001343,-0.001216,0.785179,0.785181,44.987572,180.000000,-0.000000,0.000000,179.904754,0.034038,-44.987494,0.095246,-0.034038,44.987494,-0.000012,0.000000,0.000005,0.000000,0.000000,0.000000,0.025691,-0.029557,0.006655
0.027000,0.307000,0.000000,0.367000,0.499400,-0.000256,0.281236,0.499435,-0.000233,0.281277,0.192400,-0.000256,-0.085764,0.210650,0.001352,-0.001216,0.785171,0.785173,44.987079,180.000000,-0.000000,0.000000,179.904295,0.033865,-44.986999,0.095705,-0.033865,44.986999,-0.000013,0.000000,0.000006,0.000000,0.000000,0.000000,0.052973,-0.015280,0.023466
0.028000,0.307000,0.000000,0.367000,0.499399,-0.000257,0.281235,0.499435,-0.000233,0.281277,0.192399,-0.000257,-0.085765,0.210650,0.001358,-0.001217,0.785165,0.785167,44.986736,180.000000,-0.000000,0.000000,179.903917,0.033778,-44.986656,0.096083,-0.033778,44.986656,-0.000015,0.000000,0.000007,0.000000,0.000000,0.000000,0.012709,-0.014222,-0.007907
0.029000,0.307000,0.000000,0.367000,0.499396,-0.000262,0.281231,0.499435,-0.000233,0.281277,0.192396,-0.000262,-0.085769,0.210648,0.001366,-0.001223,0.785165,0.785167,44.986762,180.000000,-0.000000,0.000000,179.903420,0.033936,-44.986680,0.096580,-0.033936,44.986680,-0.000017,0.000000,0.000008,0.000000,0.000000,0.000000,0.018210,-0.029804,0.004349
0.030000,0.307000,0.000000,0.367000,0.499393,-0.000261,0.281227,0.499435,-0.000233,0.281277,0.192393,-0.000261,-0.085773,0.210647,0.001375,-0.001229,0.785159,0.785162,44.986441,180.000000,-0.000000,0.000000,179.902793,0.034032,-44.986359,0.097207,-0.034032,44.986359,-0.000019,0.000000,0.000009,0.000000,0.000000,0.000000,-0.020185,0.022716,0.066226
0.031000,0.307000,0.000000,0.367000,0.499391,-0.000261,0.281227,0.499435,-0.000233,0.281277,0.192391,-0.000261,-0.085773,0.210645,0.001383,-0.001227,0.785151,0.785153,44.985939,180.000000,-0.000000,0.000000,179.902444,0.033758,-44.985856,0.097556,-0.033758,44.985856,-0.000022,0.000000,0.000010,0.000000,0.000000,0.000000,-0.019548,0.022032,0.064159
0.032000,0.307000,0.000000,0.367000,0.499389,-0.000262,0.281222,0.499435,-0.000233,0.281277,0.192389,-0.000262,-0.085778,0.210645,0.001391,-0.001235,0.785147,0.785149,44.985729,180.000000,-0.000000,0.000000,179.901888,0.033982,-44.985644,0.098112,-0.033982,44.985644,-0.000024,0.000000,0.000011,0.000000,0.000000,0.000000,0.015345,0.013467,0.048601
0.033000,0.307000,0.000000,0.367000,0.499387,-0.000263,0.281221,0.499435,-0.000233,0.281277,0.192387,-0.000263,-0.085779,0.210644,0.001399,-0.001237,0.785137,0.785140,44.985184,180.000000,-0.000000,0.000000,179.901409,0.033960,-44.985098,0.098591,-0.033960,44.985098,-0.000027,0.000000,0.000012,0.000000,0.000000,0.000000,0.001526,0.013835,0.063996
0.034000,0.307000,0.000000,0.367000,0.499385,-0.000263,0.281219,0.499435,-0.000233,0.281277,0.192385,-0.000263,-0.085781,0.210643,0.001405,-0.001241,0.785137,0.785139,44.985153,180.000000,-0.000000,0.000000,179.900980,0.034022,-44.985067,0.099020,-0.034022,44.985067,-0.000030,0.000000,0.000013,0.000000,0.000000,0.000000,-0.007600,-0.000545,0.011504
0.035000,0.307000,0.000000,0.367000,0.499382,-0.000263,0.281215,0.499435,-0.000233,0.281277,0.192382,-0.000263,-0.085785,0.210642,0.001416,-0.001247,0.785133,0.785136,44.984952,180.000000,-0.000000,0.000000,179.900305,0.034067,-44.984864,0.099695,-0.034067,44.984864,-0.000033,0.000000,0.000015,0.000000,0.000000,0.000000,-0.002350,-0.008190,0.034991
0.036000,0.307000,0.000000,0.367000,0.499379,-0.000264,0.281210,0.499435,-0.000233,0.281277,0.192379,-0.000264,-0.085790,0.210641,0.001425,-0.001255,0.785120,0.785122,44.984193,180.000000,-0.000000,0.000000,179.899665,0.034283,-44.984103,0.100335,-0.034283,44.984103,-0.000036,0.000000,0.000016,0.000000,0.000000,0.000000,0.047872,0.018285,0.003906
0.037000,0.307000,0.000000,0.367000,0.499376,-0.000266,0.281209,0.499435,-0.000233,0.281277,0.192376,-0.000266,-0.085791,0.210639,0.001430,-0.001254,0.785122,0.785124,44.984293,180.000000,-0.000000,0.000000,179.899418,0.034145,-44.984205,0.100582,-0.034145,44.984205,-0.000040,0.000000,0.000018,0.000000,0.000000,0.000000,-0.070806,0.021205,0.000133
0.038000,0.307000,0.000000,0.367000,0.499376,-0.000270,0.281209,0.499435,-0.000233,0.281277,0.192376,-0.000270,-0.085791,0.210639,0.001437,-0.001253,0.785127,0.785129,44.984575,180.000000,-0.000000,0.000000,179.899114,0.033928,-44.984485,0.100886,-0.033928,44.984485,-0.000044,0.000000,0.000019,0.000000,0.000000,0.000000,0.007919,-0.041274,0.014708
0.039000,0.307000,0.000000,0.367000,0.499372,-0.000268,0.281201,0.499435,-0.000233,0.281277,0.192372,-0.000268,-0.085799,0.210638,0.001446,-0.001267,0.785120,0.785122,44.984175,180.000000,-0.000000,0.000000,179.898305,0.034491,-44.984084,0.101695,-0.034491,44.984084,-0.000048,0.000000,0.000021,0.000000,0.000000,0.000000,0.023690,-0.021428,-0.042527
0.040000,0.307000,0.000000,0.367000,0.499371,-0.000268,0.281200,0.499435,-0.000233,0.281277,0.192371,-0.000268,-0.085800,0.210638,0.001454,-0.001266,0.785105,0.785107,44.983316,180.000000,-0.000000,0.000000,179.897962,0.034238,-44.983224,0.102038,-0.034238,44.983224,-0.000052,0.000000,0.000023,0.000000,0.000000,0.000000,0.030674,0.026690,0.009258
0.041000,0.307000,0.000000,0.367000,0.499368,-0.000268,0.281198,0.499435,-0.000233,0.281277,0.192368,-0.000268,-0.085802,0.210636,0.001459,-0.001270,0.785105,0.785107,44.983312,180.000000,-0.000000,0.000000,179.897593,0.034368,-44.983219,0.102407,-0.034368,44.983219,-0.000056,0.000000,0.000025,0.000000,0.000000,0.000000,0.029947,0.026057,0.009024
0.042000,0.307000,0.000000,0.367000,0.499364,-0.000272,0.281194,0.499435,-0.000233,0.281277,0.192364,-0.000272,-0.085806,0.210634,0.001464,-0.001279,0.785116,0.785118,44.983961,180.000000,-0.000000,0.000000,179.897169,0.034691,-44.983866,0.102831,-0.034691,44.983866,-0.000061,0.000000,0.000027,0.000000,0.000000,0.000000,-0.003116,-0.040703,0.048936
0.043000,0.307000,0.000000,0.367000,0.499362,-0.000272,0.281192,0.499435,-0.000233,0.281277,0.192362,-0.000272,-0.085808,0.210633,0.001471,-0.001282,0.785108,0.785110,44.983487,180.000000,-0.000000,0.000000,179.896718,0.034701,-44.983393,0.103282,-0.034701,44.983393,-0.000066,0.000000,0.000029,0.000000,0.000000,0.000000,-0.003036,-0.039754,0.047813
0.044000,0.307000,0.000000,0.367000,0.499361,-0.000272,0.281188,0.499435,-0.000233,0.281277,0.192361,-0.000272,-0.085812,0.210633,0.001476,-0.001288,0.785097,0.785099,44.982859,180.000000,-0.000000,0.000000,179.896327,0.034912,-44.982765,0.103673,-0.034912,44.982765,-0.000071,0.000000,0.000032,0.000000,0.000000,0.000000,0.014216,-0.006736,0.062027
0.045000,0.307000,0.000000,0.367000,0.499357,-0.000272,0.281184,0.499435,-0.000233,0.281277,0.192357,-0.000272,-0.085816,0.210631,0.001483,-0.001295,0.785099,0.785102,44.983010,180.000000,-0.000000,0.000000,179.895830,0.035133,-44.982915,0.104170,-0.035133,44.982915,-0.000077,0.000000,0.000034,0.000000,0.000000,0.000000,-0.001273,0.022820,0.012551
0.046000,0.307000,0.000000,0.367000,0.499355,-0.000273,0.281182,0.499435,-0.000233,0.281277,0.192355,-0.000273,-0.085818,0.210631,0.001487,-0.001298,0.785105,0.785107,44.983339,180.000000,-0.000000,0.000000,179.895554,0.035193,-44.983243,0.104446,-0.035193,44.983243,-0.000082,0.000000,0.000037,0.000000,0.000000,0.000000,0.024001,0.049515,-0.043109
0.047000,0.307000,0.000000,0.367000,0.499352,-0.000272,0.281179,0.499435,-0.000233,0.281277,0.192352,-0.000272,-0.085821,0.210629,0.001493,-0.001303,0.785086,0.785088,44.982255,180.000000,-0.000000,0.000000,179.895177,0.035329,-44.982159,0.104823,-0.035329,44.982159,-0.000088,0.000000,0.000039,0.000000,0.000000,0.000000,-0.005942,0.000656,-0.037398
0.048000,0.307000,0.000000,0.367000,0.499348,-0.000273,0.281173,0.499434,-0.000233,0.281278,0.192348,-0.000273,-0.085827,0.210628,0.001499,-0.001316,0.785088,0.785090,44.982362,180.000000,-0.000000,0.000000,179.894584,0.035876,-44.982263,0.105416,-0.035876,44.982263,-0.000095,0.000000,0.000042,0.000000,0.000000,0.000000,-0.007466,-0.024164,0.011651
0.049000,0.307000,0.000000,0.367000,0.499345,-0.000273,0.281172,0.499434,-0.000233,0.281278,0.192345,-0.000273,-0.085828,0.210626,0.001502,-0.001321,0.785099,0.785102,44.983003,180.000000,-0.000000,0.000000,179.894269,0.036084,-44.982905,0.105731,-0.036084,44.982905,-0.000101,0.000000,0.000045,0.000000,0.000000,0.000000,-0.031353,0.012865,-0.025694
0.050000,0.307000,0.000000,0.367000,0.499342,-0.000273,0.281167,0.499434,-0.000233,0.281278,0.192342,-0.000273,-0.085833,0.210625,0.001508,-0.001329,0.785091,0.785094,44.982567,180.000000,-0.000000,0.000000,179.893803,0.036336,-44.982468,0.106197,-0.036336,44.982468,-0.000108,0.000000,0.000048,0.000000,0.000000,0.000000,-0.052622,0.031225,0.049754
0.051000,0.307000,0.000000,0.367000,0.499342,-0.000276,0.281167,0.499434,-0.000233,0.281278,0.192342,-0.000276,-0.085833,0.210624,0.001509,-0.001327,0.785084,0.785087,44.982170,180.000000,-0.000000,0.000000,179.893827,0.036226,-44.982072,0.106173,-0.036226,44.982072,-0.000115,0.000000,0.000051,0.000000,0.000000,0.000000,0.008673,0.001098,0.021160
0.052000,0.307000,0.000000,0.367000,0.499336,-0.000274,0.281160,0.499434,-0.000233,0.281278,0.192336,-0.000274,-0.085840,0.210622,0.001520,-0.001344,0.785087,0.785090,44.982323,180.000000,-0.000000,0.000000,179.892898,0.036880,-44.982222,0.107102,-0.036880,44.982222,-0.000123,0.000000,0.000055,0.000000,0.000000,0.000000,0.008520,0.001073,0.020714
0.053000,0.307000,0.000000,0.367000,0.499335,-0.000274,0.281157,0.499434,-0.000233,0.281278,0.192335,-0.000274,-0.085843,0.210622,0.001522,-0.001349,0.785087,0.785089,44.982311,180.000000,-0.000000,0.000000,179.892689,0.037094,-44.982210,0.107311,-0.037094,44.982210,-0.000131,0.000000,0.000058,0.000000,0.000000,0.000000,-0.016692,-0.033094,-0.017292
0.054000,0.307000,0.000000,0.367000,0.499329,-0.000274,0.281152,0.499434,-0.000233,0.281278,0.192329,-0.000274,-0.085848,0.210619,0.001528,-0.001360,0.785080,0.785082,44.981914,180.000000,-0.000000,0.000000,179.892098,0.037521,-44.981811,0.107902,-0.037521,44.981811,-0.000139,0.000000,0.000062,0.000000,0.000000,0.000000,0.007783,0.019404,-0.033604
0.055000,0.307000,0.000000,0.367000,0.499328,-0.000277,0.281151,0.499434,-0.000233,0.281278,0.192328,-0.000277,-0.085849,0.210618,0.001534,-0.001361,0.785077,0.785080,44.981750,180.000000,-0.000000,0.000000,179.891803,0.037432,-44.981647,0.108197,-0.037432,44.981647,-0.000147,0.000000,0.000065,0.000000,0.000000,0.000000,0.026261,0.053507,0.029431
0.056000,0.307000,0.000000,0.367000,0.499325,-0.000277,0.281146,0.499433,-0.000233,0.281278,0.192325,-0.000277,-0.085854,0.210618,0.001539,-0.001370,0.785080,0.785083,44.981921,180.000000,-0.000000,0.000000,179.891346,0.037793,-44.981816,0.108654,-0.037793,44.981816,-0.000155,0.000000,0.000069,0.000000,0.000000,0.000000,-0.022763,0.000294,0.006645
0.057000,0.307000,0.000000,0.367000,0.499322,-0.000275,0.281145,0.499433,-0.000233,0.281278,0.192322,-0.000275,-0.085855,0.210615,0.001542,-0.001372,0.785079,0.785082,44.981868,180.000000,-0.000000,0.000000,179.891140,0.037841,-44.981763,0.108860,-0.037841,44.981763,-0.000164,0.000000,0.000073,0.000000,0.000000,0.000000,0.005520,-0.027073,0.036423
0.058000,0.307000,0.000000,0.367000,0.499320,-0.000276,0.281141,0.499433,-0.000233,0.281278,0.192320,-0.000276,-0.085859,0.210615,0.001550,-0.001378,0.785071,0.785074,44.981405,180.000000,-0.000000,0.000000,179.890599,0.038010,-44.981300,0.109401,-0.038010,44.981300,-0.000174,0.000000,0.000077,0.000000,0.000000,0.000000,-0.001385,-0.014483,-0.023522
0.059000,0.307000,0.000000,0.367000,0.499317,-0.000277,0.281137,0.499433,-0.000233,0.281278,0.192317,-0.000277,-0.085863,0.210614,0.001554,-0.001385,0.785070,0.785073,44.981377,180.000000,-0.000000,0.000000,179.890242,0.038283,-44.981271,0.109758,-0.038283,44.981271,-0.000183,0.000000,0.000082,0.000000,0.000000,0.000000,-0.027981,-0.018749,-0.013681
0.060000,0.307000,0.000000,0.367000,0.499313,-0.000281,0.281133,0.499433,-0.000233,0.281278,0.192313,-0.000281,-0.085867,0.210613,0.001561,-0.001392,0.785078,0.785081,44.981828,180.000000,-0.000000,0.000000,179.889717,0.038454,-44.981720,0.110283,-0.038454,44.981720,-0.000193,0.000000,0.000086,0.000000,0.000000,0.000000,-0.036552,0.009416,0.031787
0.061000,0.307000,0.000000,0.367000,0.499311,-0.000277,0.281130,0.499433,-0.000233,0.281278,0.192311,-0.000277,-0.085870,0.210612,0.001566,-0.001399,0.785071,0.785074,44.981441,180.000000,-0.000000,0.000000,179.889320,0.038697,-44.981333,0.110680,-0.038697,44.981333,-0.000203,0.000000,0.000091,0.000000,0.000000,0.000000,-0.035953,0.009281,0.031256
0.062000,0.307000,0.000000,0.367000,0.499311,-0.000279,0.281130,0.499432,-0.000233,0.281278,0.192311,-0.000279,-0.085870,0.210611,0.001569,-0.001397,0.785066,0.785069,44.981151,180.000000,-0.000000,0.000000,179.889207,0.038580,-44.981044,0.110793,-0.038580,44.981044,-0.000214,0.000000,0.000095,0.000000,0.000000,0.000000,-0.022345,0.043152,-0.037208
0.063000,0.307000,0.000000,0.367000,0.499305,-0.000281,0.281122,0.499432,-0.000233,0.281279,0.192305,-0.000281,-0.085878,0.210609,0.001581,-0.001412,0.785061,0.785064,44.980844,180.000000,-0.000000,0.000000,179.888303,0.039068,-44.980734,0.111697,-0.039068,44.980734,-0.000224,0.000000,0.000100,0.000000,0.000000,0.000000,0.003024,-0.014567,-0.041864
0.064000,0.307000,0.000000,0.367000,0.499302,-0.000280,0.281119,0.499432,-0.000233,0.281279,0.192302,-0.000280,-0.085881,0.210608,0.001589,-0.001418,0.785066,0.785068,44.981106,180.000000,-0.000000,0.000000,179.887756,0.039208,-44.980995,0.112244,-0.039208,44.980995,-0.000236,0.000000,0.000105,0.000000,0.000000,0.000000,0.007269,-0.020028,-0.068724
0.065000,0.307000,0.000000,0.367000,0.499300,-0.000280,0.281116,0.499432,-0.000233,0.281279,0.192300,-0.000280,-0.085884,0.210607,0.001594,-0.001421,0.785054,0.785056,44.980421,180.000000,-0.000000,0.000000,179.887413,0.039255,-44.980309,0.112587,-0.039255,44.980309,-0.000247,0.000000,0.000110,0.000000,0.000000,0.000000,0.007169,-0.019692,-0.067693
0.066000,0.307000,0.000000,0.367000,0.499298,-0.000283,0.281115,0.499431,-0.000233,0.281279,0.192298,-0.000283,-0.085885,0.210606,0.001600,-0.001422,0.785050,0.785053,44.980217,180.000000,-0.000000,0.000000,179.887090,0.039173,-44.980107,0.112910,-0.039173,44.980107,-0.000259,0.000000,0.000115,0.000000,0.000000,0.000000,-0.015609,-0.004174,-0.029589
0.067000,0.307000,0.000000,0.367000,0.499296,-0.000286,0.281113,0.499431,-0.000233,0.281279,0.192296,-0.000286,-0.085887,0.210605,0.001603,-0.001426,0.785061,0.785064,44.980827,180.000000,-0.000000,0.000000,179.886842,0.039352,-44.980715,0.113158,-0.039352,44.980715,-0.000271,0.000000,0.000121,0.000000,0.000000,0.000000,0.021548,-0.020855,-0.035580
0.068000,0.307000,0.000000,0.367000,0.499294,-0.000287,0.281110,0.499431,-0.000233,0.281279,0.192294,-0.000287,-0.085890,0.210604,0.001614,-0.001429,0.785054,0.785057,44.980446,180.000000,-0.000000,0.000000,179.886197,0.039221,-44.980331,0.113803,-0.039221,44.980331,-0.000283,0.000000,0.000126,0.000000,0.000000,0.000000,0.021244,-0.020530,-0.035075
0.069000,0.307000,0.000000,0.367000,0.499290,-0.000285,0.281106,0.499431,-0.000233,0.281279,0.192290,-0.000285,-0.085894,0.210602,0.001623,-0.001437,0.785035,0.785038,44.979364,180.000000,-0.000000,0.000000,179.885594,0.039499,-44.979249,0.114406,-0.039499,44.979249,-0.000296,0.000000,0.000132,0.000000,0.000000,0.000000,-0.014394,0.014964,-0.030887
0.070000,0.307000,0.000000,0.367000,0.499287,-0.000286,0.281103,0.499430,-0.000233,0.281279,0.192287,-0.000286,-0.085897,0.210601,0.001628,-0.001443,0.785042,0.785045,44.979762,180.000000,-0.000000,0.000000,179.885177,0.039654,-44.979645,0.114823,-0.039654,44.979645,-0.000309,0.000000,0.000138,0.000000,0.000000,0.000000,0.019650,-0.017822,0.042868
0.071000,0.307000,0.000000,0.367000,0.499284,-0.000288,0.281100,0.499430,-0.000233,0.281280,0.192284,-0.000288,-0.085900,0.210599,0.001640,-0.001446,0.785036,0.785040,44.979452,180.000000,-0.000000,0.000000,179.884485,0.039565,-44.979336,0.115515,-0.039565,44.979336,-0.000323,0.000000,0.000144,0.000000,0.000000,0.000000,-0.006252,0.011371,0.104253
0.072000,0.307000,0.000000,0.367000,0.499283,-0.000288,0.281099,0.499430,-0.000233,0.281280,0.192283,-0.000288,-0.085901,0.210599,0.001646,-0.001448,0.785033,0.785036,44.979250,180.000000,-0.000000,0.000000,179.884169,0.039569,-44.979131,0.115831,-0.039569,44.979131,-0.000337,0.000000,0.000150,0.000000,0.000000,0.000000,-0.006931,0.001419,-0.016608
0.073000,0.307000,0.000000,0.367000,0.499280,-0.000288,0.281093,0.499429,-0.000233,0.281280,0.192280,-0.000288,-0.085907,0.210598,0.001654,-0.001456,0.785019,0.785022,44.978432,180.000000,-0.000000,0.000000,179.883558,0.039798,-44.978312,0.116442,-0.039798,44.978312,-0.000351,0.000000,0.000156,0.000000,0.000000,0.000000,-0.006823,0.001439,-0.016406
0.074000,0.307000,0.000000,0.367000,0.499278,-0.000290,0.281090,0.499429,-0.000233,0.281280,0.192278,-0.000290,-0.085910,0.210597,0.001661,-0.001461,0.785023,0.785026,44.978680,180.000000,-0.000000,0.000000,179.883136,0.039892,-44.978559,0.116864,-0.039892,44.978559,-0.000365,0.000000,0.000163,0.000000,0.000000,0.000000,0.009927,0.004363,0.065776
0.075000,0.307000,0.000000,0.367000,0.499273,-0.000290,0.281084,0.499428,-0.000233,0.281280,0.192273,-0.000290,-0.085916,0.210596,0.001670,-0.001472,0.785020,0.785023,44.978516,180.000000,-0.000000,0.000000,179.882401,0.040292,-44.978394,0.117599,-0.040292,44.978394,-0.000380,0.000000,0.000169,0.000000,0.000000,0.000000,0.057562,0.005355,0.018574
0.076000,0.307000,0.000000,0.367000,0.499273,-0.000292,0.281085,0.499428,-0.000233,0.281280,0.192273,-0.000292,-0.085915,0.210595,0.001671,-0.001469,0.785023,0.785026,44.978680,180.000000,-0.000000,0.000000,179.882409,0.040098,-44.978559,0.117591,-0.040098,44.978559,-0.000395,0.000000,0.000176,0.000000,0.000000,0.000000,0.031954,-0.009727,0.050844
0.077000,0.307000,0.000000,0.367000,0.499270,-0.000293,0.281082,0.499428,-0.000233,0.281281,0.192270,-0.000293,-0.085918,0.210594,0.001680,-0.001476,0.785015,0.785018,44.978203,180.000000,-0.000000,0.000000,179.881825,0.040285,-44.978081,0.118175,-0.040285,44.978081,-0.000411,0.000000,0.000183,0.000000,0.000000,0.000000,0.031556,-0.009578,0.050171
0.078000,0.307000,0.000000,0.367000,0.499266,-0.000293,0.281078,0.499427,-0.000233,0.281281,0.192266,-0.000293,-0.085922,0.210592,0.001684,-0.001482,0.785022,0.785026,44.978656,180.000000,-0.000000,0.000000,179.881482,0.040518,-44.978532,0.118518,-0.040518,44.978532,-0.000427,0.000001,0.000190,0.000000,0.000000,0.000000,-0.015811,-0.008884,-0.004487
0.079000,0.307000,0.000000,0.367000,0.499264,-0.000293,0.281075,0.499427,-0.000233,0.281281,0.192264,-0.000293,-0.085925,0.210592,0.001688,-0.001490,0.785020,0.785023,44.978529,180.000000,-0.000000,0.000000,179.881075,0.040837,-44.978404,0.118925,-0.040837,44.978404,-0.000443,0.000001,0.000197,0.000000,0.000000,0.000000,-0.015607,-0.008767,-0.004452
0.080000,0.307000,0.000000,0.367000,0.499262,-0.000290,0.281071,0.499426,-0.000233,0.281281,0.192262,-0.000290,-0.085929,0.210591,0.001694,-0.001496,0.785002,0.785006,44.977510,180.000000,-0.000000,0.000000,179.880676,0.040979,-44.977385,0.119324,-0.040979,44.977385,-0.000459,0.000001,0.000205,0.000000,0.000000,0.000000,0.003407,0.009010,-0.054249
0.081000,0.307000,0.000000,0.367000,0.499260,-0.000295,0.281068,0.499426,-0.000233,0.281281,0.192260,-0.000295,-0.085932,0.210590,0.001696,-0.001499,0.785014,0.785017,44.978162,180.000000,-0.000000,0.000000,179.880481,0.041099,-44.978037,0.119519,-0.041099,44.978037,-0.000476,0.000001,0.000212,0.000000,0.000000,0.000000,0.022962,-0.050781,-0.002624
0.082000,0.307000,0.000000,0.367000,0.499257,-0.000294,0.281065,0.499425,-0.000233,0.281282,0.192257,-0.000294,-0.085935,0.210589,0.001697,-0.001507,0.785022,0.785025,44.978617,180.000000,-0.000000,0.000000,179.880287,0.041483,-44.978491,0.119713,-0.041483,44.978491,-0.000493,0.000001,0.000220,0.000000,0.000000,0.000000,-0.018401,-0.017404,0.024340
0.083000,0.307000,0.000000,0.367000,0.499256,-0.000292,0.281065,0.499425,-0.000233,0.281282,0.192256,-0.000292,-0.085935,0.210588,0.001700,-0.001505,0.785010,0.785013,44.977920,180.000000,-0.000000,0.000000,179.880161,0.041354,-44.977793,0.119839,-0.041354,44.977793,-0.000511,0.000001,0.000228,0.000000,0.000000,0.000000,-0.018174,-0.017165,0.024053
0.084000,0.307000,0.000000,0.367000,0.499253,-0.000295,0.281062,0.499424,-0.000233,0.281282,0.192253,-0.000295,-0.085938,0.210586,0.001705,-0.001516,0.785007,0.785011,44.977795,180.000000,-0.000000,0.000000,179.879651,0.041781,-44.977668,0.120349,-0.041781,44.977668,-0.000529,0.000001,0.000236,0.000000,0.000000,0.000000,-0.001224,-0.013073,-0.070229
0.085000,0.307000,0.000000,0.367000,0.499250,-0.000294,0.281057,0.499424,-0.000233,0.281282,0.192250,-0.000294,-0.085943,0.210585,0.001710,-0.001524,0.785013,0.785017,44.978147,180.000000,-0.000000,0.000000,179.879235,0.042092,-44.978020,0.120765,-0.042092,44.978020,-0.000547,0.000001,0.000244,0.000000,0.000000,0.000000,-0.001209,-0.012936,-0.069434
0.086000,0.307000,0.000000,0.367000,0.499247,-0.000290,0.281054,0.499423,-0.000233,0.281283,0.192247,-0.000290,-0.085946,0.210584,0.001714,-0.001529,0.785004,0.785008,44.977636,180.000000,-0.000000,0.000000,179.878941,0.042263,-44.977508,0.121059,-0.042263,44.977508,-0.000566,0.000001,0.000252,0.000000,0.000000,0.000000,0.011513,-0.011687,0.009843
0.087000,0.307000,0.000000,0.367000,0.499246,-0.000292,0.281052,0.499423,-0.000233,0.281283,0.192246,-0.000292,-0.085948,0.210584,0.001716,-0.001535,0.785003,0.785006,44.977539,180.000000,-0.000000,0.000000,179.878717,0.042530,-44.977409,0.121283,-0.042530,44.977409,-0.000585,0.000001,0.000261,0.000000,0.000000,0.000000,-0.014070,0.005994,0.019654
0.088000,0.307000,0.000000,0.367000,0.499245,-0.000293,0.281051,0.499422,-0.000233,0.281283,0.192245,-0.000293,-0.085949,0.210583,0.001714,-0.001537,0.785008,0.785011,44.977820,180.000000,-0.000000,0.000000,179.878739,0.042686,-44.977692,0.121261,-0.042686,44.977692,-0.000604,0.000001,0.000269,0.000000,0.000000,0.000000,-0.037596,-0.002682,-0.029874
0.089000,0.307000,0.000000,0.367000,0.499241,-0.000294,0.281045,0.499421,-0.000233,0.281283,0.192241,-0.000294,-0.085955,0.210582,0.001721,-0.001547,0.785014,0.785017,44.978173,180.000000,-0.000000,0.000000,179.878168,0.043039,-44.978044,0.121832,-0.043039,44.978044,-0.000624,0.000001,0.000278,0.000000,0.000000,0.000000,0.007666,0.007086,-0.011033
0.090000,0.307000,0.000000,0.367000,0.499239,-0.000295,0.281047,0.499421,-0.000233,0.281284,0.192239,-0.000295,-0.085953,0.210580,0.001720,-0.001546,0.785011,0.785015,44.978031,180.000000,-0.000000,0.000000,179.878240,0.043017,-44.977899,0.121760,-0.043017,44.977899,-0.000644,0.000001,0.000287,0.000000,0.000000,0.000000,0.008478,-0.008675,-0.022208
0.091000,0.307000,0.000000,0.367000,0.499235,-0.000293,0.281042,0.499420,-0.000233,0.281284,0.192235,-0.000293,-0.085958,0.210578,0.001726,-0.001558,0.785008,0.785011,44.977823,180.000000,-0.000000,0.000000,179.877680,0.043496,-44.977692,0.122320,-0.043496,44.977692,-0.000665,0.000001,0.000296,0.000000,0.000000,0.000000,-0.007382,-0.018751,-0.028074
0.092000,0.307000,0.000000,0.367000,0.499234,-0.000294,0.281037,0.499419,-0.000233,0.281284,0.192234,-0.000294,-0.085963,0.210579,0.001731,-0.001566,0.785007,0.785011,44.977806,180.000000,-0.000000,0.000000,179.877228,0.043831,-44.977675,0.122772,-0.043831,44.977675,-0.000685,0.000001,0.000305,0.000000,0.000000,0.000000,-0.000655,-0.016859,-0.011561
0.093000,0.307000,0.000000,0.367000,0.499231,-0.000293,0.281036,0.499419,-0.000233,0.281285,0.192231,-0.000293,-0.085964,0.210577,0.001731,-0.001569,0.785010,0.785014,44.977972,180.000000,-0.000000,0.000000,179.877183,0.043957,-44.977841,0.122817,-0.043957,44.977841,-0.000707,0.000001,0.000315,0.000000,0.000000,0.000000,0.047617,-0.006661,-0.003348
0.094000,0.307000,0.000000,0.367000,0.499230,-0.000290,0.281035,0.499418,-0.000233,0.281285,0.192230,-0.000290,-0.085965,0.210577,0.001733,-0.001567,0.784992,0.784995,44.976918,180.000000,-0.000000,0.000000,179.877118,0.043821,-44.976786,0.122882,-0.043821,44.976786,-0.000728,0.000001,0.000324,0.000000,0.000000,0.000000,0.035671,-0.034059,-0.081580
0.095000,0.307000,0.000000,0.367000,0.499229,-0.000294,0.281035,0.499417,-0.000233,0.281285,0.192229,-0.000294,-0.085965,0.210576,0.001736,-0.001569,0.784999,0.785003,44.977356,180.000000,-0.000000,0.000000,179.876945,0.043855,-44.977223,0.123055,-0.043855,44.977223,-0.000750,0.000001,0.000334,0.000000,0.000000,0.000000,-0.006079,-0.016725,-0.042602
0.096000,0.307000,0.000000,0.367000,0.499226,-0.000295,0.281029,0.499416,-0.000233,0.281286,0.192226,-0.000295,-0.085971,0.210576,0.001743,-0.001581,0.785011,0.785015,44.978025,180.000000,-0.000000,0.000000,179.876301,0.044339,-44.977892,0.123699,-0.044339,44.977892,-0.000772,0.000001,0.000344,0.000000,0.000000,0.000000,-0.006016,-0.016581,-0.042197
0.097000,0.307000,0.000000,0.367000,0.499222,-0.000295,0.281023,0.499416,-0.000233,0.281286,0.192222,-0.000295,-0.085977,0.210574,0.001746,-0.001594,0.785012,0.785016,44.978100,180.000000,-0.000000,0.000000,179.875873,0.044967,-44.977965,0.124127,-0.044967,44.977965,-0.000795,0.000001,0.000354,0.000000,0.000000,0.000000,-0.013259,-0.037412,-0.009511
0.098000,0.307000,0.000000,0.367000,0.499219,-0.000292,0.281020,0.499415,-0.000233,0.281286,0.192219,-0.000292,-0.085980,0.210572,0.001747,-0.001602,0.784998,0.785002,44.977274,180.000000,-0.000000,0.000000,179.875663,0.045327,-44.977139,0.124337,-0.045327,44.977139,-0.000818,0.000001,0.000364,0.000000,0.000000,0.000000,0.017467,-0.036291,0.009660
0.099000,0.307000,0.000000,0.367000,0.499220,-0.000293,0.281022,0.499414,-0.000233,0.281287,0.192220,-0.000293,-0.085978,0.210572,0.001746,-0.001599,0.785002,0.785005,44.977481,180.000000,-0.000000,0.000000,179.875774,0.045186,-44.977346,0.124226,-0.045186,44.977346,-0.000841,0.000001,0.000375,0.000000,0.000000,0.000000,0.017126,-0.027064,-0.006898
0.100000,0.307000,0.000000,0.367000,0.499217,-0.000294,0.281020,0.499413,-0.000233,0.281287,0.192217,-0.000294,-0.085980,0.210571,0.001748,-0.001601,0.785010,0.785013,44.977942,180.000000,-0.000000,0.000000,179.875634,0.045282,-44.977805,0.124366,-0.045282,44.977805,-0.000865,0.000001,0.000385,0.000000,0.000000,0.000000,-0.009203,-0.010234,0.007041
0.101000,0.307000,0.000000,0.367000,0.499213,-0.000295,0.281013,0.499412,-0.000233,0.281287,0.192213,-0.000295,-0.085987,0.210570,0.001754,-0.001616,0.785008,0.785012,44.977860,180.000000,-0.000000,0.000000,179.875007,0.045927,-44.977723,0.124993,-0.045927,44.977723,-0.000889,0.000001,0.000396,0.000000,0.000000,0.000000,-0.038040,0.018359,-0.019449
0.102000,0.307000,0.000000,0.367000,0.499213,-0.000294,0.281013,0.499411,-0.000233,0.281288,0.192213,-0.000294,-0.085987,0.210570,0.001754,-0.001618,0.785000,0.785003,44.977378,180.000000,-0.000000,0.000000,179.874944,0.045991,-44.977240,0.125056,-0.045991,44.977240,-0.000913,0.000001,0.000407,0.000000,0.000000,0.000000,-0.008503,0.034697,0.025565
0.103000,0.307000,0.000000,0.367000,0.499211,-0.000294,0.281011,0.499410,-0.000233,0.281288,0.192211,-0.000294,-0.085989,0.210569,0.001757,-0.001619,0.785010,0.785014,44.977970,180.000000,-0.000000,0.000000,179.874785,0.046029,-44.977834,0.125215,-0.046029,44.977834,-0.000938,0.000001,0.000418,0.000000,0.000000,0.000000,-0.018925,0.005617,-0.015134
0.104000,0.307000,0.000000,0.367000,0.499208,-0.000293,0.281006,0.499409,-0.000233,0.281289,0.192208,-0.000293,-0.085994,0.210569,0.001764,-0.001630,0.784999,0.785003,44.977336,180.000000,-0.000000,0.000000,179.874161,0.046402,-44.977199,0.125839,-0.046402,44.977199,-0.000963,0.000001,0.000429,0.000000,0.000000,0.000000,-0.002270,0.029312,-0.053115
0.105000,0.307000,0.000000,0.367000,0.499207,-0.000293,0.281005,0.499408,-0.000233,0.281289,0.192207,-0.000293,-0.085995,0.210568,0.001762,-0.001631,0.785003,0.785006,44.977542,180.000000,-0.000000,0.000000,179.874268,0.046505,-44.977404,0.125732,-0.046505,44.977404,-0.000988,0.000001,0.000440,0.000000,0.000000,0.000000,0.006490,0.016710,-0.022663
0.106000,0.307000,0.000000,0.367000,0.499203,-0.000295,0.281001,0.499407,-0.000233,0.281290,0.192203,-0.000295,-0.085999,0.210566,0.001766,-0.001640,0.785004,0.785008,44.977656,180.000000,-0.000000,0.000000,179.873841,0.046900,-44.977518,0.126159,-0.046900,44.977518,-0.001014,0.000001,0.000452,0.000000,0.000000,0.000000,-0.007476,-0.015525,0.074425
0.107000,0.307000,0.000000,0.367000,0.499203,-0.000293,0.281003,0.499406,-0.000233,0.281290,0.192203,-0.000293,-0.085997,0.210565,0.001765,-0.001637,0.785006,0.785009,44.977728,180.000000,-0.000000,0.000000,179.874000,0.046784,-44.977588,0.126000,-0.046784,44.977588,-0.001040,0.000001,0.000463,0.000000,0.000000,0.000000,-0.008659,-0.025784,0.025548
0.108000,0.307000,0.000000,0.367000,0.499202,-0.000293,0.281002,0.499405,-0.000233,0.281291,0.192202,-0.000293,-0.085998,0.210564,0.001767,-0.001640,0.784996,0.785000,44.977192,180.000000,-0.000000,0.000000,179.873833,0.046894,-44.977052,0.126167,-0.046894,44.977052,-0.001067,0.000001,0.000475,0.000000,0.000000,0.000000,-0.003300,-0.004671,0.024404
0.109000,0.307000,0.000000,0.367000,0.499198,-0.000292,0.280998,0.499404,-0.000233,0.281291,0.192198,-0.000292,-0.086002,0.210563,0.001771,-0.001648,0.784994,0.784997,44.977032,180.000000,-0.000000,0.000000,179.873440,0.047199,-44.976892,0.126560,-0.047199,44.976892,-0.001093,0.000001,0.000487,0.000000,0.000000,0.000000,-0.003263,-0.004621,0.024162
0.110000,0.307000,0.000000,0.367000,0.499197,-0.000297,0.280992,0.499403,-0.000233,0.281291,0.192197,-0.000297,-0.086008,0.210563,0.001774,-0.001659,0.785010,0.785014,44.977962,180.000000,-0.000000,0.000000,179.873045,0.047710,-44.977822,0.126955,-0.047710,44.977822,-0.001121,0.000001,0.000499,0.000000,0.000000,0.000000,0.025719,0.023171,-0.026081
0.111000,0.307000,0.000000,0.367000,0.499195,-0.000296,0.280993,0.499402,-0.000233,0.281292,0.192195,-0.000296,-0.086007,0.210561,0.001776,-0.001658,0.785009,0.785013,44.977943,180.000000,-0.000000,0.000000,179.872969,0.047578,-44.977800,0.127031,-0.047578,44.977800,-0.001148,0.000001,0.000511,0.000000,0.000000,0.000000,0.010737,-0.002304,0.019019
0.112000,0.307000,0.000000,0.367000,0.499192,-0.000295,0.280989,0.499401,-0.000233,0.281293,0.192192,-0.000295,-0.086011,0.210561,0.001783,-0.001667,0.784993,0.784997,44.976994,180.000000,-0.000000,0.000000,179.872417,0.047907,-44.976851,0.127583,-0.047907,44.976851,-0.001176,0.000001,0.000524,0.000000,0.000000,0.000000,0.001978,-0.006712,-0.051551
0.113000,0.307000,0.000000,0.367000,0.499191,-0.000295,0.280988,0.499400,-0.000233,0.281293,0.192191,-0.000295,-0.086012,0.210560,0.001784,-0.001667,0.784998,0.785002,44.977293,180.000000,-0.000000,0.000000,179.872369,0.047924,-44.977151,0.127631,-0.047924,44.977151,-0.001204,0.000001,0.000536,0.000000,0.000000,0.000000,0.001958,-0.006666,-0.051100
0.114000,0.307000,0.000000,0.367000,0.499189,-0.000296,0.280987,0.499398,-0.000233,0.281294,0.192189,-0.000296,-0.086013,0.210558,0.001787,-0.001669,0.785000,0.785003,44.977381,180.000000,-0.000000,0.000000,179.872149,0.047924,-44.977238,0.127851,-0.047924,44.977238,-0.001233,0.000001,0.000549,0.000000,0.000000,0.000000,0.021204,0.030844,-0.015563
0.115000,0.307000,0.000000,0.367000,0.499188,-0.000297,0.280984,0.499397,-0.000233,0.281294,0.192188,-0.000297,-0.086016,0.210559,0.001789,-0.001674,0.785004,0.785008,44.977648,180.000000,-0.000000,0.000000,179.871970,0.048131,-44.977503,0.128030,-0.048131,44.977503,-0.001262,0.000002,0.000562,0.000000,0.000000,0.000000,0.030605,-0.008110,-0.002742
0.116000,0.307000,0.000000,0.367000,0.499185,-0.000297,0.280981,0.499396,-0.000233,0.281295,0.192185,-0.000297,-0.086019,0.210558,0.001790,-0.001681,0.784994,0.784998,44.977072,180.000000,-0.000000,0.000000,179.871765,0.048508,-44.976929,0.128235,-0.048508,44.976929,-0.001291,0.000002,0.000575,0.000000,0.000000,0.000000,0.019919,-0.014534,0.007891
0.117000,0.307000,0.000000,0.367000,0.499183,-0.000298,0.280977,0.499394,-0.000233,0.281295,0.192183,-0.000298,-0.086023,0.210557,0.001792,-0.001688,0.785003,0.785007,44.977580,180.000000,-0.000000,0.000000,179.871524,0.048817,-44.977436,0.128476,-0.048817,44.977436,-0.001321,0.000002,0.000588,0.000000,0.000000,0.000000,-0.006622,-0.002594,0.007912
0.118000,0.307000,0.000000,0.367000,0.499181,-0.000296,0.280976,0.499393,-0.000233,0.281296,0.192181,-0.000296,-0.086024,0.210556,0.001794,-0.001693,0.785004,0.785008,44.977649,180.000000,-0.000000,0.000000,179.871292,0.049035,-44.977503,0.128708,-0.049035,44.977503,-0.001351,0.000002,0.000602,0.000000,0.000000,0.000000,-0.035511,0.005905,-0.022834
0.119000,0.307000,0.000000,0.367000,0.499181,-0.000294,0.280975,0.499392,-0.000233,0.281297,0.192181,-0.000294,-0.086025,0.210556,0.001793,-0.001694,0.784997,0.785001,44.977258,180.000000,-0.000000,0.000000,179.871321,0.049102,-44.977115,0.128679,-0.049102,44.977115,-0.001381,0.000002,0.000615,0.000000,0.000000,0.000000,-0.005692,0.019569,0.020176
0.120000,0.307000,0.000000,0.367000,0.499179,-0.000298,0.280972,0.499390,-0.000233,0.281297,0.192179,-0.000298,-0.086028,0.210556,0.001797,-0.001700,0.785002,0.785006,44.977535,180.000000,-0.000000,0.000000,179.870990,0.049309,-44.977390,0.129010,-0.049309,44.977390,-0.001412,0.000002,0.000629,0.000000,0.000000,0.000000,0.007188,-0.010492,-0.063759
0.121000,0.307000,0.000000,0.367000,0.499175,-0.000296,0.280967,0.499389,-0.000233,0.281298,0.192175,-0.000296,-0.086033,0.210554,0.001801,-0.001710,0.785003,0.785007,44.977583,180.000000,-0.000000,0.000000,179.870557,0.049779,-44.977436,0.129443,-0.049779,44.977436,-0.001443,0.000002,0.000643,0.000000,0.000000,0.000000,0.007135,-0.010409,-0.063264
0.122000,0.307000,0.000000,0.367000,0.499173,-0.000296,0.280965,0.499387,-0.000233,0.281298,0.192173,-0.000296,-0.086035,0.210553,0.001802,-0.001715,0.785001,0.785005,44.977468,180.000000,-0.000000,0.000000,179.870403,0.050017,-44.977322,0.129597,-0.050017,44.977322,-0.001475,0.000002,0.000657,0.000000,0.000000,0.000000,0.004055,0.003640,0.025862
0.123000,0.307000,0.000000,0.367000,0.499172,-0.000295,0.280965,0.499386,-0.000233,0.281299,0.192172,-0.000295,-0.086035,0.210552,0.001804,-0.001719,0.784997,0.785001,44.977223,180.000000,-0.000000,0.000000,179.870199,0.050139,-44.977076,0.129801,-0.050139,44.977076,-0.001507,0.000002,0.000671,0.000000,0.000000,0.000000,0.017608,-0.018538,-0.025121
0.124000,0.307000,0.000000,0.367000,0.499171,-0.000296,0.280961,0.499384,-0.000233,0.281300,0.192171,-0.000296,-0.086039,0.210553,0.001809,-0.001723,0.784993,0.784997,44.977034,180.000000,-0.000000,0.000000,179.869888,0.050249,-44.976885,0.130112,-0.050249,44.976885,-0.001539,0.000002,0.000685,0.000000,0.000000,0.000000,0.022248,-0.016526,-0.085125
0.125000,0.307000,0.000000,0.367000,0.499168,-0.000299,0.280961,0.499383,-0.000233,0.281301,0.192168,-0.000299,-0.086039,0.210550,0.001808,-0.001727,0.785007,0.785011,44.977822,180.000000,-0.000000,0.000000,179.869838,0.050482,-44.977675,0.130162,-0.050482,44.977675,-0.001571,0.000002,0.000700,0.000000,0.000000,0.000000,0.001392,0.010447,-0.041819
0.126000,0.307000,0.000000,0.367000,0.499167,-0.000295,0.280960,0.499381,-0.000233,0.281301,0.192167,-0.000295,-0.086040,0.210550,0.001811,-0.001729,0.784994,0.784998,44.977072,180.000000,-0.000000,0.000000,179.869657,0.050497,-44.976921,0.130343,-0.050497,44.976921,-0.001604,0.000002,0.000715,0.000000,0.000000,0.000000,0.017500,0.002283,-0.004940
0.127000,0.307000,0.000000,0.367000,0.499165,-0.000294,0.280957,0.499380,-0.000233,0.281302,0.192165,-0.000294,-0.086043,0.210549,0.001813,-0.001735,0.784991,0.784995,44.976928,180.000000,-0.000000,0.000000,179.869429,0.050777,-44.976779,0.130571,-0.050777,44.976779,-0.001637,0.000002,0.000729,0.000000,0.000000,0.000000,-0.015022,0.002102,0.013193
0.128000,0.307000,0.000000,0.367000,0.499161,-0.000296,0.280953,0.499378,-0.000233,0.281303,0.192161,-0.000296,-0.086047,0.210547,0.001817,-0.001743,0.784997,0.785001,44.977241,180.000000,-0.000000,0.000000,179.869025,0.051119,-44.977090,0.130975,-0.051119,44.977090,-0.001671,0.000002,0.000744,0.000000,0.000000,0.000000,-0.018010,-0.006049,-0.013047
0.129000,0.307000,0.000000,0.367000,0.499161,-0.000293,0.280953,0.499376,-0.000233,0.281303,0.192161,-0.000293,-0.086047,0.210547,0.001815,-0.001743,0.784997,0.785001,44.977265,180.000000,-0.000000,0.000000,179.869134,0.051186,-44.977115,0.130866,-0.051186,44.977115,-0.001705,0.000002,0.000759,0.000000,0.000000,0.000000,0.016942,0.024274,0.003971
0.130000,0.307000,0.000000,0.367000,0.499160,-0.000293,0.280953,0.499374,-0.000233,0.281304,0.192160,-0.000293,-0.086047,0.210546,0.001815,-0.001746,0.784989,0.784993,44.976812,180.000000,-0.000000,0.000000,179.869089,0.051327,-44.976663,0.130911,-0.051327,44.976663,-0.001739,0.000002,0.000775,0.000000,0.000000,0.000000,0.004354,0.007096,0.000144
0.131000,0.307000,0.000000,0.367000,0.499159,-0.000297,0.280949,0.499373,-0.000233,0.281305,0.192159,-0.000297,-0.086051,0.210547,0.001819,-0.001751,0.785000,0.785004,44.977424,180.000000,-0.000000,0.000000,179.868759,0.051479,-44.977274,0.131241,-0.051479,44.977274,-0.001774,0.000002,0.000790,0.000000,0.000000,0.000000,0.004085,-0.012994,-0.010910
0.132000,0.307000,0.000000,0.367000,0.499157,-0.000295,0.280948,0.499371,-0.000233,0.281306,0.192157,-0.000295,-0.086052,0.210545,0.001823,-0.001752,0.784993,0.784997,44.976995,180.000000,-0.000000,0.000000,179.868529,0.051456,-44.976844,0.131471,-0.051456,44.976844,-0.001809,0.000002,0.000806,0.000000,0.000000,0.000000,-0.003061,-0.011548,0.035553
0.133000,0.307000,0.000000,0.367000,0.499154,-0.000297,0.280944,0.499369,-0.000233,0.281307,0.192154,-0.000297,-0.086056,0.210544,0.001825,-0.001761,0.785004,0.785008,44.977637,180.000000,-0.000000,0.000000,179.868238,0.051872,-44.977486,0.131762,-0.051872,44.977486,-0.001844,0.000002,0.000821,0.000000,0.000000,0.000000,-0.009064,0.023028,0.055281
0.134000,0.307000,0.000000,0.367000,0.499154,-0.000297,0.280946,0.499367,-0.000233,0.281308,0.192154,-0.000297,-0.086054,0.210544,0.001826,-0.001759,0.784989,0.784993,44.976785,180.000000,-0.000000,0.000000,179.868218,0.051768,-44.976634,0.131782,-0.051768,44.976634,-0.001880,0.000002,0.000837,0.000000,0.000000,0.000000,0.006414,-0.012890,-0.058981
0.135000,0.307000,0.000000,0.367000,0.499152,-0.000295,0.280941,0.499365,-0.000233,0.281308,0.192152,-0.000295,-0.086059,0.210544,0.001828,-0.001768,0.784994,0.784998,44.977064,180.000000,-0.000000,0.000000,179.867937,0.052152,-44.976912,0.132063,-0.052152,44.976912,-0.001916,0.000002,0.000853,0.000000,0.000000,0.000000,0.004390,0.016899,0.033970
0.136000,0.307000,0.000000,0.367000,0.499151,-0.000296,0.280940,0.499363,-0.000233,0.281309,0.192151,-0.000296,-0.086060,0.210543,0.001828,-0.001771,0.784996,0.785000,44.977190,180.000000,-0.000000,0.000000,179.867864,0.052333,-44.977037,0.132136,-0.052333,44.977037,-0.001952,0.000002,0.000870,0.000000,0.000000,0.000000,-0.029888,0.023604,-0.023931
0.137000,0.307000,0.000000,0.367000,0.499150,-0.000292,0.280938,0.499361,-0.000233,0.281310,0.192150,-0.000292,-0.086062,0.210543,0.001832,-0.001773,0.784990,0.784994,44.976855,180.000000,-0.000000,0.000000,179.867645,0.052339,-44.976702,0.132355,-0.052339,44.976702,-0.001989,0.000002,0.000886,0.000000,0.000000,0.000000,-0.009033,0.021225,0.030381
0.138000,0.307000,0.000000,0.367000,0.499146,-0.000295,0.280933,0.499359,-0.000233,0.281311,0.192146,-0.000295,-0.086067,0.210542,0.001836,-0.001782,0.784985,0.784990,44.976589,180.000000,-0.000000,0.000000,179.867205,0.052723,-44.976434,0.132795,-0.052723,44.976434,-0.002026,0.000002,0.000902,0.000000,0.000000,0.000000,-0.006848,0.016476,-0.055036
0.139000,0.307000,0.000000,0.367000,0.499145,-0.000297,0.280933,0.499357,-0.000233,0.281312,0.192145,-0.000297,-0.086067,0.210541,0.001836,-0.001784,0.784997,0.785001,44.977249,180.000000,-0.000000,0.000000,179.867179,0.052799,-44.977095,0.132821,-0.052799,44.977095,-0.002063,0.000002,0.000919,0.000000,0.000000,0.000000,0.015405,-0.008341,-0.079419
0.140000,0.307000,0.000000,0.367000,0.499145,-0.000295,0.280931,0.499355,-0.000233,0.281313,0.192145,-0.000295,-0.086069,0.210541,0.001837,-0.001788,0.784995,0.784999,44.977158,180.000000,-0.000000,0.000000,179.867034,0.052978,-44.977004,0.132966,-0.052978,44.977004,-0.002101,0.000003,0.000936,0.000000,0.000000,0.000000,0.038649,-0.011111,-0.006209
0.141000,0.307000,0.000000,0.367000,0.499142,-0.000295,0.280929,0.499353,-0.000233,0.281314,0.192142,-0.000295,-0.086071,0.210540,0.001843,-0.001793,0.784990,0.784994,44.976832,180.000000,-0.000000,0.000000,179.866606,0.053142,-44.976677,0.133394,-0.053142,44.976677,-0.002139,0.000003,0.000953,0.000000,0.000000,0.000000,-0.014331,0.014785,-0.011336
0.142000,0.307000,0.000000,0.367000,0.499142,-0.000300,0.280929,0.499351,-0.000233,0.281315,0.192142,-0.000300,-0.086071,0.210539,0.001840,-0.001792,0.784992,0.784997,44.976988,180.000000,-0.000000,0.000000,179.866795,0.053147,-44.976832,0.133205,-0.053147,44.976832,-0.002177,0.000003,0.000970,0.000000,0.000000,0.000000,-0.024104,0.062631,0.080228
0.143000,0.307000,0.000000,0.367000,0.499142,-0.000296,0.280929,0.499349,-0.000233,0.281316,0.192142,-0.000296,-0.086071,0.210539,0.001841,-0.001793,0.784989,0.784993,44.976790,180.000000,-0.000000,0.000000,179.866751,0.053194,-44.976634,0.133249,-0.053194,44.976634,-0.002216,0.000003,0.000987,0.000000,0.000000,0.000000,-0.026685,0.005230,0.079930
0.144000,0.307000,0.000000,0.367000,0.499139,-0.000297,0.280924,0.499346,-0.000233,0.281317,0.192139,-0.000297,-0.086076,0.210539,0.001843,-0.001803,0.784999,0.785003,44.977369,180.000000,-0.000000,0.000000,179.866392,0.053664,-44.977214,0.133608,-0.053664,44.977214,-0.002255,0.000003,0.001005,0.000000,0.000000,0.000000,0.015390,0.002960,-0.000708
0.145000,0.307000,0.000000,0.367000,0.499139,-0.000297,0.280927,0.499344,-0.000233,0.281318,0.192139,-0.000297,-0.086073,0.210538,0.001844,-0.001797,0.784994,0.784998,44.977078,180.000000,-0.000000,0.000000,179.866498,0.053313,-44.976921,0.133502,-0.053313,44.976921,-0.002294,0.000003,0.001022,0.000000,0.000000,0.000000,0.015285,0.002954,-0.000687
0.146000,0.307000,0.000000,0.367000,0.499137,-0.000294,0.280923,0.499342,-0.000233,0.281319,0.192137,-0.000294,-0.086077,0.210537,0.001846,-0.001805,0.784992,0.784996,44.976950,180.000000,-0.000000,0.000000,179.866247,0.053683,-44.976793,0.133753,-0.053683,44.976793,-0.002334,0.000003,0.001040,0.000000,0.000000,0.000000,0.031690,-0.027088,0.041335
0.147000,0.307000,0.000000,0.367000,0.499134,-0.000298,0.280919,0.499339,-0.000233,0.281320,0.192134,-0.000298,-0.086081,0.210536,0.001851,-0.001811,0.784997,0.785001,44.977265,180.000000,-0.000000,0.000000,179.865847,0.053898,-44.977107,0.134153,-0.053898,44.977107,-0.002374,0.000003,0.001058,0.000000,0.000000,0.000000,0.025427,0.015761,-0.028879
0.148000,0.307000,0.000000,0.367000,0.499135,-0.000296,0.280920,0.499337,-0.000233,0.281321,0.192135,-0.000296,-0.086080,0.210537,0.001849,-0.001808,0.784995,0.784999,44.977132,180.000000,-0.000000,0.000000,179.865974,0.053803,-44.976977,0.134026,-0.053803,44.976977,-0.002415,0.000003,0.001076,0.000000,0.000000,0.000000,-0.029909,-0.008045,0.041148
0.149000,0.307000,0.000000,0.367000,0.499132,-0.000297,0.280917,0.499334,-0.000233,0.281322,0.192132,-0.000297,-0.086083,0.210535,0.001850,-0.001817,0.784994,0.784998,44.977095,180.000000,-0.000000,0.000000,179.865757,0.054232,-44.976938,0.134243,-0.054232,44.976938,-0.002455,0.000003,0.001094,0.000000,0.000000,0.000000,-0.029704,-0.007991,0.040852
0.150000,0.307000,0.000000,0.367000,0.499131,-0.000295,0.280915,0.499332,-0.000233,0.281323,0.192131,-0.000295,-0.086085,0.210535,0.001851,-0.001820,0.784992,0.784997,44.976990,180.000000,-0.000000,0.000000,179.865651,0.054354,-44.976832,0.134349,-0.054354,44.976832,-0.002497,0.000003,0.001112,0.000000,0.000000,0.000000,-0.007670,0.013862,0.017899
0.151000,0.307000,0.000000,0.367000,0.499130,-0.000298,0.280914,0.499329,-0.000233,0.281324,0.192130,-0.000298,-0.086086,0.210535,0.001857,-0.001822,0.784994,0.784998,44.977068,180.000000,-0.000000,0.000000,179.865307,0.054335,-44.976909,0.134693,-0.054335,44.976909,-0.002538,0.000003,0.001131,0.000000,0.000000,0.000000,-0.039701,0.010268,0.007358
0.152000,0.307000,0.000000,0.367000,0.499128,-0.000297,0.280912,0.499327,-0.000233,0.281325,0.192128,-0.000297,-0.086088,0.210534,0.001857,-0.001826,0.784992,0.784996,44.976964,180.000000,-0.000000,0.000000,179.865202,0.054547,-44.976805,0.134798,-0.054547,44.976805,-0.002580,0.000003,0.001149,0.000000,0.000000,0.000000,-0.039438,0.010204,0.007300
0.153000,0.307000,0.000000,0.367000,0.499128,-0.000298,0.280912,0.499324,-0.000233,0.281327,0.192128,-0.000298,-0.086088,0.210533,0.001858,-0.001826,0.784995,0.785000,44.977170,180.000000,-0.000000,0.000000,179.865160,0.054514,-44.977011,0.134840,-0.054514,44.977011,-0.002622,0.000003,0.001168,0.000000,0.000000,0.000000,-0.021265,0.034844,0.019290
0.154000,0.307000,0.000000,0.367000,0.499124,-0.000295,0.280909,0.499321,-0.000233,0.281328,0.192124,-0.000295,-0.086091,0.210532,0.001861,-0.001834,0.784984,0.784989,44.976542,180.000000,-0.000000,0.000000,179.864814,0.054841,-44.976383,0.135186,-0.054841,44.976383,-0.002664,0.000003,0.001187,0.000000,0.000000,0.000000,0.000409,0.013327,0.001571
0.155000,0.307000,0.000000,0.367000,0.499123,-0.000297,0.280907,0.499319,-0.000233,0.281329,0.192123,-0.000297,-0.086093,0.210532,0.001861,-0.001837,0.784993,0.784998,44.977059,180.000000,-0.000000,0.000000,179.864729,0.055036,-44.976900,0.135271,-0.055036,44.976900,-0.002707,0.000003,0.001206,0.000000,0.000000,0.000000,0.015376,0.006220,-0.069080
0.156000,0.307000,0.000000,0.367000,0.499122,-0.000297,0.280906,0.499316,-0.000233,0.281330,0.192122,-0.000297,-0.086094,0.210531,0.001863,-0.001840,0.784991,0.784996,44.976930,180.000000,-0.000000,0.000000,179.864591,0.055124,-44.976769,0.135409,-0.055124,44.976769,-0.002750,0.000003,0.001225,0.000000,0.000000,0.000000,0.013008,0.014464,0.000487
0.157000,0.307000,0.000000,0.367000,0.499121,-0.000298,0.280902,0.499313,-0.000232,0.281332,0.192121,-0.000298,-0.086098,0.210531,0.001864,-0.001848,0.784998,0.785003,44.977352,180.000000,-0.000000,0.000000,179.864363,0.055532,-44.977192,0.135637,-0.055532,44.977192,-0.002794,0.000003,0.001244,0.000000,0.000000,0.000000,0.012926,0.014352,0.000463
0.158000,0.307000,0.000000,0.367000,0.499118,-0.000295,0.280900,0.499310,-0.000232,0.281333,0.192118,-0.000295,-0.086100,0.210530,0.001868,-0.001852,0.784988,0.784993,44.976761,180.000000,-0.000000,0.000000,179.864052,0.055650,-44.976600,0.135948,-0.055650,44.976600,-0.002837,0.000003,0.001264,0.000000,0.000000,0.000000,-0.000273,-0.021278,-0.026062
0.159000,0.307000,0.000000,0.367000,0.499118,-0.000296,0.280899,0.499308,-0.000232,0.281334,0.192118,-0.000296,-0.086101,0.210530,0.001870,-0.001852,0.784991,0.784995,44.976914,180.000000,-0.000000,0.000000,179.863978,0.055633,-44.976752,0.136022,-0.055633,44.976752,-0.002881,0.000003,0.001284,0.000000,0.000000,0.000000,-0.012015,-0.009222,0.061673
0.160000,0.307000,0.000000,0.367000,0.499116,-0.000296,0.280898,0.499305,-0.000232,0.281335,0.192116,-0.000296,-0.086102,0.210528,0.001870,-0.001857,0.784990,0.784995,44.976885,180.000000,-0.000000,0.000000,179.863880,0.055883,-44.976723,0.136120,-0.055883,44.976723,-0.002926,0.000004,0.001303,0.000000,0.000000,0.000000,0.001759,0.002456,0.053756
0.161000,0.307000,0.000000,0.367000,0.499114,-0.000296,0.280896,0.499302,-0.000232,0.281337,0.192114,-0.000296,-0.086104,0.210528,0.001873,-0.001860,0.784989,0.784993,44.976804,180.000000,-0.000000,0.000000,179.863650,0.055962,-44.976641,0.136350,-0.055962,44.976641,-0.002971,0.000004,0.001323,0.000000,0.000000,0.000000,0.001751,0.002446,0.053416
0.162000,0.307000,0.000000,0.367000,0.499114,-0.000294,0.280894,0.499299,-0.000232,0.281338,0.192114,-0.000294,-0.086106,0.210528,0.001873,-0.001864,0.784991,0.784995,44.976910,180.000000,-0.000000,0.000000,179.863563,0.056172,-44.976748,0.136437,-0.056172,44.976748,-0.003016,0.000004,0.001343,0.000000,0.000000,0.000000,-0.006668,-0.005160,0.003420
0.163000,0.307000,0.000000,0.367000,0.499115,-0.000298,0.280896,0.499296,-0.000232,0.281339,0.192115,-0.000298,-0.086104,0.210528,0.001872,-0.001860,0.784991,0.784996,44.976947,180.000000,-0.000000,0.000000,179.863671,0.055974,-44.976786,0.136329,-0.055974,44.976786,-0.003061,0.000004,0.001364,0.000000,0.000000,0.000000,-0.019279,-0.002253,-0.013515
0.164000,0.307000,0.000000,0.367000,0.499112,-0.000298,0.280892,0.499292,-0.000232,0.281341,0.192112,-0.000298,-0.086108,0.210527,0.001875,-0.001867,0.784988,0.784993,44.976760,180.000000,-0.000000,0.000000,179.863406,0.056308,-44.976598,0.136594,-0.056308,44.976598,-0.003107,0.000004,0.001384,0.000000,0.000000,0.000000,-0.019156,-0.002231,-0.013452
0.165000,0.307000,0.000000,0.367000,0.499111,-0.000297,0.280891,0.499289,-0.000232,0.281342,0.192111,-0.000297,-0.086109,0.210526,0.001876,-0.001871,0.784987,0.784991,44.976689,180.000000,-0.000000,0.000000,179.863284,0.056466,-44.976525,0.136716,-0.056466,44.976525,-0.003153,0.000004,0.001404,0.000000,0.000000,0.000000,-0.009434,-0.010947,-0.018668
0.166000,0.307000,0.000000,0.367000,0.499110,-0.000297,0.280890,0.499286,-0.000232,0.281344,0.192110,-0.000297,-0.086110,0.210526,0.001877,-0.001872,0.784989,0.784994,44.976834,180.000000,-0.000000,0.000000,179.863213,0.056473,-44.976670,0.136787,-0.056473,44.976670,-0.003199,0.000004,0.001425,0.000000,0.000000,0.000000,0.008874,0.011458,-0.028087
0.167000,0.307000,0.000000,0.367000,0.499109,-0.000295,0.280890,0.499283,-0.000232,0.281345,0.192109,-0.000295,-0.086110,0.210525,0.001874,-0.001875,0.784993,0.784997,44.977022,180.000000,-0.000000,0.000000,179.863273,0.056697,-44.976859,0.136727,-0.056697,44.976859,-0.003246,0.000004,0.001446,0.000000,0.000000,0.000000,-0.011742,-0.007101,-0.018625
0.168000,0.307000,0.000000,0.367000,0.499107,-0.000296,0.280888,0.499280,-0.000232,0.281347,0.192107,-0.000296,-0.086112,0.210524,0.001879,-0.001878,0.784986,0.784990,44.976624,180.000000,-0.000000,0.000000,179.862984,0.056753,-44.976460,0.137016,-0.056753,44.976460,-0.003293,0.000004,0.001467,0.000000,0.000000,0.000000,-0.011666,-0.007039,-0.018524
