t,target_x,target_y,target_z,actual_x,actual_y,actual_z,inner_x,inner_y,inner_z,position_error_x,position_error_y,position_error_z,position_error_norm,orientation_error_x,orientation_error_y,orientation_error_z,orientation_error_norm_rad,orientation_error_norm_deg,target_roll_deg,target_pitch_deg,target_yaw_deg,actual_roll_deg,actual_pitch_deg,actual_yaw_deg,error_roll_deg,error_pitch_deg,error_yaw_deg,inner_vx,inner_vy,inner_vz,filtered_fx,filtered_fy,filtered_fz,masked_fx,masked_fy,masked_fz
0.000000,0.307000,0.000000,0.367000,0.499447,-0.000118,0.281298,0.499447,-0.000118,0.281298,0.192447,-0.000118,-0.085702,0.210667,0.001197,-0.001131,0.785024,0.785026,44.978682,180.000000,-0.000000,0.000000,179.914081,0.032791,-44.978617,0.085919,-0.032791,44.978617,0.000000,0.000000,0.000000,0.000000,0.000000,0.000000,0.000000,0.000000,0.000000
0.001000,0.307000,0.000000,0.367000,0.499446,-0.000119,0.281297,0.499447,-0.000118,0.281298,0.192446,-0.000119,-0.085703,0.210667,0.001201,-0.001135,0.785022,0.785024,44.978570,180.000000,-0.000000,0.000000,179.913799,0.032914,-44.978506,0.086201,-0.032914,44.978506,0.000000,0.000000,0.000000,0.000000,0.000000,0.000000,0.007008,-0.004888,-0.017001
0.002000,0.307000,0.000000,0.367000,0.499445,-0.000119,0.281296,0.499447,-0.000118,0.281298,0.192445,-0.000119,-0.085704,0.210666,0.001204,-0.001138,0.785019,0.785021,44.978378,180.000000,-0.000000,0.000000,179.913576,0.032978,-44.978312,0.086424,-0.032978,44.978312,-0.000000,0.000000,0.000000,0.000000,0.000000,0.000000,-0.014718,-0.041219,-0.010631
0.003000,0.307000,0.000000,0.367000,0.499446,-0.000120,0.281296,0.499447,-0.000118,0.281298,0.192446,-0.000120,-0.085704,0.210667,0.001202,-0.001139,0.785029,0.785031,44.978967,180.000000,-0.000000,0.000000,179.913671,0.033116,-44.978902,0.086329,-0.033116,44.978902,-0.000000,0.000000,0.000000,0.000000,0.000000,0.000000,-0.013705,0.000182,0.043844
0.004000,0.307000,0.000000,0.367000,0.499446,-0.000117,0.281298,0.499447,-0.000118,0.281298,0.192446,-0.000117,-0.085702,0.210666,0.001201,-0.001135,0.785013,0.785014,44.978016,180.000000,-0.000000,0.000000,179.913782,0.032889,-44.977950,0.086218,-0.032889,44.977950,-0.000000,0.000000,0.000000,0.000000,0.000000,0.000000,0.014609,-0.010139,0.013493
0.005000,0.307000,0.000000,0.367000,0.499447,-0.000118,0.281298,0.499447,-0.000118,0.281298,0.192447,-0.000118,-0.085702,0.210667,0.001198,-0.001136,0.785024,0.785026,44.978681,180.000000,-0.000000,0.000000,179.913904,0.033029,-44.978617,0.086096,-0.033029,44.978617,-0.000000,0.000000,0.000000,0.000000,0.000000,0.000000,-0.002705,-0.034784,-0.017893
0.006000,0.307000,0.000000,0.367000,0.499446,-0.000118,0.281298,0.499447,-0.000118,0.281298,0.192446,-0.000118,-0.085702,0.210667,0.001193,-0.001137,0.785021,0.785022,44.978468,180.000000,-0.000000,0.000000,179.914162,0.033183,-44.978404,0.085838,-0.033183,44.978404,-0.000000,0.000000,0.000000,0.000000,0.000000,0.000000,0.006158,-0.000775,0.018514
0.007000,0.307000,0.000000,0.367000,0.499443,-0.000117,0.281294,0.499447,-0.000118,0.281298,0.192443,-0.000117,-0.085706,0.210666,0.001198,-0.001146,0.785021,0.785023,44.978506,180.000000,-0.000000,0.000000,179.913740,0.033535,-44.978440,0.086260,-0.033535,44.978440,-0.000000,0.000000,0.000000,0.000000,0.000000,0.000000,0.002058,0.020201,0.008422
0.008000,0.307000,0.000000,0.367000,0.499442,-0.000119,0.281294,0.499447,-0.000118,0.281298,0.192442,-0.000119,-0.085706,0.210665,0.001199,-0.001146,0.785020,0.785022,44.978455,180.000000,-0.000000,0.000000,179.913666,0.033536,-44.978390,0.086334,-0.033536,44.978390,-0.000000,0.000000,0.000000,0.000000,0.000000,0.000000,-0.039164,0.000845,-0.033035
0.009000,0.307000,0.000000,0.367000,0.499441,-0.000117,0.281291,0.499447,-0.000118,0.281298,0.192441,-0.000117,-0.085709,0.210665,0.001208,-0.001148,0.785016,0.785018,44.978214,180.000000,-0.000000,0.000000,179.913160,0.033414,-44.978148,0.086840,-0.033414,44.978148,-0.000000,0.000000,0.000000,0.000000,0.000000,0.000000,-0.020327,-0.000408,-0.002763
0.010000,0.307000,0.000000,0.367000,0.499440,-0.000118,0.281291,0.499447,-0.000118,0.281298,0.192440,-0.000118,-0.085709,0.210663,0.001212,-0.001148,0.785006,0.785007,44.977614,180.000000,-0.000000,0.000000,179.912954,0.033363,-44.977549,0.087046,-0.033363,44.977549,-0.000000,0.000000,0.000000,0.000000,0.000000,0.000000,-0.022865,0.005997,-0.004457
0.011000,0.307000,0.000000,0.367000,0.499438,-0.000118,0.281288,0.499447,-0.000118,0.281298,0.192438,-0.000118,-0.085712,0.210663,0.001216,-0.001152,0.785007,0.785009,44.977719,180.000000,-0.000000,0.000000,179.912671,0.033475,-44.977651,0.087329,-0.033475,44.977651,-0.000000,0.000000,0.000000,0.000000,0.000000,0.000000,0.000468,0.055862,-0.019746
0.012000,0.307000,0.000000,0.367000,0.499437,-0.000119,0.281288,0.499447,-0.000118,0.281298,0.192437,-0.000119,-0.085712,0.210662,0.001218,-0.001152,0.785006,0.785008,44.977647,180.000000,-0.000000,0.000000,179.912549,0.033426,-44.977581,0.087451,-0.033426,44.977581,-0.000000,0.000000,0.000000,0.000000,0.000000,0.000000,-0.006044,-0.005114,-0.030155
0.013000,0.307000,0.000000,0.367000,0.499437,-0.000121,0.281286,0.499447,-0.000118,0.281298,0.192437,-0.000121,-0.085714,0.210663,0.001219,-0.001155,0.785005,0.785007,44.977565,180.000000,-0.000000,0.000000,179.912436,0.033545,-44.977499,0.087564,-0.033545,44.977499,-0.000000,0.000000,0.000000,0.000000,0.000000,0.000000,-0.001669,-0.016914,-0.009591
0.014000,0.307000,0.000000,0.367000,0.499437,-0.000118,0.281285,0.499447,-0.000118,0.281298,0.192437,-0.000118,-0.085715,0.210663,0.001220,-0.001155,0.785005,0.785007,44.977572,180.000000,-0.000000,0.000000,179.912413,0.033533,-44.977506,0.087587,-0.033533,44.977506,-0.000001,0.000000,0.000000,0.000000,0.000000,0.000000,0.010735,-0.029314,-0.012515
0.015000,0.307000,0.000000,0.367000,0.499437,-0.000119,0.281287,0.499447,-0.000118,0.281298,0.192437,-0.000119,-0.085713,0.210663,0.001219,-0.001153,0.784998,0.785000,44.977184,180.000000,-0.000000,0.000000,179.912518,0.033437,-44.977117,0.087482,-0.033437,44.977117,-0.000001,0.000000,0.000000,0.000000,0.000000,0.000000,0.010809,-0.040958,0.010315
0.016000,0.307000,0.000000,0.367000,0.499437,-0.000118,0.281286,0.499447,-0.000118,0.281298,0.192437,-0.000118,-0.085714,0.210663,0.001222,-0.001153,0.784999,0.785001,44.977248,180.000000,-0.000000,0.000000,179.912350,0.033408,-44.977182,0.087650,-0.033408,44.977182,-0.000001,0.000000,0.000000,0.000000,0.000000,0.000000,0.017804,0.002561,-0.011932
0.017000,0.307000,0.000000,0.367000,0.499435,-0.000122,0.281285,0.499447,-0.000118,0.281298,0.192435,-0.000122,-0.085715,0.210661,0.001227,-0.001156,0.785002,0.785004,44.977395,180.000000,-0.000000,0.000000,179.912013,0.033462,-44.977327,0.087987,-0.033462,44.977327,-0.000001,0.000000,0.000001,0.000000,0.000000,0.000000,-0.002627,0.004068,0.026315
0.018000,0.307000,0.000000,0.367000,0.499431,-0.000120,0.281281,0.499447,-0.000118,0.281298,0.192431,-0.000120,-0.085719,0.210659,0.001235,-0.001164,0.784988,0.784990,44.976625,180.000000,-0.000000,0.000000,179.911430,0.033674,-44.976557,0.088570,-0.033674,44.976557,-0.000002,0.000000,0.000001,0.000000,0.000000,0.000000,-0.011051,0.026163,0.002168
0.019000,0.307000,0.000000,0.367000,0.499431,-0.000122,0.281280,0.499447,-0.000118,0.281298,0.192431,-0.000122,-0.085720,0.210660,0.001238,-0.001165,0.784986,0.784988,44.976489,180.000000,-0.000000,0.000000,179.911241,0.033631,-44.976419,0.088759,-0.033631,44.976419,-0.000002,0.000000,0.000001,0.000000,0.000000,0.000000,-0.009516,0.021819,-0.081789
0.020000,0.307000,0.000000,0.367000,0.499430,-0.000123,0.281282,0.499447,-0.000118,0.281298,0.192430,-0.000123,-0.085718,0.210658,0.001238,-0.001162,0.784990,0.784992,44.976721,180.000000,-0.000000,0.000000,179.911303,0.033532,-44.976651,0.088697,-0.033532,44.976651,-0.000002,0.000000,0.000001,0.000000,0.000000,0.000000,-0.045229,0.019983,-0.031281
0.021000,0.307000,0.000000,0.367000,0.499427,-0.000122,0.281277,0.499447,-0.000118,0.281298,0.192427,-0.000122,-0.085723,0.210657,0.001245,-0.001170,0.784984,0.784986,44.976385,180.000000,-0.000000,0.000000,179.910795,0.033799,-44.976315,0.089205,-0.033799,44.976315,-0.000003,0.000000,0.000001,0.000000,0.000000,0.000000,-0.006824,0.003481,0.043995
0.022000,0.307000,0.000000,0.367000,0.499424,-0.000124,0.281272,0.499447,-0.000118,0.281298,0.192424,-0.000124,-0.085728,0.210657,0.001253,-0.001179,0.784986,0.784988,44.976513,180.000000,-0.000000,0.000000,179.910195,0.034089,-44.976441,0.089805,-0.034089,44.976441,-0.000003,0.000000,0.000002,0.000000,0.000000,0.000000,-0.008617,0.014307,0.007778
0.023000,0.307000,0.000000,0.367000,0.499424,-0.000124,0.281274,0.499447,-0.000118,0.281298,0.192424,-0.000124,-0.085726,0.210656,0.001254,-0.001176,0.784983,0.784985,44.976336,180.000000,-0.000000,0.000000,179.910180,0.033907,-44.976267,0.089820,-0.033907,44.976267,-0.000004,0.000000,0.000002,0.000000,0.000000,0.000000,-0.021614,-0.012763,-0.025622
0.024000,0.307000,0.000000,0.367000,0.499423,-0.000122,0.281271,0.499447,-0.000118,0.281298,0.192423,-0.000122,-0.085729,0.210656,0.001257,-0.001181,0.784978,0.784980,44.976018,180.000000,-0.000000,0.000000,179.909920,0.034091,-44.975948,0.090080,-0.034091,44.975948,-0.000005,0.000000,0.000002,0.000000,0.000000,0.000000,-0.024408,-0.000381,-0.044784
0.025000,0.307000,0.000000,0.367000,0.499418,-0.000122,0.281267,0.499447,-0.000118,0.281298,0.192418,-0.000122,-0.085733,0.210653,0.001264,-0.001190,0.784978,0.784980,44.976039,180.000000,-0.000000,0.000000,179.909387,0.034386,-44.975968,0.090613,-0.034386,44.975968,-0.000006,0.000000,0.000003,0.000000,0.000000,0.000000,0.000394,-0.033927,-0.055535
0.026000,0.307000,0.000000,0.367000,0.499416,-0.000121,0.281266,0.499447,-0.000118,0.281298,0.192416,-0.000121,-0.085734,0.210652,0.001268,-0.001193,0.784963,0.784965,44.975166,180.000000,-0.000000,0.000000,179.909078,0.034484,-44.975093,0.090922,-0.034484,44.975093,-0.000007,0.000000,0.000003,0.000000,0.000000,0.000000,-0.034733,0.013436,0.006262
0.027000,0.307000,0.000000,0.367000,0.499416,-0.000127,0.281266,0.499447,-0.000118,0.281298,0.192416,-0.000127,-0.085734,0.210652,0.001271,-0.001193,0.784976,0.784978,44.975925,180.000000,-0.000000,0.000000,179.908966,0.034426,-44.975852,0.091034,-0.034426,44.975852,-0.000008,0.000000,0.000003,0.000000,0.000000,0.000000,-0.004055,0.020266,-0.038448
0.028000,0.307000,0.000000,0.367000,0.499413,-0.000125,0.281260,0.499447,-0.000118,0.281298,0.192413,-0.000125,-0.085740,0.210652,0.001276,-0.001203,0.784973,0.784974,44.975724,180.000000,-0.000000,0.000000,179.908470,0.034789,-44.975651,0.091530,-0.034789,44.975651,-0.000009,0.000000,0.000004,0.000000,0.000000,0.000000,0.002246,-0.019874,-0.030145
0.029000,0.307000,0.000000,0.367000,0.499412,-0.000126,0.281259,0.499447,-0.000118,0.281298,0.192412,-0.000126,-0.085741,0.210651,0.001279,-0.001204,0.784969,0.784971,44.975544,180.000000,-0.000000,0.000000,179.908274,0.034798,-44.975470,0.091726,-0.034798,44.975470,-0.000010,0.000000,0.000004,0.000000,0.000000,0.000000,0.021389,0.014607,-0.016192
0.030000,0.307000,0.000000,0.367000,0.499411,-0.000125,0.281257,0.499447,-0.000118,0.281298,0.192411,-0.000125,-0.085743,0.210651,0.001284,-0.001209,0.784969,0.784971,44.975522,180.000000,-0.000000,0.000000,179.907935,0.034957,-44.975446,0.092065,-0.034957,44.975446,-0.000011,0.000000,0.000005,0.000000,0.000000,0.000000,-0.013599,-0.005538,-0.027046
0.031000,0.307000,0.000000,0.367000,0.499407,-0.000126,0.281256,0.499447,-0.000118,0.281298,0.192407,-0.000126,-0.085744,0.210648,0.001289,-0.001213,0.784969,0.784971,44.975502,180.000000,-0.000000,0.000000,179.907607,0.035027,-44.975427,0.092393,-0.035027,44.975427,-0.000013,0.000000,0.000006,0.000000,0.000000,0.000000,0.047728,0.004958,-0.019032
0.032000,0.307000,0.000000,0.367000,0.499408,-0.000130,0.281256,0.499447,-0.000118,0.281298,0.192408,-0.000130,-0.085744,0.210649,0.001292,-0.001209,0.784969,0.784971,44.975520,180.000000,-0.000000,0.000000,179.907528,0.034791,-44.975446,0.092472,-0.034791,44.975446,-0.000014,0.000000,0.000006,0.000000,0.000000,0.000000,0.014165,0.005475,0.067146
0.033000,0.307000,0.000000,0.367000,0.499407,-0.000126,0.281254,0.499447,-0.000118,0.281298,0.192407,-0.000126,-0.085746,0.210649,0.001298,-0.001210,0.784965,0.784967,44.975304,180.000000,-0.000000,0.000000,179.907212,0.034705,-44.975229,0.092788,-0.034705,44.975229,-0.000016,0.000000,0.000007,0.000000,0.000000,0.000000,0.010695,0.044246,0.041370
0.034000,0.307000,0.000000,0.367000,0.499404,-0.000127,0.281249,0.499447,-0.000118,0.281298,0.192404,-0.000127,-0.085751,0.210648,0.001303,-0.001218,0.784961,0.784963,44.975084,180.000000,-0.000000,0.000000,179.906784,0.035024,-44.975009,0.093216,-0.035024,44.975009,-0.000017,0.000000,0.000008,0.000000,0.000000,0.000000,0.005299,0.017436,-0.023127
0.035000,0.307000,0.000000,0.367000,0.499402,-0.000130,0.281248,0.499447,-0.000118,0.281298,0.192402,-0.000130,-0.085752,0.210647,0.001310,-0.001221,0.784958,0.784960,44.974912,180.000000,-0.000000,0.000000,179.906349,0.035023,-44.974835,0.093651,-0.035023,44.974835,-0.000019,0.000000,0.000009,0.000000,0.000000,0.000000,-0.013476,0.032017,-0.011553
0.036000,0.307000,0.000000,0.367000,0.499400,-0.000129,0.281246,0.499447,-0.000118,0.281298,0.192400,-0.000129,-0.085754,0.210646,0.001315,-0.001224,0.784952,0.784954,44.974562,180.000000,-0.000000,0.000000,179.906029,0.035059,-44.974485,0.093971,-0.035059,44.974485,-0.000021,0.000000,0.000010,0.000000,0.000000,0.000000,-0.014441,0.050450,-0.032670
0.037000,0.307000,0.000000,0.367000,0.499399,-0.000129,0.281244,0.499447,-0.000118,0.281298,0.192399,-0.000129,-0.085756,0.210645,0.001323,-0.001225,0.784947,0.784949,44.974286,180.000000,-0.000000,0.000000,179.905596,0.034970,-44.974207,0.094404,-0.034970,44.974207,-0.000024,0.000000,0.000011,0.000000,0.000000,0.000000,-0.036490,-0.012773,0.025266
0.038000,0.307000,0.000000,0.367000,0.499397,-0.000132,0.281243,0.499447,-0.000118,0.281298,0.192397,-0.000132,-0.085757,0.210644,0.001332,-0.001227,0.784948,0.784950,44.974329,180.000000,-0.000000,0.000000,179.905073,0.034855,-44.974251,0.094927,-0.034855,44.974251,-0.000026,0.000000,0.000012,0.000000,0.000000,0.000000,-0.004501,0.004460,0.012241
0.039000,0.307000,0.000000,0.367000,0.499395,-0.000133,0.281238,0.499447,-0.000118,0.281298,0.192395,-0.000133,-0.085762,0.210644,0.001346,-0.001232,0.784943,0.784945,44.974058,180.000000,-0.000000,0.000000,179.904271,0.034830,-44.973978,0.095729,-0.034830,44.973978,-0.000029,0.000000,0.000013,0.000000,0.000000,0.000000,0.002719,0.018535,-0.001480
0.040000,0.307000,0.000000,0.367000,0.499393,-0.000136,0.281238,0.499447,-0.000118,0.281298,0.192393,-0.000136,-0.085762,0.210643,0.001352,-0.001230,0.784930,0.784932,44.973286,180.000000,-0.000000,0.000000,179.903960,0.034566,-44.973205,0.096040,-0.034566,44.973205,-0.000031,0.000000,0.000014,0.000000,0.000000,0.000000,-0.007273,0.017991,-0.025581
0.041000,0.307000,0.000000,0.367000,0.499391,-0.000137,0.281234,0.499447,-0.000118,0.281298,0.192391,-0.000137,-0.085766,0.210642,0.001366,-0.001233,0.784928,0.784930,44.973186,180.000000,-0.000000,0.000000,179.903206,0.034439,-44.973104,0.096794,-0.034439,44.973104,-0.000034,0.000000,0.000015,0.000000,0.000000,0.000000,-0.022006,0.006491,-0.031276
0.042000,0.307000,0.000000,0.367000,0.499390,-0.000138,0.281234,0.499447,-0.000118,0.281298,0.192390,-0.000138,-0.085766,0.210642,0.001376,-0.001229,0.784913,0.784915,44.972308,180.000000,-0.000000,0.000000,179.902786,0.034015,-44.972225,0.097214,-0.034015,44.972225,-0.000037,0.000000,0.000017,0.000000,0.000000,0.000000,0.013439,0.007524,-0.030741
0.043000,0.307000,0.000000,0.367000,0.499389,-0.000142,0.281233,0.499447,-0.000118,0.281298,0.192389,-0.000142,-0.085767,0.210641,0.001392,-0.001227,0.784900,0.784902,44.971598,180.000000,-0.000000,0.000000,179.901961,0.033572,-44.971515,0.098039,-0.033572,44.971515,-0.000040,0.000000,0.000018,0.000000,0.000000,0.000000,0.009988,-0.007594,0.001742
0.044000,0.307000,0.000000,0.367000,0.499388,-0.000143,0.281232,0.499447,-0.000118,0.281298,0.192388,-0.000143,-0.085768,0.210640,0.001405,-0.001223,0.784893,0.784895,44.971158,180.000000,-0.000000,0.000000,179.901385,0.033077,-44.971073,0.098615,-0.033077,44.971073,-0.000044,0.000000,0.000019,0.000000,0.000000,0.000000,-0.022914,0.002800,0.011466
0.045000,0.307000,0.000000,0.367000,0.499385,-0.000146,0.281226,0.499447,-0.000118,0.281298,0.192385,-0.000146,-0.085774,0.210639,0.001426,-0.001230,0.784880,0.784883,44.970459,180.000000,-0.000000,0.000000,179.900179,0.033004,-44.970372,0.099821,-0.033004,44.970372,-0.000047,0.000000,0.000021,0.000000,0.000000,0.000000,0.005072,-0.013530,0.017408
0.046000,0.307000,0.000000,0.367000,0.499382,-0.000149,0.281221,0.499447,-0.000118,0.281298,0.192382,-0.000149,-0.085779,0.210639,0.001447,-0.001233,0.784877,0.784879,44.970251,180.000000,-0.000000,0.000000,179.899006,0.032692,-44.970160,0.100994,-0.032692,44.970160,-0.000051,0.000000,0.000023,0.000000,0.000000,0.000000,-0.015952,0.009249,-0.010334
0.047000,0.307000,0.000000,0.367000,0.499380,-0.000151,0.281221,0.499446,-0.000118,0.281298,0.192380,-0.000151,-0.085779,0.210638,0.001465,-0.001227,0.784862,0.784864,44.969419,180.000000,-0.000000,0.000000,179.898236,0.032008,-44.969327,0.101764,-0.032008,44.969327,-0.000055,0.000000,0.000025,0.000000,0.000000,0.000000,-0.014651,-0.006503,-0.045074
0.048000,0.307000,0.000000,0.367000,0.499378,-0.000152,0.281218,0.499446,-0.000118,0.281298,0.192378,-0.000152,-0.085782,0.210637,0.001479,-0.001227,0.784845,0.784847,44.968448,180.000000,-0.000000,0.000000,179.897486,0.031732,-44.968354,0.102514,-0.031732,44.968354,-0.000059,0.000000,0.000026,0.000000,0.000000,0.000000,-0.025867,0.032243,-0.003300
0.049000,0.307000,0.000000,0.367000,0.499377,-0.000157,0.281217,0.499446,-0.000118,0.281298,0.192377,-0.000157,-0.085783,0.210636,0.001495,-0.001225,0.784834,0.784836,44.967787,180.000000,-0.000000,0.000000,179.896694,0.031300,-44.967692,0.103306,-0.031300,44.967692,-0.000064,0.000000,0.000028,0.000000,0.000000,0.000000,-0.008167,0.007658,0.034256
0.050000,0.307000,0.000000,0.367000,0.499375,-0.000160,0.281216,0.499446,-0.000118,0.281298,0.192375,-0.000160,-0.085784,0.210635,0.001509,-0.001221,0.784829,0.784831,44.967503,180.000000,-0.000000,0.000000,179.896058,0.030776,-44.967407,0.103942,-0.030776,44.967407,-0.000068,0.000000,0.000030,0.000000,0.000000,0.000000,0.010900,-0.043656,-0.056622
0.051000,0.307000,0.000000,0.367000,0.499371,-0.000158,0.281210,0.499446,-0.000118,0.281299,0.192371,-0.000158,-0.085790,0.210634,0.001523,-0.001230,0.784805,0.784807,44.966129,180.000000,-0.000000,0.000000,179.895140,0.030945,-44.966030,0.104860,-0.030945,44.966030,-0.000073,0.000000,0.000032,0.000000,0.000000,0.000000,-0.003870,-0.014132,-0.029439
0.052000,0.307000,0.000000,0.367000,0.499372,-0.000161,0.281211,0.499446,-0.000118,0.281299,0.192372,-0.000161,-0.085789,0.210634,0.001528,-0.001225,0.784809,0.784811,44.966387,180.000000,-0.000000,0.000000,179.895022,0.030563,-44.966286,0.104978,-0.030563,44.966286,-0.000078,0.000000,0.000035,0.000000,0.000000,0.000000,-0.015316,0.003293,0.065165
0.053000,0.307000,0.000000,0.367000,0.499370,-0.000161,0.281209,0.499446,-0.000118,0.281299,0.192370,-0.000161,-0.085791,0.210633,0.001537,-0.001226,0.784804,0.784807,44.966125,180.000000,-0.000000,0.000000,179.894528,0.030457,-44.966026,0.105472,-0.030457,44.966026,-0.000083,0.000000,0.000037,0.000000,0.000000,0.000000,0.033683,0.006785,-0.038128
0.054000,0.307000,0.000000,0.367000,0.499366,-0.000164,0.281204,0.499446,-0.000118,0.281299,0.192366,-0.000164,-0.085796,0.210631,0.001541,-0.001236,0.784809,0.784812,44.966387,180.000000,-0.000000,0.000000,179.894090,0.030862,-44.966286,0.105910,-0.030862,44.966286,-0.000088,0.000000,0.000039,0.000000,0.000000,0.000000,0.028740,-0.003955,-0.022340
0.055000,0.307000,0.000000,0.367000,0.499362,-0.000163,0.281200,0.499446,-0.000118,0.281299,0.192362,-0.000163,-0.085800,0.210630,0.001548,-0.001247,0.784803,0.784805,44.966030,180.000000,-0.000000,0.000000,179.893509,0.031281,-44.965929,0.106491,-0.031281,44.965929,-0.000094,0.000000,0.000042,0.000000,0.000000,0.000000,0.026577,-0.031280,-0.048948
0.056000,0.307000,0.000000,0.367000,0.499359,-0.000161,0.281197,0.499446,-0.000118,0.281299,0.192359,-0.000161,-0.085803,0.210628,0.001552,-0.001256,0.784799,0.784802,44.965824,180.000000,-0.000000,0.000000,179.893125,0.031638,-44.965721,0.106875,-0.031638,44.965721,-0.000100,0.000000,0.000045,0.000000,0.000000,0.000000,0.006545,-0.016648,-0.028767
0.057000,0.307000,0.000000,0.367000,0.499358,-0.000162,0.281196,0.499446,-0.000118,0.281299,0.192358,-0.000162,-0.085804,0.210627,0.001555,-0.001258,0.784797,0.784799,44.965683,180.000000,-0.000000,0.000000,179.892913,0.031681,-44.965581,0.107087,-0.031681,44.965581,-0.000106,0.000000,0.000047,0.000000,0.000000,0.000000,-0.010404,-0.005156,0.033648
0.058000,0.307000,0.000000,0.367000,0.499355,-0.000162,0.281191,0.499446,-0.000118,0.281299,0.192355,-0.000162,-0.085809,0.210627,0.001558,-0.001264,0.784803,0.784806,44.966067,180.000000,-0.000000,0.000000,179.892648,0.031959,-44.965965,0.107352,-0.031959,44.965965,-0.000112,0.000000,0.000050,0.000000,0.000000,0.000000,0.003050,0.026670,0.023250
0.059000,0.307000,0.000000,0.367000,0.499354,-0.000162,0.281192,0.499445,-0.000118,0.281299,0.192354,-0.000162,-0.085808,0.210626,0.001556,-0.001264,0.784790,0.784792,44.965285,180.000000,-0.000000,0.000000,179.892747,0.031988,-44.965183,0.107253,-0.031988,44.965183,-0.000119,0.000000,0.000053,0.000000,0.000000,0.000000,-0.004775,0.007601,0.035534
0.060000,0.307000,0.000000,0.367000,0.499350,-0.000160,0.281187,0.499445,-0.000118,0.281299,0.192350,-0.000160,-0.085813,0.210624,0.001560,-0.001278,0.784798,0.784801,44.965777,180.000000,-0.000000,0.000000,179.892253,0.032614,-44.965676,0.107747,-0.032614,44.965676,-0.000126,0.000000,0.000056,0.000000,0.000000,0.000000,-0.003440,0.020491,0.081197
0.061000,0.307000,0.000000,0.367000,0.499348,-0.000165,0.281185,0.499445,-0.000118,0.281299,0.192348,-0.000165,-0.085815,0.210623,0.001564,-0.001282,0.784801,0.784804,44.965942,180.000000,-0.000000,0.000000,179.891922,0.032730,-44.965837,0.108078,-0.032730,44.965837,-0.000133,0.000000,0.000059,0.000000,0.000000,0.000000,-0.003388,0.020154,0.079878
0.062000,0.307000,0.000000,0.367000,0.499345,-0.000162,0.281182,0.499445,-0.000118,0.281299,0.192345,-0.000162,-0.085818,0.210622,0.001566,-0.001288,0.784790,0.784793,44.965330,180.000000,-0.000000,0.000000,179.891723,0.032993,-44.965226,0.108277,-0.032993,44.965226,-0.000140,0.000000,0.000062,0.000000,0.000000,0.000000,-0.019143,0.008597,0.012640
0.063000,0.307000,0.000000,0.367000,0.499344,-0.000161,0.281180,0.499445,-0.000118,0.281299,0.192344,-0.000161,-0.085820,0.210622,0.001568,-0.001291,0.784800,0.784803,44.965886,180.000000,-0.000000,0.000000,179.891545,0.033115,-44.965782,0.108455,-0.033115,44.965782,-0.000148,0.000000,0.000066,0.000000,0.000000,0.000000,-0.010506,-0.011786,0.040913
0.064000,0.307000,0.000000,0.367000,0.499344,-0.000162,0.281178,0.499445,-0.000118,0.281299,0.192344,-0.000162,-0.085822,0.210622,0.001568,-0.001295,0.784798,0.784801,44.965759,180.000000,-0.000000,0.000000,179.891433,0.033307,-44.965654,0.108567,-0.033307,44.965654,-0.000156,0.000000,0.000069,0.000000,0.000000,0.000000,-0.007984,0.019022,0.045521
0.065000,0.307000,0.000000,0.367000,0.499339,-0.000163,0.281174,0.499445,-0.000118,0.281299,0.192339,-0.000163,-0.085826,0.210619,0.001570,-0.001305,0.784795,0.784798,44.965591,180.000000,-0.000000,0.000000,179.891114,0.033799,-44.965487,0.108886,-0.033799,44.965487,-0.000164,0.000000,0.000073,0.000000,0.000000,0.000000,-0.002968,0.012785,-0.019300
0.066000,0.307000,0.000000,0.367000,0.499336,-0.000162,0.281172,0.499444,-0.000118,0.281299,0.192336,-0.000162,-0.085828,0.210618,0.001574,-0.001312,0.784804,0.784807,44.966114,180.000000,-0.000000,0.000000,179.890780,0.034067,-44.966009,0.109220,-0.034067,44.966009,-0.000172,0.000000,0.000077,0.000000,0.000000,0.000000,-0.004744,-0.001872,0.037183
0.067000,0.307000,0.000000,0.367000,0.499335,-0.000163,0.281169,0.499444,-0.000118,0.281299,0.192335,-0.000163,-0.085831,0.210618,0.001573,-0.001318,0.784801,0.784804,44.965960,180.000000,-0.000000,0.000000,179.890718,0.034394,-44.965854,0.109282,-0.034394,44.965854,-0.000181,0.000000,0.000081,0.000000,0.000000,0.000000,-0.036104,0.010831,-0.042760
0.068000,0.307000,0.000000,0.367000,0.499332,-0.000164,0.281165,0.499444,-0.000118,0.281299,0.192332,-0.000164,-0.085835,0.210616,0.001580,-0.001324,0.784803,0.784805,44.966039,180.000000,-0.000000,0.000000,179.890189,0.034582,-44.965931,0.109811,-0.034582,44.965931,-0.000190,0.000000,0.000084,0.000000,0.000000,0.000000,0.045071,-0.000958,-0.015160
0.069000,0.307000,0.000000,0.367000,0.499331,-0.000163,0.281164,0.499444,-0.000118,0.281300,0.192331,-0.000163,-0.085836,0.210616,0.001582,-0.001325,0.784801,0.784804,44.965941,180.000000,-0.000000,0.000000,179.890098,0.034572,-44.965835,0.109902,-0.034572,44.965835,-0.000199,0.000000,0.000089,0.000000,0.000000,0.000000,0.023671,-0.015909,-0.050423
0.070000,0.307000,0.000000,0.367000,0.499328,-0.000163,0.281161,0.499444,-0.000118,0.281300,0.192328,-0.000163,-0.085839,0.210615,0.001587,-0.001329,0.784794,0.784796,44.965517,180.000000,-0.000000,0.000000,179.889734,0.034684,-44.965410,0.110266,-0.034684,44.965410,-0.000208,0.000000,0.000093,0.000000,0.000000,0.000000,-0.002199,0.022166,-0.004621
0.071000,0.307000,0.000000,0.367000,0.499328,-0.000165,0.281160,0.499443,-0.000118,0.281300,0.192328,-0.000165,-0.085840,0.210614,0.001589,-0.001330,0.784797,0.784800,44.965710,180.000000,-0.000000,0.000000,179.889627,0.034687,-44.965603,0.110373,-0.034687,44.965603,-0.000218,0.000000,0.000097,0.000000,0.000000,0.000000,0.006017,0.028352,-0.032380
0.072000,0.307000,0.000000,0.367000,0.499325,-0.000163,0.281158,0.499443,-0.000118,0.281300,0.192325,-0.000163,-0.085842,0.210613,0.001595,-0.001336,0.784789,0.784792,44.965277,180.000000,-0.000000,0.000000,179.889205,0.034885,-44.965168,0.110795,-0.034885,44.965168,-0.000228,0.000000,0.000102,0.000000,0.000000,0.000000,0.023370,-0.021221,0.016591
0.073000,0.307000,0.000000,0.367000,0.499324,-0.000164,0.281157,0.499443,-0.000118,0.281300,0.192324,-0.000164,-0.085843,0.210612,0.001596,-0.001340,0.784791,0.784794,44.965366,180.000000,-0.000000,0.000000,179.889028,0.035040,-44.965258,0.110972,-0.035040,44.965258,-0.000238,0.000000,0.000106,0.000000,0.000000,0.000000,0.024050,-0.004512,0.026819
0.074000,0.307000,0.000000,0.367000,0.499321,-0.000161,0.281151,0.499443,-0.000118,0.281300,0.192321,-0.000161,-0.085849,0.210612,0.001604,-0.001349,0.784788,0.784791,44.965225,180.000000,-0.000000,0.000000,179.888433,0.035354,-44.965115,0.111567,-0.035354,44.965115,-0.000249,0.000000,0.000111,0.000000,0.000000,0.000000,-0.024694,0.008831,0.005368
0.075000,0.307000,0.000000,0.367000,0.499318,-0.000164,0.281148,0.499442,-0.000118,0.281300,0.192318,-0.000164,-0.085852,0.210611,0.001607,-0.001356,0.784794,0.784796,44.965525,180.000000,-0.000000,0.000000,179.888135,0.035669,-44.965415,0.111865,-0.035669,44.965415,-0.000260,0.000000,0.000116,0.000000,0.000000,0.000000,-0.019614,0.020772,0.007699
0.076000,0.307000,0.000000,0.367000,0.499317,-0.000162,0.281148,0.499442,-0.000118,0.281300,0.192317,-0.000162,-0.085852,0.210610,0.001611,-0.001354,0.784787,0.784790,44.965134,180.000000,-0.000000,0.000000,179.887998,0.035469,-44.965023,0.112002,-0.035469,44.965023,-0.000271,0.000000,0.000121,0.000000,0.000000,0.000000,0.008568,0.022901,0.021296
0.077000,0.307000,0.000000,0.367000,0.499316,-0.000165,0.281145,0.499442,-0.000118,0.281300,0.192316,-0.000165,-0.085855,0.210610,0.001612,-0.001357,0.784790,0.784793,44.965310,180.000000,-0.000000,0.000000,179.887866,0.035623,-44.965200,0.112134,-0.035623,44.965200,-0.000282,0.000000,0.000126,0.000000,0.000000,0.000000,-0.023264,0.008459,0.031688
0.078000,0.307000,0.000000,0.367000,0.499314,-0.000166,0.281143,0.499442,-0.000118,0.281301,0.192314,-0.000166,-0.085857,0.210609,0.001617,-0.001364,0.784784,0.784787,44.964979,180.000000,-0.000000,0.000000,179.887457,0.035827,-44.964867,0.112543,-0.035827,44.964867,-0.000294,0.000000,0.000131,0.000000,0.000000,0.000000,-0.003604,-0.014934,-0.084556
0.079000,0.307000,0.000000,0.367000,0.499312,-0.000165,0.281139,0.499441,-0.000118,0.281301,0.192312,-0.000165,-0.085861,0.210609,0.001622,-0.001371,0.784786,0.784789,44.965117,180.000000,-0.000000,0.000000,179.887033,0.036083,-44.965004,0.112967,-0.036083,44.965004,-0.000306,0.000000,0.000136,0.000000,0.000000,0.000000,0.022144,0.019348,-0.042148
0.080000,0.307000,0.000000,0.367000,0.499310,-0.000168,0.281140,0.499441,-0.000118,0.281301,0.192310,-0.000168,-0.085860,0.210607,0.001626,-0.001370,0.784784,0.784787,44.964977,180.000000,-0.000000,0.000000,179.886869,0.035991,-44.964864,0.113131,-0.035991,44.964864,-0.000319,0.000000,0.000142,0.000000,0.000000,0.000000,0.024948,0.021546,-0.057621
0.081000,0.307000,0.000000,0.367000,0.499310,-0.000167,0.281139,0.499441,-0.000118,0.281301,0.192310,-0.000167,-0.085861,0.210607,0.001627,-0.001372,0.784781,0.784784,44.964810,180.000000,-0.000000,0.000000,179.886738,0.036038,-44.964697,0.113262,-0.036038,44.964697,-0.000331,0.000000,0.000148,0.000000,0.000000,0.000000,-0.016608,0.010069,-0.077592
0.082000,0.307000,0.000000,0.367000,0.499306,-0.000166,0.281134,0.499440,-0.000118,0.281301,0.192306,-0.000166,-0.085866,0.210606,0.001635,-0.001380,0.784777,0.784780,44.964594,180.000000,-0.000000,0.000000,179.886194,0.036279,-44.964480,0.113806,-0.036279,44.964480,-0.000344,0.000000,0.000153,0.000000,0.000000,0.000000,-0.002190,0.002651,-0.019843
0.083000,0.307000,0.000000,0.367000,0.499305,-0.000166,0.281135,0.499440,-0.000118,0.281301,0.192305,-0.000166,-0.085865,0.210605,0.001635,-0.001377,0.784776,0.784779,44.964526,180.000000,-0.000000,0.000000,179.886256,0.036143,-44.964413,0.113744,-0.036143,44.964413,-0.000357,0.000000,0.000159,0.000000,0.000000,0.000000,0.035032,-0.023222,-0.041370
0.084000,0.307000,0.000000,0.367000,0.499302,-0.000169,0.281130,0.499440,-0.000118,0.281301,0.192302,-0.000169,-0.085870,0.210603,0.001639,-0.001390,0.784775,0.784778,44.964485,180.000000,-0.000000,0.000000,179.885766,0.036732,-44.964369,0.114234,-0.036732,44.964369,-0.000371,0.000000,0.000165,0.000000,0.000000,0.000000,0.059192,-0.000937,-0.054245
0.085000,0.307000,0.000000,0.367000,0.499302,-0.000166,0.281131,0.499439,-0.000118,0.281302,0.192302,-0.000166,-0.085869,0.210603,0.001642,-0.001389,0.784767,0.784770,44.964001,180.000000,-0.000000,0.000000,179.885615,0.036574,-44.963886,0.114385,-0.036574,44.963886,-0.000385,0.000000,0.000171,0.000000,0.000000,0.000000,0.023944,0.005507,-0.044500
0.086000,0.307000,0.000000,0.367000,0.499300,-0.000164,0.281128,0.499439,-0.000118,0.281302,0.192300,-0.000164,-0.085872,0.210602,0.001644,-0.001392,0.784763,0.784766,44.963789,180.000000,-0.000000,0.000000,179.885467,0.036693,-44.963674,0.114533,-0.036693,44.963674,-0.000399,0.000000,0.000178,0.000000,0.000000,0.000000,-0.020417,0.020735,0.049795
0.087000,0.307000,0.000000,0.367000,0.499299,-0.000165,0.281127,0.499438,-0.000118,0.281302,0.192299,-0.000165,-0.085873,0.210602,0.001645,-0.001397,0.784759,0.784762,44.963551,180.000000,-0.000000,0.000000,179.885288,0.036964,-44.963435,0.114712,-0.036964,44.963435,-0.000413,0.000000,0.000184,0.000000,0.000000,0.000000,0.035218,0.029147,0.020186
0.088000,0.307000,0.000000,0.367000,0.499298,-0.000165,0.281124,0.499438,-0.000118,0.281302,0.192298,-0.000165,-0.085876,0.210602,0.001651,-0.001398,0.784766,0.784769,44.963936,180.000000,-0.000000,0.000000,179.884983,0.036876,-44.963818,0.115017,-0.036876,44.963818,-0.000428,0.000000,0.000191,0.000000,0.000000,0.000000,0.023350,0.005579,-0.076693
0.089000,0.307000,0.000000,0.367000,0.499296,-0.000170,0.281124,0.499437,-0.000118,0.281302,0.192296,-0.000170,-0.085876,0.210600,0.001650,-0.001401,0.784768,0.784771,44.964062,180.000000,-0.000000,0.000000,179.884928,0.037061,-44.963946,0.115072,-0.037061,44.963946,-0.000443,0.000000,0.000197,0.000000,0.000000,0.000000,0.010085,0.020888,0.002030
0.090000,0.307000,0.000000,0.367000,0.499295,-0.000164,0.281122,0.499437,-0.000118,0.281303,0.192295,-0.000164,-0.085878,0.210600,0.001652,-0.001403,0.784759,0.784762,44.963559,180.000000,-0.000000,0.000000,179.884784,0.037118,-44.963442,0.115216,-0.037118,44.963442,-0.000459,0.000000,0.000204,0.000000,0.000000,0.000000,0.007904,-0.001198,0.021640
0.091000,0.307000,0.000000,0.367000,0.499293,-0.000169,0.281117,0.499437,-0.000118,0.281303,0.192293,-0.000169,-0.085883,0.210600,0.001659,-0.001410,0.784767,0.784770,44.963986,180.000000,-0.000000,0.000000,179.884295,0.037330,-44.963867,0.115705,-0.037330,44.963867,-0.000474,0.000000,0.000211,0.000000,0.000000,0.000000,0.003994,0.007100,0.061051
0.092000,0.307000,0.000000,0.367000,0.499290,-0.000166,0.281114,0.499436,-0.000118,0.281303,0.192290,-0.000166,-0.085886,0.210599,0.001664,-0.001417,0.784758,0.784761,44.963483,180.000000,-0.000000,0.000000,179.883896,0.037606,-44.963365,0.116104,-0.037606,44.963365,-0.000490,0.000000,0.000218,0.000000,0.000000,0.000000,-0.006613,0.015006,0.061736
0.093000,0.307000,0.000000,0.367000,0.499288,-0.000169,0.281113,0.499436,-0.000118,0.281303,0.192288,-0.000169,-0.085887,0.210598,0.001669,-0.001421,0.784755,0.784758,44.963302,180.000000,-0.000000,0.000000,179.883554,0.037692,-44.963183,0.116446,-0.037692,44.963183,-0.000507,0.000000,0.000226,0.000000,0.000000,0.000000,-0.020049,-0.003950,0.020454
0.094000,0.307000,0.000000,0.367000,0.499288,-0.000171,0.281113,0.499435,-0.000118,0.281303,0.192288,-0.000171,-0.085887,0.210597,0.001669,-0.001421,0.784757,0.784761,44.963465,180.000000,-0.000000,0.000000,179.883556,0.037667,-44.963345,0.116444,-0.037667,44.963345,-0.000524,0.000000,0.000233,0.000000,0.000000,0.000000,-0.004669,0.000767,-0.044701
0.095000,0.307000,0.000000,0.367000,0.499285,-0.000168,0.281110,0.499434,-0.000118,0.281304,0.192285,-0.000168,-0.085890,0.210596,0.001675,-0.001427,0.784752,0.784755,44.963145,180.000000,-0.000000,0.000000,179.883095,0.037850,-44.963024,0.116905,-0.037850,44.963024,-0.000541,0.000000,0.000241,0.000000,0.000000,0.000000,0.015412,0.024287,-0.025922
0.096000,0.307000,0.000000,0.367000,0.499284,-0.000170,0.281109,0.499434,-0.000118,0.281304,0.192284,-0.000170,-0.085891,0.210595,0.001674,-0.001430,0.784765,0.784768,44.963884,180.000000,-0.000000,0.000000,179.883096,0.038061,-44.963763,0.116904,-0.038061,44.963763,-0.000558,0.000000,0.000248,0.000000,0.000000,0.000000,-0.014865,0.009801,0.009393
0.097000,0.307000,0.000000,0.367000,0.499282,-0.000170,0.281107,0.499433,-0.000118,0.281304,0.192282,-0.000170,-0.085893,0.210595,0.001676,-0.001433,0.784763,0.784766,44.963773,180.000000,-0.000000,0.000000,179.882939,0.038168,-44.963652,0.117061,-0.038168,44.963652,-0.000576,0.000000,0.000256,0.000000,0.000000,0.000000,0.012002,-0.046273,-0.070067
0.098000,0.307000,0.000000,0.367000,0.499281,-0.000168,0.281105,0.499433,-0.000118,0.281305,0.192281,-0.000168,-0.085895,0.210594,0.001679,-0.001437,0.784759,0.784762,44.963577,180.000000,-0.000000,0.000000,179.882691,0.038280,-44.963456,0.117309,-0.038280,44.963456,-0.000593,0.000000,0.000264,0.000000,0.000000,0.000000,0.007496,-0.031354,-0.054233
0.099000,0.307000,0.000000,0.367000,0.499278,-0.000172,0.281101,0.499432,-0.000118,0.281305,0.192278,-0.000172,-0.085899,0.210593,0.001689,-0.001444,0.784763,0.784766,44.963763,180.000000,-0.000000,0.000000,179.882030,0.038442,-44.963640,0.117970,-0.038442,44.963640,-0.000612,0.000000,0.000272,0.000000,0.000000,0.000000,0.025480,-0.006002,-0.022264
0.100000,0.307000,0.000000,0.367000,0.499276,-0.000170,0.281101,0.499431,-0.000118,0.281305,0.192276,-0.000170,-0.085899,0.210592,0.001686,-0.001446,0.784758,0.784761,44.963479,180.000000,-0.000000,0.000000,179.882130,0.038596,-44.963357,0.117870,-0.038596,44.963357,-0.000630,0.000000,0.000281,0.000000,0.000000,0.000000,-0.000308,0.031494,0.010326
0.101000,0.307000,0.000000,0.367000,0.499274,-0.000170,0.281095,0.499431,-0.000118,0.281305,0.192274,-0.000170,-0.085905,0.210592,0.001692,-0.001456,0.784757,0.784760,44.963448,180.000000,-0.000000,0.000000,179.881613,0.039006,-44.963323,0.118387,-0.039006,44.963323,-0.000649,0.000000,0.000289,0.000000,0.000000,0.000000,0.015037,0.022085,0.023319
0.102000,0.307000,0.000000,0.367000,0.499274,-0.000170,0.281097,0.499430,-0.000118,0.281306,0.192274,-0.000170,-0.085903,0.210591,0.001694,-0.001450,0.784754,0.784757,44.963283,180.000000,-0.000000,0.000000,179.881632,0.038662,-44.963159,0.118368,-0.038662,44.963159,-0.000669,0.000000,0.000298,0.000000,0.000000,0.000000,0.012422,-0.001769,0.056269
0.103000,0.307000,0.000000,0.367000,0.499272,-0.000171,0.281094,0.499429,-0.000118,0.281306,0.192272,-0.000171,-0.085906,0.210591,0.001697,-0.001455,0.784749,0.784752,44.962999,180.000000,-0.000000,0.000000,179.881375,0.038851,-44.962874,0.118625,-0.038851,44.962874,-0.000688,0.000000,0.000307,0.000000,0.000000,0.000000,0.021282,0.008738,-0.000070
0.104000,0.307000,0.000000,0.367000,0.499271,-0.000172,0.281092,0.499429,-0.000118,0.281306,0.192271,-0.000172,-0.085908,0.210591,0.001701,-0.001459,0.784756,0.784759,44.963380,180.000000,-0.000000,0.000000,179.881077,0.038926,-44.963256,0.118923,-0.038926,44.963256,-0.000708,0.000000,0.000315,0.000000,0.000000,0.000000,0.013933,0.006699,-0.058304
0.105000,0.307000,0.000000,0.367000,0.499270,-0.000170,0.281090,0.499428,-0.000118,0.281307,0.192270,-0.000170,-0.085910,0.210590,0.001704,-0.001463,0.784753,0.784756,44.963202,180.000000,-0.000000,0.000000,179.880864,0.039114,-44.963077,0.119136,-0.039114,44.963077,-0.000728,0.000000,0.000324,0.000000,0.000000,0.000000,-0.023127,-0.002015,-0.023967
0.106000,0.307000,0.000000,0.367000,0.499266,-0.000174,0.281087,0.499427,-0.000118,0.281307,0.192266,-0.000174,-0.085913,0.210588,0.001705,-0.001471,0.784760,0.784763,44.963603,180.000000,-0.000000,0.000000,179.880628,0.039464,-44.963478,0.119372,-0.039464,44.963478,-0.000749,0.000000,0.000334,0.000000,0.000000,0.000000,-0.009715,0.023981,-0.066915
0.107000,0.307000,0.000000,0.367000,0.499265,-0.000173,0.281086,0.499427,-0.000118,0.281307,0.192265,-0.000173,-0.085914,0.210588,0.001710,-0.001470,0.784756,0.784759,44.963406,180.000000,-0.000000,0.000000,179.880402,0.039313,-44.963280,0.119598,-0.039313,44.963280,-0.000770,0.000000,0.000343,0.000000,0.000000,0.000000,-0.015537,-0.007616,0.066072
0.108000,0.307000,0.000000,0.367000,0.499266,-0.000173,0.281087,0.499426,-0.000118,0.281308,0.192266,-0.000173,-0.085913,0.210588,0.001709,-0.001470,0.784745,0.784748,44.962759,180.000000,-0.000000,0.000000,179.880417,0.039340,-44.962633,0.119583,-0.039340,44.962633,-0.000791,0.000000,0.000352,0.000000,0.000000,0.000000,-0.010971,0.026799,0.031114
0.109000,0.307000,0.000000,0.367000,0.499264,-0.000172,0.281086,0.499425,-0.000118,0.281308,0.192264,-0.000172,-0.085914,0.210587,0.001713,-0.001471,0.784748,0.784751,44.962943,180.000000,-0.000000,0.000000,179.880233,0.039298,-44.962816,0.119767,-0.039298,44.962816,-0.000813,0.000000,0.000362,0.000000,0.000000,0.000000,0.019384,-0.010317,0.006043
0.110000,0.307000,0.000000,0.367000,0.499261,-0.000173,0.281082,0.499424,-0.000118,0.281308,0.192261,-0.000173,-0.085918,0.210585,0.001721,-0.001480,0.784745,0.784748,44.962755,180.000000,-0.000000,0.000000,179.879627,0.039628,-44.962628,0.120373,-0.039628,44.962628,-0.000835,0.000001,0.000372,0.000000,0.000000,0.000000,0.040383,-0.004632,0.016727
0.111000,0.307000,0.000000,0.367000,0.499260,-0.000173,0.281080,0.499423,-0.000118,0.281309,0.192260,-0.000173,-0.085920,0.210586,0.001723,-0.001481,0.784743,0.784746,44.962633,180.000000,-0.000000,0.000000,179.879462,0.039616,-44.962505,0.120538,-0.039616,44.962505,-0.000857,0.000001,0.000382,0.000000,0.000000,0.000000,0.013628,-0.023741,-0.044427
0.112000,0.307000,0.000000,0.367000,0.499259,-0.000175,0.281078,0.499422,-0.000118,0.281309,0.192259,-0.000175,-0.085922,0.210585,0.001728,-0.001484,0.784742,0.784745,44.962598,180.000000,-0.000000,0.000000,179.879139,0.039687,-44.962469,0.120861,-0.039687,44.962469,-0.000880,0.000001,0.000392,0.000000,0.000000,0.000000,-0.029375,-0.012065,-0.003293
0.113000,0.307000,0.000000,0.367000,0.499259,-0.000175,0.281078,0.499421,-0.000118,0.281310,0.192259,-0.000175,-0.085922,0.210585,0.001728,-0.001483,0.784744,0.784747,44.962701,180.000000,-0.000000,0.000000,179.879204,0.039605,-44.962572,0.120796,-0.039605,44.962572,-0.000903,0.000001,0.000402,0.000000,0.000000,0.000000,-0.009386,0.002838,-0.004290
0.114000,0.307000,0.000000,0.367000,0.499257,-0.000175,0.281076,0.499421,-0.000118,0.281310,0.192257,-0.000175,-0.085924,0.210584,0.001732,-0.001485,0.784734,0.784738,44.962160,180.000000,-0.000000,0.000000,179.878927,0.039641,-44.962032,0.121073,-0.039641,44.962032,-0.000926,0.000001,0.000412,0.000000,0.000000,0.000000,0.012485,-0.010563,0.049520
0.115000,0.307000,0.000000,0.367000,0.499256,-0.000177,0.281075,0.499420,-0.000118,0.281310,0.192256,-0.000177,-0.085925,0.210584,0.001739,-0.001488,0.784734,0.784738,44.962152,180.000000,-0.000000,0.000000,179.878496,0.039638,-44.962022,0.121504,-0.039638,44.962022,-0.000950,0.000001,0.000423,0.000000,0.000000,0.000000,0.036286,-0.029482,0.056826
0.116000,0.307000,0.000000,0.367000,0.499255,-0.000176,0.281075,0.499419,-0.000118,0.281311,0.192255,-0.000176,-0.085925,0.210583,0.001739,-0.001488,0.784731,0.784734,44.961949,180.000000,-0.000000,0.000000,179.878526,0.039652,-44.961819,0.121474,-0.039652,44.961819,-0.000973,0.000001,0.000434,0.000000,0.000000,0.000000,-0.032801,-0.007880,0.017187
0.117000,0.307000,0.000000,0.367000,0.499252,-0.000178,0.281069,0.499418,-0.000118,0.281311,0.192252,-0.000178,-0.085931,0.210582,0.001747,-0.001500,0.784729,0.784732,44.961833,180.000000,-0.000000,0.000000,179.877850,0.040083,-44.961703,0.122150,-0.040083,44.961703,-0.000998,0.000001,0.000444,0.000000,0.000000,0.000000,-0.037126,-0.018170,0.070154
0.118000,0.307000,0.000000,0.367000,0.499252,-0.000178,0.281071,0.499417,-0.000118,0.281312,0.192252,-0.000178,-0.085929,0.210582,0.001745,-0.001495,0.784734,0.784738,44.962151,180.000000,-0.000000,0.000000,179.878043,0.039880,-44.962022,0.121957,-0.039880,44.962022,-0.001022,0.000001,0.000455,0.000000,0.000000,0.000000,-0.035464,0.024658,-0.005965
0.119000,0.307000,0.000000,0.367000,0.499253,-0.000179,0.281073,0.499416,-0.000118,0.281312,0.192253,-0.000179,-0.085927,0.210582,0.001746,-0.001490,0.784728,0.784731,44.961774,180.000000,-0.000000,0.000000,179.878098,0.039605,-44.961643,0.121902,-0.039605,44.961643,-0.001047,0.000001,0.000466,0.000000,0.000000,0.000000,-0.028835,0.021870,-0.073762
0.120000,0.307000,0.000000,0.367000,0.499250,-0.000179,0.281068,0.499414,-0.000118,0.281313,0.192250,-0.000179,-0.085932,0.210581,0.001754,-0.001499,0.784726,0.784730,44.961694,180.000000,-0.000000,0.000000,179.877500,0.039878,-44.961563,0.122500,-0.039878,44.961563,-0.001073,0.000001,0.000478,0.000000,0.000000,0.000000,-0.021983,0.004042,0.026986
0.121000,0.307000,0.000000,0.367000,0.499248,-0.000177,0.281066,0.499413,-0.000118,0.281313,0.192248,-0.000177,-0.085934,0.210581,0.001757,-0.001503,0.784726,0.784729,44.961672,180.000000,-0.000000,0.000000,179.877258,0.040004,-44.961539,0.122742,-0.040004,44.961539,-0.001098,0.000001,0.000489,0.000000,0.000000,0.000000,-0.011576,0.039468,0.039211
0.122000,0.307000,0.000000,0.367000,0.499248,-0.000178,0.281066,0.499412,-0.000118,0.281314,0.192248,-0.000178,-0.085934,0.210580,0.001757,-0.001502,0.784722,0.784726,44.961474,180.000000,-0.000000,0.000000,179.877273,0.040006,-44.961341,0.122727,-0.040006,44.961341,-0.001124,0.000001,0.000501,0.000000,0.000000,0.000000,-0.012771,0.001376,0.027207
0.123000,0.307000,0.000000,0.367000,0.499248,-0.000179,0.281065,0.499411,-0.000118,0.281314,0.192248,-0.000179,-0.085935,0.210580,0.001759,-0.001501,0.784726,0.784729,44.961663,180.000000,-0.000000,0.000000,179.877179,0.039886,-44.961529,0.122821,-0.039886,44.961529,-0.001151,0.000001,0.000512,0.000000,0.000000,0.000000,0.040350,-0.001901,-0.004725
0.124000,0.307000,0.000000,0.367000,0.499247,-0.000179,0.281064,0.499410,-0.000118,0.281315,0.192247,-0.000179,-0.085936,0.210580,0.001762,-0.001503,0.784718,0.784721,44.961226,180.000000,-0.000000,0.000000,179.877006,0.039936,-44.961095,0.122994,-0.039936,44.961095,-0.001177,0.000001,0.000524,0.000000,0.000000,0.000000,0.023446,0.002558,-0.004967
0.125000,0.307000,0.000000,0.367000,0.499247,-0.000179,0.281065,0.499409,-0.000118,0.281315,0.192247,-0.000179,-0.085935,0.210579,0.001763,-0.001501,0.784717,0.784721,44.961185,180.000000,-0.000000,0.000000,179.876982,0.039785,-44.961051,0.123018,-0.039785,44.961051,-0.001204,0.000001,0.000536,0.000000,0.000000,0.000000,0.013175,0.022683,-0.005080
0.126000,0.307000,0.000000,0.367000,0.499244,-0.000175,0.281061,0.499407,-0.000118,0.281316,0.192244,-0.000175,-0.085939,0.210578,0.001766,-0.001510,0.784714,0.784717,44.960976,180.000000,-0.000000,0.000000,179.876646,0.040209,-44.960843,0.123354,-0.040209,44.960843,-0.001232,0.000001,0.000548,0.000000,0.000000,0.000000,-0.025509,-0.005066,0.072127
0.127000,0.307000,0.000000,0.367000,0.499244,-0.000175,0.281060,0.499406,-0.000118,0.281316,0.192244,-0.000175,-0.085940,0.210579,0.001770,-0.001511,0.784708,0.784711,44.960635,180.000000,-0.000000,0.000000,179.876404,0.040168,-44.960501,0.123596,-0.040168,44.960501,-0.001259,0.000001,0.000561,0.000000,0.000000,0.000000,-0.030170,-0.004822,0.051101
0.128000,0.307000,0.000000,0.367000,0.499243,-0.000179,0.281060,0.499405,-0.000118,0.281317,0.192243,-0.000179,-0.085940,0.210578,0.001770,-0.001513,0.784721,0.784724,44.961396,180.000000,-0.000000,0.000000,179.876393,0.040249,-44.961261,0.123607,-0.040249,44.961261,-0.001287,0.000001,0.000573,0.000000,0.000000,0.000000,-0.002494,-0.018392,-0.044036
0.129000,0.307000,0.000000,0.367000,0.499241,-0.000181,0.281058,0.499404,-0.000118,0.281317,0.192241,-0.000181,-0.085942,0.210577,0.001775,-0.001516,0.784723,0.784727,44.961542,180.000000,-0.000000,0.000000,179.876036,0.040340,-44.961406,0.123964,-0.040340,44.961406,-0.001316,0.000001,0.000586,0.000000,0.000000,0.000000,0.008026,-0.004033,0.032093
0.130000,0.307000,0.000000,0.367000,0.499241,-0.000179,0.281057,0.499402,-0.000118,0.281318,0.192241,-0.000179,-0.085943,0.210577,0.001777,-0.001518,0.784712,0.784715,44.960864,180.000000,-0.000000,0.000000,179.875925,0.040388,-44.960728,0.124075,-0.040388,44.960728,-0.001344,0.000001,0.000599,0.000000,0.000000,0.000000,-0.027078,0.001052,0.015504
0.131000,0.307000,0.000000,0.367000,0.499239,-0.000176,0.281054,0.499401,-0.000118,0.281319,0.192239,-0.000176,-0.085946,0.210577,0.001779,-0.001524,0.784705,0.784709,44.960503,180.000000,-0.000000,0.000000,179.875656,0.040668,-44.960368,0.124344,-0.040668,44.960368,-0.001373,0.000001,0.000612,0.000000,0.000000,0.000000,-0.020015,-0.014444,0.014668
0.132000,0.307000,0.000000,0.367000,0.499239,-0.000179,0.281053,0.499399,-0.000118,0.281319,0.192239,-0.000179,-0.085947,0.210577,0.001784,-0.001525,0.784705,0.784708,44.960469,180.000000,-0.000000,0.000000,179.875421,0.040607,-44.960331,0.124579,-0.040607,44.960331,-0.001403,0.000001,0.000625,0.000000,0.000000,0.000000,0.035983,0.003099,0.049218
0.133000,0.307000,0.000000,0.367000,0.499238,-0.000181,0.281053,0.499398,-0.000118,0.281320,0.192238,-0.000181,-0.085947,0.210576,0.001783,-0.001526,0.784709,0.784712,44.960712,180.000000,-0.000000,0.000000,179.875395,0.040676,-44.960575,0.124605,-0.040676,44.960575,-0.001432,0.000001,0.000638,0.000000,0.000000,0.000000,-0.005828,0.042380,0.044168
0.134000,0.307000,0.000000,0.367000,0.499237,-0.000180,0.281052,0.499397,-0.000118,0.281321,0.192237,-0.000180,-0.085948,0.210575,0.001789,-0.001525,0.784708,0.784711,44.960653,180.000000,-0.000000,0.000000,179.875163,0.040492,-44.960515,0.124837,-0.040492,44.960515,-0.001462,0.000001,0.000651,0.000000,0.000000,0.000000,-0.014750,0.017096,0.016371
0.135000,0.307000,0.000000,0.367000,0.499235,-0.000179,0.281051,0.499395,-0.000118,0.281321,0.192235,-0.000179,-0.085949,0.210575,0.001790,-0.001527,0.784702,0.784706,44.960314,180.000000,-0.000000,0.000000,179.875029,0.040589,-44.960177,0.124971,-0.040589,44.960177,-0.001493,0.000001,0.000665,0.000000,0.000000,0.000000,-0.004413,0.016678,0.026535
0.136000,0.307000,0.000000,0.367000,0.499236,-0.000180,0.281051,0.499394,-0.000118,0.281322,0.192236,-0.000180,-0.085949,0.210576,0.001790,-0.001527,0.784705,0.784708,44.960459,180.000000,-0.000000,0.000000,179.875060,0.040598,-44.960322,0.124940,-0.040598,44.960322,-0.001523,0.000001,0.000678,0.000000,0.000000,0.000000,-0.009413,-0.003112,0.025632
0.137000,0.307000,0.000000,0.367000,0.499235,-0.000178,0.281050,0.499392,-0.000118,0.281323,0.192235,-0.000178,-0.085950,0.210575,0.001793,-0.001527,0.784703,0.784707,44.960382,180.000000,-0.000000,0.000000,179.874878,0.040521,-44.960245,0.125122,-0.040521,44.960245,-0.001554,0.000001,0.000692,0.000000,0.000000,0.000000,0.012221,0.012645,0.020237
0.138000,0.307000,0.000000,0.367000,0.499235,-0.000178,0.281050,0.499390,-0.000118,0.281323,0.192235,-0.000178,-0.085950,0.210574,0.001794,-0.001529,0.784699,0.784703,44.960155,180.000000,-0.000000,0.000000,179.874814,0.040581,-44.960018,0.125186,-0.040581,44.960018,-0.001586,0.000001,0.000706,0.000000,0.000000,0.000000,0.032396,0.013979,-0.088678
0.139000,0.307000,0.000000,0.367000,0.499232,-0.000180,0.281046,0.499389,-0.000118,0.281324,0.192232,-0.000180,-0.085954,0.210574,0.001799,-0.001535,0.784704,0.784707,44.960423,180.000000,-0.000000,0.000000,179.874413,0.040799,-44.960283,0.125587,-0.040799,44.960283,-0.001618,0.000001,0.000720,0.000000,0.000000,0.000000,0.038040,0.008173,0.030745
0.140000,0.307000,0.000000,0.367000,0.499232,-0.000181,0.281047,0.499387,-0.000118,0.281325,0.192232,-0.000181,-0.085953,0.210573,0.001801,-0.001534,0.784703,0.784707,44.960394,180.000000,-0.000000,0.000000,179.874328,0.040714,-44.960254,0.125672,-0.040714,44.960254,-0.001650,0.000001,0.000735,0.000000,0.000000,0.000000,0.017063,0.000139,0.080301
0.141000,0.307000,0.000000,0.367000,0.499233,-0.000179,0.281048,0.499385,-0.000118,0.281326,0.192233,-0.000179,-0.085952,0.210573,0.001799,-0.001529,0.784701,0.784704,44.960233,180.000000,-0.000000,0.000000,179.874527,0.040504,-44.960095,0.125473,-0.040504,44.960095,-0.001682,0.000001,0.000749,0.000000,0.000000,0.000000,0.007211,0.003162,-0.043053
0.142000,0.307000,0.000000,0.367000,0.499231,-0.000179,0.281048,0.499384,-0.000118,0.281326,0.192231,-0.000179,-0.085952,0.210572,0.001802,-0.001530,0.784701,0.784704,44.960250,180.000000,-0.000000,0.000000,179.874364,0.040495,-44.960109,0.125636,-0.040495,44.960109,-0.001715,0.000001,0.000764,0.000000,0.000000,0.000000,0.003353,0.000335,0.004128
0.143000,0.307000,0.000000,0.367000,0.499231,-0.000179,0.281046,0.499382,-0.000118,0.281327,0.192231,-0.000179,-0.085954,0.210573,0.001806,-0.001534,0.784700,0.784703,44.960198,180.000000,-0.000000,0.000000,179.874080,0.040588,-44.960059,0.125920,-0.040588,44.960059,-0.001748,0.000001,0.000778,0.000000,0.000000,0.000000,0.021998,0.010780,-0.002443
0.144000,0.307000,0.000000,0.367000,0.499229,-0.000182,0.281044,0.499380,-0.000118,0.281328,0.192229,-0.000182,-0.085956,0.210571,0.001809,-0.001537,0.784699,0.784703,44.960175,180.000000,-0.000000,0.000000,179.873834,0.040685,-44.960034,0.126166,-0.040685,44.960034,-0.001781,0.000001,0.000793,0.000000,0.000000,0.000000,-0.025298,-0.005691,0.004061
0.145000,0.307000,0.000000,0.367000,0.499229,-0.000183,0.281043,0.499378,-0.000118,0.281329,0.192229,-0.000183,-0.085957,0.210572,0.001812,-0.001539,0.784705,0.784709,44.960517,180.000000,-0.000000,0.000000,179.873680,0.040724,-44.960375,0.126320,-0.040724,44.960375,-0.001815,0.000001,0.000808,0.000000,0.000000,0.000000,-0.032663,-0.006355,-0.028482
0.146000,0.307000,0.000000,0.367000,0.499227,-0.000185,0.281041,0.499377,-0.000118,0.281330,0.192227,-0.000185,-0.085959,0.210572,0.001812,-0.001542,0.784706,0.784710,44.960562,180.000000,-0.000000,0.000000,179.873583,0.040892,-44.960421,0.126417,-0.040892,44.960421,-0.001849,0.000001,0.000823,0.000000,0.000000,0.000000,-0.035529,0.028925,-0.086131
0.147000,0.307000,0.000000,0.367000,0.499225,-0.000182,0.281039,0.499375,-0.000118,0.281330,0.192225,-0.000182,-0.085961,0.210570,0.001815,-0.001548,0.784693,0.784697,44.959832,180.000000,-0.000000,0.000000,179.873276,0.041123,-44.959692,0.126724,-0.041123,44.959692,-0.001884,0.000001,0.000839,0.000000,0.000000,0.000000,-0.019074,0.043422,-0.048006
0.148000,0.307000,0.000000,0.367000,0.499224,-0.000181,0.281038,0.499373,-0.000118,0.281331,0.192224,-0.000181,-0.085962,0.210570,0.001818,-0.001548,0.784696,0.784699,44.959960,180.000000,-0.000000,0.000000,179.873174,0.041072,-44.959817,0.126826,-0.041072,44.959817,-0.001918,0.000001,0.000854,0.000000,0.000000,0.000000,0.038376,0.009941,0.009465
0.149000,0.307000,0.000000,0.367000,0.499225,-0.000185,0.281038,0.499371,-0.000118,0.281332,0.192225,-0.000185,-0.085962,0.210570,0.001818,-0.001547,0.784703,0.784707,44.960401,180.000000,-0.000000,0.000000,179.873182,0.040976,-44.960259,0.126818,-0.040976,44.960259,-0.001953,0.000001,0.000870,0.000000,0.000000,0.000000,-0.026339,0.024733,0.005495
0.150000,0.307000,0.000000,0.367000,0.499223,-0.000182,0.281036,0.499369,-0.000118,0.281333,0.192223,-0.000182,-0.085964,0.210570,0.001822,-0.001551,0.784695,0.784698,44.959910,180.000000,-0.000000,0.000000,179.872857,0.041119,-44.959766,0.127143,-0.041119,44.959766,-0.001989,0.000001,0.000886,0.000000,0.000000,0.000000,-0.034150,0.012395,-0.017481
0.151000,0.307000,0.000000,0.367000,0.499222,-0.000184,0.281033,0.499367,-0.000118,0.281334,0.192222,-0.000184,-0.085967,0.210570,0.001823,-0.001556,0.784698,0.784702,44.960090,180.000000,-0.000000,0.000000,179.872707,0.041365,-44.959948,0.127293,-0.041365,44.959948,-0.002025,0.000001,0.000902,0.000000,0.000000,0.000000,0.008615,-0.010319,-0.014422
0.152000,0.307000,0.000000,0.367000,0.499223,-0.000183,0.281036,0.499365,-0.000118,0.281335,0.192223,-0.000183,-0.085964,0.210570,0.001825,-0.001551,0.784690,0.784693,44.959622,180.000000,-0.000000,0.000000,179.872751,0.041052,-44.959479,0.127249,-0.041052,44.959479,-0.002061,0.000001,0.000918,0.000000,0.000000,0.000000,-0.027448,-0.031735,-0.045169
0.153000,0.307000,0.000000,0.367000,0.499221,-0.000184,0.281034,0.499363,-0.000118,0.281336,0.192221,-0.000184,-0.085966,0.210568,0.001828,-0.001556,0.784693,0.784697,44.959801,180.000000,-0.000000,0.000000,179.872463,0.041270,-44.959658,0.127537,-0.041270,44.959658,-0.002097,0.000001,0.000934,0.000000,0.000000,0.000000,-0.010692,-0.021532,-0.056775
0.154000,0.307000,0.000000,0.367000,0.499220,-0.000184,0.281033,0.499361,-0.000118,0.281337,0.192220,-0.000184,-0.085967,0.210568,0.001828,-0.001558,0.784689,0.784692,44.959550,180.000000,-0.000000,0.000000,179.872401,0.041361,-44.959407,0.127599,-0.041361,44.959407,-0.002134,0.000001,0.000950,0.000000,0.000000,0.000000,-0.016262,-0.013576,0.029600
0.155000,0.307000,0.000000,0.367000,0.499220,-0.000187,0.281032,0.499358,-0.000118,0.281338,0.192220,-0.000187,-0.085968,0.210568,0.001829,-0.001559,0.784693,0.784697,44.959821,180.000000,-0.000000,0.000000,179.872335,0.041403,-44.959677,0.127665,-0.041403,44.959677,-0.002171,0.000001,0.000967,0.000000,0.000000,0.000000,0.018301,-0.021642,0.027185
0.156000,0.307000,0.000000,0.367000,0.499217,-0.000185,0.281030,0.499356,-0.000118,0.281339,0.192217,-0.000185,-0.085970,0.210567,0.001831,-0.001566,0.784693,0.784696,44.959782,180.000000,-0.000000,0.000000,179.872095,0.041694,-44.959638,0.127905,-0.041694,44.959638,-0.002209,0.000001,0.000984,0.000000,0.000000,0.000000,0.021722,-0.009329,0.000995
0.157000,0.307000,0.000000,0.367000,0.499216,-0.000183,0.281029,0.499354,-0.000118,0.281340,0.192216,-0.000183,-0.085971,0.210566,0.001833,-0.001569,0.784682,0.784685,44.959157,180.000000,-0.000000,0.000000,179.871951,0.041804,-44.959011,0.128049,-0.041804,44.959011,-0.002246,0.000001,0.001000,0.000000,0.000000,0.000000,0.028575,-0.016132,0.029008
0.158000,0.307000,0.000000,0.367000,0.499217,-0.000186,0.281028,0.499352,-0.000118,0.281341,0.192217,-0.000186,-0.085972,0.210567,0.001832,-0.001569,0.784686,0.784689,44.959393,180.000000,-0.000000,0.000000,179.871980,0.041829,-44.959247,0.128020,-0.041829,44.959247,-0.002284,0.000001,0.001017,0.000000,0.000000,0.000000,0.034602,0.001045,0.055198
0.159000,0.307000,0.000000,0.367000,0.499216,-0.000187,0.281029,0.499349,-0.000118,0.281342,0.192216,-0.000187,-0.085971,0.210566,0.001833,-0.001566,0.784690,0.784694,44.959642,180.000000,-0.000000,0.000000,179.871970,0.041661,-44.959498,0.128030,-0.041661,44.959498,-0.002323,0.000001,0.001034,0.000000,0.000000,0.000000,0.037990,-0.018416,0.009181
0.160000,0.307000,0.000000,0.367000,0.499215,-0.000186,0.281027,0.499347,-0.000118,0.281343,0.192215,-0.000186,-0.085973,0.210566,0.001835,-0.001568,0.784680,0.784684,44.959075,180.000000,-0.000000,0.000000,179.871854,0.041704,-44.958928,0.128146,-0.041704,44.958928,-0.002362,0.000001,0.001052,0.000000,0.000000,0.000000,0.011197,-0.039934,0.062522
0.161000,0.307000,0.000000,0.367000,0.499217,-0.000185,0.281028,0.499345,-0.000118,0.281344,0.192217,-0.000185,-0.085972,0.210567,0.001833,-0.001564,0.784681,0.784685,44.959111,180.000000,-0.000000,0.000000,179.872011,0.041571,-44.958967,0.127989,-0.041571,44.958967,-0.002401,0.000001,0.001069,0.000000,0.000000,0.000000,-0.026073,-0.015353,-0.015200
0.162000,0.307000,0.000000,0.367000,0.499214,-0.000187,0.281025,0.499342,-0.000118,0.281345,0.192214,-0.000187,-0.085975,0.210566,0.001839,-0.001574,0.784684,0.784688,44.959306,180.000000,-0.000000,0.000000,179.871512,0.041944,-44.959160,0.128488,-0.041944,44.959160,-0.002440,0.000001,0.001087,0.000000,0.000000,0.000000,-0.015759,0.008131,-0.081791
0.163000,0.307000,0.000000,0.367000,0.499213,-0.000186,0.281025,0.499340,-0.000118,0.281346,0.192213,-0.000186,-0.085975,0.210565,0.001840,-0.001574,0.784680,0.784684,44.959073,180.000000,-0.000000,0.000000,179.871479,0.041936,-44.958928,0.128521,-0.041936,44.958928,-0.002480,0.000002,0.001104,0.000000,0.000000,0.000000,0.036530,0.002415,-0.023966
0.164000,0.307000,0.000000,0.367000,0.499212,-0.000186,0.281023,0.499337,-0.000118,0.281347,0.192212,-0.000186,-0.085977,0.210565,0.001839,-0.001578,0.784691,0.784695,44.959693,180.000000,-0.000000,0.000000,179.871421,0.042142,-44.959547,0.128579,-0.042142,44.959547,-0.002520,0.000002,0.001122,0.000000,0.000000,0.000000,0.011917,0.003691,0.052655
0.165000,0.307000,0.000000,0.367000,0.499213,-0.000185,0.281025,0.499335,-0.000118,0.281348,0.192213,-0.000185,-0.085975,0.210564,0.001839,-0.001572,0.784684,0.784687,44.959272,180.000000,-0.000000,0.000000,179.871564,0.041832,-44.959126,0.128436,-0.041832,44.959126,-0.002560,0.000002,0.001140,0.000000,0.000000,0.000000,0.009984,-0.021513,0.020478
0.166000,0.307000,0.000000,0.367000,0.499212,-0.000189,0.281024,0.499332,-0.000118,0.281349,0.192212,-0.000189,-0.085976,0.210564,0.001840,-0.001576,0.784689,0.784693,44.959596,180.000000,-0.000000,0.000000,179.871399,0.042013,-44.959450,0.128601,-0.042013,44.959450,-0.002601,0.000002,0.001158,0.000000,0.000000,0.000000,-0.022719,0.005533,-0.029855
0.167000,0.307000,0.000000,0.367000,0.499211,-0.000189,0.281023,0.499329,-0.000118,0.281351,0.192211,-0.000189,-0.085977,0.210564,0.001843,-0.001574,0.784693,0.784697,44.959800,180.000000,-0.000000,0.000000,179.871291,0.041857,-44.959653,0.128709,-0.041857,44.959653,-0.002642,0.000002,0.001177,0.000000,0.000000,0.000000,0.002659,0.006602,-0.010985
0.168000,0.307000,0.000000,0.367000,0.499211,-0.000186,0.281022,0.499327,-0.000118,0.281352,0.192211,-0.000186,-0.085978,0.210564,0.001846,-0.001579,0.784681,0.784685,44.959132,180.000000,-0.000000,0.000000,179.871062,0.042088,-44.958986,0.128938,-0.042088,44.958986,-0.002684,0.000002,0.001195,0.000000,0.000000,0.000000,0.034833,0.002912,-0.082090
