t,target_x,target_y,target_z,actual_x,actual_y,actual_z,inner_x,inner_y,inner_z,position_error_x,position_error_y,position_error_z,position_error_norm,orientation_error_x,orientation_error_y,orientation_error_z,orientation_error_norm_rad,orientation_error_norm_deg,target_roll_deg,target_pitch_deg,target_yaw_deg,actual_roll_deg,actual_pitch_deg,actual_yaw_deg,error_roll_deg,error_pitch_deg,error_yaw_deg,inner_vx,inner_vy,inner_vz,filtered_fx,filtered_fy,filtered_fz,masked_fx,masked_fy,masked_fz
0.000000,0.307000,0.000000,0.367000,0.305612,0.002301,0.364154,0.305612,0.002301,0.364154,-0.001388,0.002301,-0.002846,0.003914,0.138048,-0.047267,-0.241485,0.282146,16.165797,180.000000,-0.000000,0.000000,172.483276,3.623536,13.622517,7.516724,-3.623536,-13.622517,0.000000,0.000000,0.000000,0.000000,0.000000,0.000000,0.000000,0.000000,0.000000
0.001000,0.307000,0.000000,0.367000,0.305612,0.002302,0.364153,0.305612,0.002301,0.364154,-0.001388,0.002302,-0.002847,0.003916,0.138046,-0.047270,-0.241481,0.282142,16.165574,180.000000,-0.000000,0.000000,172.483387,3.623696,13.622267,7.516613,-3.623696,-13.622267,0.000000,0.000000,0.000000,0.000000,0.000000,0.000000,0.020179,-0.003209,-0.003584
0.002000,0.307000,0.000000,0.367000,0.305611,0.002301,0.364150,0.305612,0.002301,0.364154,-0.001389,0.002301,-0.002850,0.003918,0.138046,-0.047281,-0.241493,0.282154,16.166247,180.000000,-0.000000,0.000000,172.483466,3.624340,13.622889,7.516534,-3.624340,-13.622889,0.000000,-0.000000,0.000000,0.000000,0.000000,0.000000,0.005604,-0.018814,-0.046957
0.003000,0.307000,0.000000,0.367000,0.305611,0.002299,0.364150,0.305612,0.002301,0.364154,-0.001389,0.002299,-0.002850,0.003917,0.138043,-0.047279,-0.241476,0.282138,16.165315,180.000000,-0.000000,0.000000,172.483620,3.624140,13.621954,7.516380,-3.624140,-13.621954,0.000000,-0.000000,0.000000,0.000000,0.000000,0.000000,0.008210,-0.002912,0.000430
0.004000,0.307000,0.000000,0.367000,0.305610,0.002301,0.364150,0.305612,0.002301,0.364154,-0.001390,0.002301,-0.002850,0.003918,0.138044,-0.047277,-0.241487,0.282148,16.165871,180.000000,-0.000000,0.000000,172.483585,3.624082,13.622601,7.516415,-3.624082,-13.622601,0.000000,-0.000000,0.000000,0.000000,0.000000,0.000000,0.019056,-0.008507,0.000377
0.005000,0.307000,0.000000,0.367000,0.305609,0.002300,0.364148,0.305612,0.002301,0.364154,-0.001391,0.002300,-0.002852,0.003920,0.138042,-0.047281,-0.241483,0.282144,16.165654,180.000000,-0.000000,0.000000,172.483697,3.624258,13.622355,7.516303,-3.624258,-13.622355,0.000000,-0.000000,0.000000,0.000000,0.000000,0.000000,-0.007155,-0.006266,-0.039686
0.006000,0.307000,0.000000,0.367000,0.305611,0.002300,0.364148,0.305612,0.002301,0.364154,-0.001389,0.002300,-0.002852,0.003918,0.138041,-0.047279,-0.241480,0.282141,16.165474,180.000000,-0.000000,0.000000,172.483705,3.624130,13.622192,7.516295,-3.624130,-13.622192,0.000000,-0.000000,0.000000,0.000000,0.000000,0.000000,0.009384,-0.012202,0.048994
0.007000,0.307000,0.000000,0.367000,0.305611,0.002301,0.364149,0.305612,0.002301,0.364154,-0.001389,0.002301,-0.002851,0.003918,0.138047,-0.047275,-0.241483,0.282145,16.165744,180.000000,-0.000000,0.000000,172.483345,3.623953,13.622358,7.516655,-3.623953,-13.622358,0.000000,-0.000000,0.000000,0.000000,0.000000,0.000000,-0.009761,-0.028462,0.040046
0.008000,0.307000,0.000000,0.367000,0.305610,0.002301,0.364145,0.305612,0.002301,0.364154,-0.001390,0.002301,-0.002855,0.003922,0.138046,-0.047285,-0.241494,0.282156,16.166362,180.000000,-0.000000,0.000000,172.483490,3.624547,13.622970,7.516510,-3.624547,-13.622970,0.000000,-0.000000,0.000000,0.000000,0.000000,0.000000,-0.000251,-0.008660,-0.067854
0.009000,0.307000,0.000000,0.367000,0.305609,0.002300,0.364146,0.305612,0.002301,0.364154,-0.001391,0.002300,-0.002854,0.003921,0.138045,-0.047282,-0.241483,0.282146,16.165756,180.000000,-0.000000,0.000000,172.483508,3.624366,13.622331,7.516492,-3.624366,-13.622331,0.000000,-0.000000,0.000000,0.000000,0.000000,0.000000,0.020639,-0.003861,-0.033854
0.010000,0.307000,0.000000,0.367000,0.305610,0.002302,0.364145,0.305612,0.002301,0.364154,-0.001390,0.002302,-0.002855,0.003922,0.138047,-0.047282,-0.241490,0.282153,16.166168,180.000000,-0.000000,0.000000,172.483408,3.624407,13.622742,7.516592,-3.624407,-13.622742,0.000000,-0.000000,0.000000,0.000000,0.000000,0.000000,-0.001926,0.007048,-0.083665
0.011000,0.307000,0.000000,0.367000,0.305609,0.002300,0.364145,0.305612,0.002301,0.364154,-0.001391,0.002300,-0.002855,0.003922,0.138043,-0.047285,-0.241483,0.282145,16.165740,180.000000,-0.000000,0.000000,172.483658,3.624518,13.622349,7.516342,-3.624518,-13.622349,0.000000,-0.000000,0.000000,0.000000,0.000000,0.000000,0.021619,-0.024346,-0.067076
0.012000,0.307000,0.000000,0.367000,0.305609,0.002300,0.364146,0.305612,0.002301,0.364154,-0.001391,0.002300,-0.002854,0.003921,0.138042,-0.047285,-0.241476,0.282138,16.165330,180.000000,-0.000000,0.000000,172.483724,3.624453,13.621929,7.516276,-3.624453,-13.621929,0.000000,-0.000000,0.000000,0.000000,0.000000,0.000000,-0.002401,0.005370,-0.038051
0.013000,0.307000,0.000000,0.367000,0.305609,0.002300,0.364146,0.305612,0.002301,0.364154,-0.001391,0.002300,-0.002854,0.003921,0.138040,-0.047284,-0.241480,0.282140,16.165459,180.000000,-0.000000,0.000000,172.483815,3.624391,13.622152,7.516185,-3.624391,-13.622152,0.000000,-0.000000,0.000000,0.000000,0.000000,0.000000,0.015114,0.019366,-0.010305
0.014000,0.307000,0.000000,0.367000,0.305608,0.002301,0.364144,0.305612,0.002301,0.364154,-0.001392,0.002301,-0.002856,0.003923,0.138043,-0.047286,-0.241488,0.282150,16.165983,180.000000,-0.000000,0.000000,172.483684,3.624605,13.622620,7.516316,-3.624605,-13.622620,0.000000,-0.000000,0.000000,0.000000,0.000000,0.000000,0.004907,-0.007223,0.004084
0.015000,0.307000,0.000000,0.367000,0.305607,0.002301,0.364142,0.305612,0.002301,0.364154,-0.001393,0.002301,-0.002858,0.003925,0.138043,-0.047293,-0.241489,0.282152,16.166106,180.000000,-0.000000,0.000000,172.483706,3.624987,13.622651,7.516294,-3.624987,-13.622651,0.000000,-0.000000,0.000000,0.000000,0.000000,0.000000,0.007235,-0.005064,0.029875
0.016000,0.307000,0.000000,0.367000,0.305607,0.002301,0.364142,0.305612,0.002301,0.364154,-0.001393,0.002301,-0.002858,0.003924,0.138046,-0.047290,-0.241489,0.282153,16.166166,180.000000,-0.000000,0.000000,172.483530,3.624857,13.622664,7.516470,-3.624857,-13.622664,0.000000,-0.000000,0.000000,0.000000,0.000000,0.000000,-0.018158,-0.021867,0.013151
0.017000,0.307000,0.000000,0.367000,0.305606,0.002300,0.364141,0.305612,0.002301,0.364154,-0.001394,0.002300,-0.002859,0.003925,0.138043,-0.047295,-0.241482,0.282146,16.165773,180.000000,-0.000000,0.000000,172.483720,3.625067,13.622245,7.516280,-3.625067,-13.622245,0.000000,-0.000000,0.000000,0.000000,0.000000,0.000000,-0.017117,0.015325,0.022679
0.018000,0.307000,0.000000,0.367000,0.305607,0.002300,0.364141,0.305612,0.002301,0.364154,-0.001393,0.002300,-0.002859,0.003925,0.138044,-0.047292,-0.241489,0.282152,16.166112,180.000000,-0.000000,0.000000,172.483665,3.624929,13.622655,7.516335,-3.624929,-13.622655,0.000000,-0.000000,0.000000,0.000000,0.000000,0.000000,-0.030169,-0.005868,0.018213
0.019000,0.307000,0.000000,0.367000,0.305606,0.002300,0.364140,0.305612,0.002301,0.364154,-0.001394,0.002300,-0.002860,0.003926,0.138044,-0.047296,-0.241490,0.282154,16.166216,180.000000,-0.000000,0.000000,172.483680,3.625166,13.622707,7.516320,-3.625166,-13.622707,0.000000,-0.000000,0.000000,0.000000,0.000000,0.000000,-0.005606,-0.034904,-0.006235
0.020000,0.307000,0.000000,0.367000,0.305605,0.002301,0.364139,0.305612,0.002301,0.364154,-0.001395,0.002301,-0.002861,0.003928,0.138048,-0.047300,-0.241484,0.282151,16.166067,180.000000,-0.000000,0.000000,172.483489,3.625416,13.622342,7.516511,-3.625416,-13.622342,0.000000,-0.000000,0.000000,0.000000,0.000000,0.000000,0.009325,-0.018381,-0.019236
0.021000,0.307000,0.000000,0.367000,0.305604,0.002298,0.364137,0.305612,0.002301,0.364154,-0.001396,0.002298,-0.002863,0.003928,0.138043,-0.047304,-0.241482,0.282147,16.165819,180.000000,-0.000000,0.000000,172.483803,3.625589,13.622175,7.516197,-3.625589,-13.622175,0.000000,-0.000000,0.000000,0.000000,0.000000,0.000000,0.024572,-0.026112,-0.042901
0.022000,0.307000,0.000000,0.367000,0.305604,0.002301,0.364136,0.305612,0.002301,0.364154,-0.001396,0.002301,-0.002864,0.003930,0.138049,-0.047304,-0.241492,0.282159,16.166542,180.000000,-0.000000,0.000000,172.483448,3.625669,13.622791,7.516552,-3.625669,-13.622791,0.000000,-0.000000,0.000000,0.000000,0.000000,0.000000,0.045649,-0.036193,0.014369
0.023000,0.307000,0.000000,0.367000,0.305604,0.002302,0.364137,0.305612,0.002301,0.364154,-0.001396,0.002302,-0.002863,0.003930,0.138048,-0.047302,-0.241492,0.282157,16.166431,180.000000,-0.000000,0.000000,172.483527,3.625520,13.622756,7.516473,-3.625520,-13.622756,0.000000,-0.000000,0.000000,0.000000,0.000000,0.000000,0.028880,-0.010383,-0.044227
0.024000,0.307000,0.000000,0.367000,0.305603,0.002299,0.364133,0.305612,0.002301,0.364154,-0.001397,0.002299,-0.002867,0.003932,0.138047,-0.047313,-0.241486,0.282154,16.166262,180.000000,-0.000000,0.000000,172.483617,3.626139,13.622408,7.516383,-3.626139,-13.622408,0.000000,-0.000000,0.000000,0.000000,0.000000,0.000000,-0.004478,-0.017271,-0.009997
0.025000,0.307000,0.000000,0.367000,0.305601,0.002301,0.364132,0.305612,0.002301,0.364154,-0.001399,0.002301,-0.002868,0.003934,0.138046,-0.047314,-0.241489,0.282157,16.166385,180.000000,-0.000000,0.000000,172.483694,3.626214,13.622572,7.516306,-3.626214,-13.622572,0.000000,-0.000000,0.000000,0.000000,0.000000,0.000000,0.009851,0.009063,-0.001535
0.026000,0.307000,0.000000,0.367000,0.305602,0.002300,0.364134,0.305612,0.002301,0.364154,-0.001398,0.002300,-0.002866,0.003932,0.138046,-0.047310,-0.241495,0.282161,16.166616,180.000000,-0.000000,0.000000,172.483688,3.626004,13.622906,7.516312,-3.626004,-13.622906,0.000000,-0.000000,0.000000,0.000000,0.000000,0.000000,-0.001628,-0.011538,-0.016267
0.027000,0.307000,0.000000,0.367000,0.305602,0.002300,0.364134,0.305612,0.002301,0.364154,-0.001398,0.002300,-0.002866,0.003932,0.138044,-0.047309,-0.241487,0.282153,16.166181,180.000000,-0.000000,0.000000,172.483771,3.625862,13.622492,7.516229,-3.625862,-13.622492,0.000000,-0.000000,0.000000,0.000000,0.000000,0.000000,0.002208,-0.042181,0.034212
0.028000,0.307000,0.000000,0.367000,0.305601,0.002300,0.364131,0.305612,0.002301,0.364154,-0.001399,0.002300,-0.002869,0.003934,0.138044,-0.047318,-0.241490,0.282156,16.166376,180.000000,-0.000000,0.000000,172.483841,3.626400,13.622586,7.516159,-3.626400,-13.622586,0.000000,-0.000000,0.000000,0.000000,0.000000,0.000000,0.001575,0.006804,0.031055
0.029000,0.307000,0.000000,0.367000,0.305601,0.002300,0.364131,0.305612,0.002301,0.364154,-0.001399,0.002300,-0.002869,0.003935,0.138045,-0.047316,-0.241489,0.282156,16.166370,180.000000,-0.000000,0.000000,172.483765,3.626320,13.622560,7.516235,-3.626320,-13.622560,0.000000,-0.000000,0.000000,0.000000,0.000000,0.000000,0.004645,-0.005833,0.018769
0.030000,0.307000,0.000000,0.367000,0.305602,0.002301,0.364131,0.305612,0.002301,0.364154,-0.001398,0.002301,-0.002869,0.003935,0.138043,-0.047314,-0.241496,0.282161,16.166618,180.000000,-0.000000,0.000000,172.483885,3.626168,13.622968,7.516115,-3.626168,-13.622968,0.000000,-0.000000,0.000000,0.000000,0.000000,0.000000,-0.026485,0.001590,0.007039
0.031000,0.307000,0.000000,0.367000,0.305600,0.002301,0.364128,0.305612,0.002301,0.364154,-0.001400,0.002301,-0.002872,0.003938,0.138045,-0.047325,-0.241493,0.282161,16.166644,180.000000,-0.000000,0.000000,172.483831,3.626823,13.622755,7.516169,-3.626823,-13.622755,0.000000,-0.000000,0.000000,0.000000,0.000000,0.000000,-0.002762,-0.005541,0.024436
0.032000,0.307000,0.000000,0.367000,0.305600,0.002300,0.364130,0.305612,0.002301,0.364154,-0.001400,0.002300,-0.002870,0.003935,0.138048,-0.047319,-0.241493,0.282161,16.166653,180.000000,-0.000000,0.000000,172.483637,3.626497,13.622761,7.516363,-3.626497,-13.622761,0.000000,-0.000000,0.000000,0.000000,0.000000,0.000000,-0.008014,-0.017540,0.065185
0.033000,0.307000,0.000000,0.367000,0.305600,0.002300,0.364128,0.305612,0.002301,0.364154,-0.001400,0.002300,-0.002872,0.003937,0.138047,-0.047323,-0.241497,0.282166,16.166897,180.000000,-0.000000,0.000000,172.483705,3.626716,13.623014,7.516295,-3.626716,-13.623014,0.000000,-0.000000,0.000000,0.000000,0.000000,0.000000,-0.029601,-0.005746,0.025881
0.034000,0.307000,0.000000,0.367000,0.305601,0.002300,0.364131,0.305612,0.002301,0.364154,-0.001399,0.002300,-0.002869,0.003935,0.138044,-0.047315,-0.241496,0.282162,16.166677,180.000000,-0.000000,0.000000,172.483825,3.626249,13.622977,7.516175,-3.626249,-13.622977,0.000000,-0.000000,0.000000,0.000000,0.000000,0.000000,-0.009688,-0.011053,-0.057489
0.035000,0.307000,0.000000,0.367000,0.305600,0.002301,0.364127,0.305612,0.002301,0.364154,-0.001400,0.002301,-0.002873,0.003938,0.138047,-0.047319,-0.241489,0.282157,16.166428,180.000000,-0.000000,0.000000,172.483676,3.626473,13.622529,7.516324,-3.626473,-13.622529,0.000000,-0.000000,0.000000,0.000000,0.000000,0.000000,0.014390,0.015980,-0.082973
0.036000,0.307000,0.000000,0.367000,0.305599,0.002300,0.364125,0.305612,0.002301,0.364154,-0.001401,0.002300,-0.002875,0.003939,0.138048,-0.047326,-0.241496,0.282165,16.166867,180.000000,-0.000000,0.000000,172.483673,3.626922,13.622893,7.516327,-3.626922,-13.622893,0.000000,-0.000000,0.000000,0.000000,0.000000,0.000000,0.039602,0.033905,-0.017325
0.037000,0.307000,0.000000,0.367000,0.305600,0.002299,0.364125,0.305612,0.002301,0.364154,-0.001400,0.002299,-0.002875,0.003938,0.138043,-0.047328,-0.241496,0.282163,16.166767,180.000000,-0.000000,0.000000,172.483952,3.626974,13.622918,7.516048,-3.626974,-13.622918,0.000000,-0.000000,0.000000,0.000000,0.000000,0.000000,0.017024,-0.009309,0.028509
0.038000,0.307000,0.000000,0.367000,0.305599,0.002300,0.364126,0.305612,0.002301,0.364154,-0.001401,0.002300,-0.002874,0.003938,0.138043,-0.047325,-0.241496,0.282163,16.166726,180.000000,-0.000000,0.000000,172.483936,3.626800,13.622919,7.516064,-3.626800,-13.622919,0.000000,-0.000000,0.000000,0.000000,0.000000,0.000000,0.013758,-0.003429,-0.045531
0.039000,0.307000,0.000000,0.367000,0.305600,0.002302,0.364126,0.305612,0.002301,0.364154,-0.001400,0.002302,-0.002874,0.003939,0.138047,-0.047321,-0.241492,0.282160,16.166600,180.000000,-0.000000,0.000000,172.483675,3.626618,13.622681,7.516325,-3.626618,-13.622681,0.000000,-0.000000,0.000000,0.000000,0.000000,0.000000,-0.011365,-0.036131,0.028647
0.040000,0.307000,0.000000,0.367000,0.305599,0.002301,0.364127,0.305612,0.002301,0.364154,-0.001401,0.002301,-0.002873,0.003938,0.138045,-0.047322,-0.241488,0.282157,16.166383,180.000000,-0.000000,0.000000,172.483830,3.626638,13.622509,7.516170,-3.626638,-13.622509,0.000000,-0.000000,0.000000,0.000000,0.000000,0.000000,-0.015888,-0.033865,-0.005307
0.041000,0.307000,0.000000,0.367000,0.305599,0.002300,0.364125,0.305612,0.002301,0.364154,-0.001401,0.002300,-0.002875,0.003939,0.138046,-0.047328,-0.241493,0.282162,16.166688,180.000000,-0.000000,0.000000,172.483800,3.627008,13.622728,7.516200,-3.627008,-13.622728,0.000000,-0.000000,0.000000,0.000000,0.000000,0.000000,-0.039822,0.004088,0.008175
0.042000,0.307000,0.000000,0.367000,0.305600,0.002302,0.364126,0.305612,0.002301,0.364154,-0.001400,0.002302,-0.002874,0.003939,0.138049,-0.047322,-0.241495,0.282165,16.166845,180.000000,-0.000000,0.000000,172.483563,3.626698,13.622876,7.516437,-3.626698,-13.622876,0.000000,-0.000000,0.000000,0.000000,0.000000,0.000000,-0.029930,0.044151,-0.020078
0.043000,0.307000,0.000000,0.367000,0.305599,0.002301,0.364124,0.305612,0.002301,0.364154,-0.001401,0.002301,-0.002876,0.003941,0.138048,-0.047331,-0.241499,0.282169,16.167075,180.000000,-0.000000,0.000000,172.483695,3.627179,13.623064,7.516305,-3.627179,-13.623064,0.000000,-0.000000,0.000000,0.000000,0.000000,0.000000,-0.027595,0.007195,0.041164
0.044000,0.307000,0.000000,0.367000,0.305599,0.002301,0.364124,0.305612,0.002301,0.364154,-0.001401,0.002301,-0.002876,0.003941,0.138047,-0.047325,-0.241504,0.282171,16.167223,180.000000,-0.000000,0.000000,172.483729,3.626873,13.623357,7.516271,-3.626873,-13.623357,0.000000,-0.000000,0.000000,0.000000,0.000000,0.000000,0.011054,0.030824,0.046240
0.045000,0.307000,0.000000,0.367000,0.305600,0.002300,0.364125,0.305612,0.002301,0.364154,-0.001400,0.002300,-0.002875,0.003939,0.138048,-0.047321,-0.241497,0.282166,16.166915,180.000000,-0.000000,0.000000,172.483636,3.626628,13.623022,7.516364,-3.626628,-13.623022,0.000000,-0.000000,0.000000,0.000000,0.000000,0.000000,0.002693,0.003993,-0.006236
0.046000,0.307000,0.000000,0.367000,0.305599,0.002301,0.364124,0.305612,0.002301,0.364154,-0.001401,0.002301,-0.002876,0.003941,0.138047,-0.047324,-0.241496,0.282165,16.166869,180.000000,-0.000000,0.000000,172.483716,3.626812,13.622956,7.516284,-3.626812,-13.622956,0.000000,-0.000000,0.000000,0.000000,0.000000,0.000000,0.027174,0.015818,-0.037998
0.047000,0.307000,0.000000,0.367000,0.305597,0.002302,0.364121,0.305612,0.002301,0.364154,-0.001403,0.002302,-0.002879,0.003944,0.138047,-0.047333,-0.241498,0.282167,16.167005,180.000000,-0.000000,0.000000,172.483789,3.627319,13.622990,7.516211,-3.627319,-13.622990,0.000000,-0.000000,0.000000,0.000000,0.000000,0.000000,0.000332,-0.004543,-0.028629
0.048000,0.307000,0.000000,0.367000,0.305597,0.002300,0.364121,0.305612,0.002301,0.364154,-0.001403,0.002300,-0.002879,0.003943,0.138042,-0.047332,-0.241489,0.282158,16.166454,180.000000,-0.000000,0.000000,172.484016,3.627159,13.622530,7.515984,-3.627159,-13.622530,0.000000,-0.000000,0.000000,0.000000,0.000000,0.000000,0.014319,0.018101,-0.018047
0.049000,0.307000,0.000000,0.367000,0.305596,0.002300,0.364118,0.305612,0.002301,0.364154,-0.001404,0.002300,-0.002882,0.003945,0.138046,-0.047339,-0.241489,0.282161,16.166611,180.000000,-0.000000,0.000000,172.483880,3.627602,13.622492,7.516120,-3.627602,-13.622492,0.000000,-0.000000,0.000000,0.000000,0.000000,0.000000,0.045437,-0.009744,0.014584
0.050000,0.307000,0.000000,0.367000,0.305597,0.002300,0.364119,0.305612,0.002301,0.364154,-0.001403,0.002300,-0.002881,0.003945,0.138045,-0.047335,-0.241496,0.282165,16.166890,180.000000,-0.000000,0.000000,172.483924,3.627418,13.622902,7.516076,-3.627418,-13.622902,0.000000,-0.000000,0.000000,0.000000,0.000000,0.000000,-0.008473,0.019504,-0.046287
0.051000,0.307000,0.000000,0.367000,0.305596,0.002301,0.364118,0.305612,0.002301,0.364154,-0.001404,0.002301,-0.002882,0.003946,0.138047,-0.047339,-0.241498,0.282168,16.167064,180.000000,-0.000000,0.000000,172.483824,3.627659,13.622970,7.516176,-3.627659,-13.622970,0.000000,-0.000000,0.000000,0.000000,0.000000,0.000000,-0.013635,-0.010911,-0.012895
0.052000,0.307000,0.000000,0.367000,0.305595,0.002300,0.364118,0.305612,0.002301,0.364154,-0.001405,0.002300,-0.002882,0.003946,0.138045,-0.047338,-0.241490,0.282160,16.166604,180.000000,-0.000000,0.000000,172.483937,3.627550,13.622533,7.516063,-3.627550,-13.622533,0.000000,-0.000000,0.000000,0.000000,0.000000,0.000000,-0.007256,0.008771,0.038780
0.053000,0.307000,0.000000,0.367000,0.305596,0.002301,0.364119,0.305612,0.002301,0.364154,-0.001404,0.002301,-0.002881,0.003946,0.138047,-0.047339,-0.241499,0.282170,16.167142,180.000000,-0.000000,0.000000,172.483826,3.627653,13.623063,7.516174,-3.627653,-13.623063,0.000000,-0.000000,0.000000,0.000000,0.000000,0.000000,0.017564,-0.024800,-0.007684
0.054000,0.307000,0.000000,0.367000,0.305595,0.002299,0.364117,0.305612,0.002301,0.364154,-0.001405,0.002299,-0.002883,0.003946,0.138043,-0.047339,-0.241502,0.282170,16.167178,180.000000,-0.000000,0.000000,172.484029,3.627652,13.623223,7.515971,-3.627652,-13.623223,0.000000,-0.000000,0.000000,0.000000,0.000000,0.000000,0.004669,-0.041546,-0.021480
0.055000,0.307000,0.000000,0.367000,0.305595,0.002300,0.364117,0.305612,0.002301,0.364154,-0.001405,0.002300,-0.002883,0.003947,0.138047,-0.047340,-0.241500,0.282171,16.167218,180.000000,-0.000000,0.000000,172.483810,3.627731,13.623117,7.516190,-3.627731,-13.623117,0.000000,-0.000000,0.000000,0.000000,0.000000,0.000000,0.014044,-0.007216,-0.081472
0.056000,0.307000,0.000000,0.367000,0.305595,0.002302,0.364116,0.305612,0.002301,0.364154,-0.001405,0.002302,-0.002884,0.003949,0.138047,-0.047343,-0.241502,0.282173,16.167306,180.000000,-0.000000,0.000000,172.483840,3.627874,13.623191,7.516160,-3.627874,-13.623191,0.000000,-0.000000,0.000000,0.000000,0.000000,0.000000,0.015668,0.004827,0.011548
0.057000,0.307000,0.000000,0.367000,0.305594,0.002299,0.364116,0.305612,0.002301,0.364154,-0.001406,0.002299,-0.002884,0.003947,0.138048,-0.047343,-0.241495,0.282167,16.166994,180.000000,-0.000000,0.000000,172.483764,3.627886,13.622780,7.516236,-3.627886,-13.622780,0.000000,-0.000000,0.000000,0.000000,0.000000,0.000000,0.009174,-0.009432,-0.023558
0.058000,0.307000,0.000000,0.367000,0.305594,0.002301,0.364116,0.305612,0.002301,0.364154,-0.001406,0.002301,-0.002884,0.003948,0.138046,-0.047344,-0.241506,0.282176,16.167511,180.000000,-0.000000,0.000000,172.483920,3.627946,13.623453,7.516080,-3.627946,-13.623453,0.000000,-0.000000,0.000000,0.000000,0.000000,0.000000,0.002710,0.029750,0.008163
0.059000,0.307000,0.000000,0.367000,0.305594,0.002300,0.364117,0.305612,0.002301,0.364154,-0.001406,0.002300,-0.002883,0.003947,0.138047,-0.047340,-0.241497,0.282168,16.167050,180.000000,-0.000000,0.000000,172.483845,3.627690,13.622956,7.516155,-3.627690,-13.622956,0.000000,-0.000000,0.000000,0.000000,0.000000,0.000000,0.011211,0.021622,0.029131
0.060000,0.307000,0.000000,0.367000,0.305593,0.002301,0.364116,0.305612,0.002301,0.364154,-0.001407,0.002301,-0.002884,0.003949,0.138047,-0.047346,-0.241499,0.282171,16.167207,180.000000,-0.000000,0.000000,172.483892,3.628035,13.623053,7.516108,-3.628035,-13.623053,0.000000,-0.000000,0.000000,0.000000,0.000000,0.000000,0.011235,-0.039113,-0.003712
0.061000,0.307000,0.000000,0.367000,0.305594,0.002300,0.364115,0.305612,0.002301,0.364154,-0.001406,0.002300,-0.002885,0.003948,0.138046,-0.047346,-0.241496,0.282168,16.167008,180.000000,-0.000000,0.000000,172.483896,3.628019,13.622828,7.516104,-3.628019,-13.622828,0.000000,-0.000000,0.000000,0.000000,0.000000,0.000000,0.019620,-0.012999,-0.070477
0.062000,0.307000,0.000000,0.367000,0.305594,0.002301,0.364113,0.305612,0.002301,0.364154,-0.001406,0.002301,-0.002887,0.003950,0.138048,-0.047351,-0.241503,0.282176,16.167476,180.000000,-0.000000,0.000000,172.483875,3.628368,13.623250,7.516125,-3.628368,-13.623250,0.000000,-0.000000,0.000000,0.000000,0.000000,0.000000,-0.006704,-0.002433,-0.019064
0.063000,0.307000,0.000000,0.367000,0.305593,0.002300,0.364113,0.305612,0.002301,0.364154,-0.001407,0.002300,-0.002887,0.003950,0.138045,-0.047347,-0.241497,0.282168,16.167059,180.000000,-0.000000,0.000000,172.483991,3.628081,13.622922,7.516009,-3.628081,-13.622922,0.000000,-0.000000,0.000000,0.000000,0.000000,0.000000,-0.032769,-0.029402,-0.004814
0.064000,0.307000,0.000000,0.367000,0.305591,0.002299,0.364112,0.305612,0.002301,0.364154,-0.001409,0.002299,-0.002888,0.003951,0.138048,-0.047356,-0.241503,0.282176,16.167493,180.000000,-0.000000,0.000000,172.483907,3.628604,13.623211,7.516093,-3.628604,-13.623211,0.000000,-0.000000,0.000000,0.000000,0.000000,0.000000,-0.000258,0.018302,0.026259
0.065000,0.307000,0.000000,0.367000,0.305592,0.002299,0.364112,0.305612,0.002301,0.364154,-0.001408,0.002299,-0.002888,0.003951,0.138047,-0.047355,-0.241503,0.282176,16.167481,180.000000,-0.000000,0.000000,172.483943,3.628575,13.623227,7.516057,-3.628575,-13.623227,0.000000,-0.000000,0.000000,0.000000,0.000000,0.000000,-0.012665,0.029338,0.028838
0.066000,0.307000,0.000000,0.367000,0.305593,0.002300,0.364112,0.305612,0.002301,0.364154,-0.001407,0.002300,-0.002888,0.003952,0.138047,-0.047354,-0.241499,0.282173,16.167308,180.000000,-0.000000,0.000000,172.483911,3.628527,13.623022,7.516089,-3.628527,-13.623022,0.000000,-0.000000,0.000000,0.000000,0.000000,0.000000,0.001849,-0.000466,-0.053242
0.067000,0.307000,0.000000,0.367000,0.305592,0.002301,0.364112,0.305612,0.002301,0.364154,-0.001408,0.002301,-0.002888,0.003952,0.138046,-0.047352,-0.241499,0.282171,16.167220,180.000000,-0.000000,0.000000,172.483964,3.628375,13.623000,7.516036,-3.628375,-13.623000,0.000000,-0.000000,0.000000,0.000000,0.000000,0.000000,-0.012054,0.014752,-0.007708
0.068000,0.307000,0.000000,0.367000,0.305592,0.002299,0.364111,0.305612,0.002301,0.364154,-0.001408,0.002299,-0.002889,0.003951,0.138048,-0.047353,-0.241495,0.282169,16.167101,180.000000,-0.000000,0.000000,172.483835,3.628419,13.622773,7.516165,-3.628419,-13.622773,0.000000,-0.000000,0.000000,0.000000,0.000000,0.000000,-0.029293,0.012996,0.071325
0.069000,0.307000,0.000000,0.367000,0.305592,0.002301,0.364111,0.305612,0.002301,0.364154,-0.001408,0.002301,-0.002889,0.003952,0.138048,-0.047353,-0.241501,0.282174,16.167399,180.000000,-0.000000,0.000000,172.483844,3.628430,13.623122,7.516156,-3.628430,-13.623122,0.000000,-0.000000,0.000000,0.000000,0.000000,0.000000,-0.026348,0.010372,0.030124
0.070000,0.307000,0.000000,0.367000,0.305592,0.002300,0.364112,0.305612,0.002301,0.364154,-0.001408,0.002300,-0.002888,0.003951,0.138047,-0.047351,-0.241502,0.282174,16.167381,180.000000,-0.000000,0.000000,172.483894,3.628360,13.623153,7.516106,-3.628360,-13.623153,0.000000,-0.000000,0.000000,0.000000,0.000000,0.000000,-0.007552,0.040513,-0.054324
0.071000,0.307000,0.000000,0.367000,0.305592,0.002299,0.364111,0.305612,0.002301,0.364154,-0.001408,0.002299,-0.002889,0.003952,0.138048,-0.047352,-0.241498,0.282171,16.167204,180.000000,-0.000000,0.000000,172.483876,3.628401,13.622921,7.516124,-3.628401,-13.622921,0.000000,-0.000000,0.000000,0.000000,0.000000,0.000000,0.019287,0.007360,-0.079516
0.072000,0.307000,0.000000,0.367000,0.305590,0.002302,0.364109,0.305612,0.002301,0.364154,-0.001410,0.002302,-0.002891,0.003956,0.138049,-0.047357,-0.241511,0.282184,16.167940,180.000000,-0.000000,0.000000,172.483844,3.628703,13.623665,7.516156,-3.628703,-13.623665,0.000000,-0.000000,0.000000,0.000000,0.000000,0.000000,-0.004986,-0.016041,-0.004370
0.073000,0.307000,0.000000,0.367000,0.305592,0.002300,0.364109,0.305612,0.002301,0.364154,-0.001408,0.002300,-0.002891,0.003954,0.138047,-0.047358,-0.241508,0.282181,16.167759,180.000000,-0.000000,0.000000,172.483945,3.628763,13.623492,7.516055,-3.628763,-13.623492,0.000000,-0.000000,0.000000,0.000000,0.000000,0.000000,-0.000187,-0.039040,0.033177
0.074000,0.307000,0.000000,0.367000,0.305592,0.002301,0.364111,0.305612,0.002301,0.364154,-0.001408,0.002301,-0.002889,0.003953,0.138048,-0.047352,-0.241504,0.282177,16.167528,180.000000,-0.000000,0.000000,172.483845,3.628425,13.623275,7.516155,-3.628425,-13.623275,0.000000,-0.000000,0.000000,0.000000,0.000000,0.000000,-0.009445,0.000163,0.069847
0.075000,0.307000,0.000000,0.367000,0.305591,0.002301,0.364109,0.305612,0.002301,0.364154,-0.001409,0.002301,-0.002891,0.003955,0.138051,-0.047357,-0.241510,0.282184,16.167955,180.000000,-0.000000,0.000000,172.483746,3.628726,13.623620,7.516254,-3.628726,-13.623620,0.000000,-0.000000,0.000000,0.000000,0.000000,0.000000,0.009144,0.009489,-0.001100
0.076000,0.307000,0.000000,0.367000,0.305591,0.002303,0.364110,0.305612,0.002301,0.364154,-0.001409,0.002303,-0.002890,0.003955,0.138048,-0.047350,-0.241507,0.282179,16.167683,180.000000,-0.000000,0.000000,172.483832,3.628333,13.623479,7.516168,-3.628333,-13.623479,0.000000,-0.000000,0.000000,0.000000,0.000000,0.000000,0.004342,0.033091,0.058281
0.077000,0.307000,0.000000,0.367000,0.305591,0.002301,0.364110,0.305612,0.002301,0.364154,-0.001409,0.002301,-0.002890,0.003953,0.138047,-0.047353,-0.241499,0.282172,16.167243,180.000000,-0.000000,0.000000,172.483931,3.628432,13.622988,7.516069,-3.628432,-13.622988,0.000000,-0.000000,0.000000,0.000000,0.000000,0.000000,-0.004161,0.029994,0.041170
0.078000,0.307000,0.000000,0.367000,0.305590,0.002301,0.364108,0.305612,0.002301,0.364154,-0.001410,0.002301,-0.002892,0.003956,0.138048,-0.047359,-0.241508,0.282181,16.167800,180.000000,-0.000000,0.000000,172.483919,3.628816,13.623509,7.516081,-3.628816,-13.623509,0.000000,-0.000000,0.000000,0.000000,0.000000,0.000000,-0.004548,0.045187,0.039618
0.079000,0.307000,0.000000,0.367000,0.305591,0.002301,0.364110,0.305612,0.002301,0.364154,-0.001409,0.002301,-0.002890,0.003954,0.138050,-0.047357,-0.241514,0.282187,16.168103,180.000000,-0.000000,0.000000,172.483808,3.628729,13.623827,7.516192,-3.628729,-13.623827,0.000000,-0.000000,0.000000,0.000000,0.000000,0.000000,-0.009710,-0.012925,0.036683
0.080000,0.307000,0.000000,0.367000,0.305590,0.002302,0.364107,0.305612,0.002301,0.364154,-0.001410,0.002302,-0.002893,0.003957,0.138044,-0.047362,-0.241511,0.282182,16.167861,180.000000,-0.000000,0.000000,172.484138,3.628984,13.623650,7.515862,-3.628984,-13.623650,0.000000,-0.000000,0.000000,0.000000,0.000000,0.000000,0.006133,-0.035731,-0.051946
0.081000,0.307000,0.000000,0.367000,0.305590,0.002301,0.364108,0.305612,0.002301,0.364154,-0.001410,0.002301,-0.002892,0.003956,0.138049,-0.047361,-0.241508,0.282182,16.167827,180.000000,-0.000000,0.000000,172.483851,3.628945,13.623459,7.516149,-3.628945,-13.623459,0.000000,-0.000000,0.000000,0.000000,0.000000,0.000000,0.014681,0.025124,0.010671
0.082000,0.307000,0.000000,0.367000,0.305590,0.002299,0.364106,0.305612,0.002301,0.364154,-0.001410,0.002299,-0.002894,0.003956,0.138047,-0.047365,-0.241507,0.282181,16.167784,180.000000,-0.000000,0.000000,172.484023,3.629167,13.623434,7.515977,-3.629167,-13.623434,0.000000,-0.000000,0.000000,0.000000,0.000000,0.000000,-0.007351,0.001100,-0.035127
0.083000,0.307000,0.000000,0.367000,0.305590,0.002301,0.364107,0.305612,0.002301,0.364154,-0.001410,0.002301,-0.002893,0.003956,0.138049,-0.047362,-0.241506,0.282181,16.167756,180.000000,-0.000000,0.000000,172.483898,3.628971,13.623395,7.516102,-3.628971,-13.623395,0.000000,-0.000000,0.000000,0.000000,0.000000,0.000000,-0.010997,-0.020569,0.037952
0.084000,0.307000,0.000000,0.367000,0.305589,0.002301,0.364106,0.305612,0.002301,0.364154,-0.001411,0.002301,-0.002894,0.003957,0.138048,-0.047366,-0.241510,0.282184,16.167959,180.000000,-0.000000,0.000000,172.483955,3.629226,13.623581,7.516045,-3.629226,-13.623581,0.000000,-0.000000,0.000000,0.000000,0.000000,0.000000,0.032767,-0.026425,0.021507
0.085000,0.307000,0.000000,0.367000,0.305589,0.002299,0.364105,0.305612,0.002301,0.364154,-0.001411,0.002299,-0.002895,0.003958,0.138053,-0.047368,-0.241507,0.282185,16.168004,180.000000,-0.000000,0.000000,172.483667,3.629377,13.623419,7.516333,-3.629377,-13.623419,0.000000,-0.000000,0.000001,0.000000,0.000000,0.000000,0.022043,-0.004852,-0.031276
0.086000,0.307000,0.000000,0.367000,0.305589,0.002301,0.364104,0.305612,0.002301,0.364154,-0.001411,0.002301,-0.002896,0.003959,0.138048,-0.047370,-0.241508,0.282183,16.167875,180.000000,-0.000000,0.000000,172.483981,3.629428,13.623432,7.516019,-3.629428,-13.623432,0.000000,-0.000000,0.000001,0.000000,0.000000,0.000000,0.006426,0.013939,0.023560
0.087000,0.307000,0.000000,0.367000,0.305588,0.002299,0.364102,0.305612,0.002301,0.364154,-0.001412,0.002299,-0.002898,0.003960,0.138046,-0.047374,-0.241508,0.282183,16.167870,180.000000,-0.000000,0.000000,172.484129,3.629651,13.623438,7.515871,-3.629651,-13.623438,0.000000,-0.000000,0.000001,0.000000,0.000000,0.000000,-0.013984,0.012874,-0.014341
0.088000,0.307000,0.000000,0.367000,0.305589,0.002301,0.364104,0.305612,0.002301,0.364154,-0.001411,0.002301,-0.002896,0.003958,0.138048,-0.047368,-0.241509,0.282184,16.167932,180.000000,-0.000000,0.000000,172.483962,3.629347,13.623515,7.516038,-3.629347,-13.623515,0.000000,-0.000000,0.000001,0.000000,0.000000,0.000000,-0.005859,-0.003334,0.031470
0.089000,0.307000,0.000000,0.367000,0.305588,0.002301,0.364103,0.305612,0.002301,0.364154,-0.001412,0.002301,-0.002897,0.003960,0.138050,-0.047372,-0.241510,0.282186,16.168089,180.000000,-0.000000,0.000000,172.483880,3.629565,13.623580,7.516120,-3.629565,-13.623580,0.000000,-0.000000,0.000001,0.000000,0.000000,0.000000,-0.051130,-0.003107,0.018891
0.090000,0.307000,0.000000,0.367000,0.305588,0.002301,0.364104,0.305612,0.002301,0.364154,-0.001412,0.002301,-0.002896,0.003959,0.138047,-0.047369,-0.241512,0.282186,16.168094,180.000000,-0.000000,0.000000,172.484019,3.629405,13.623717,7.515981,-3.629405,-13.623717,0.000000,-0.000001,0.000001,0.000000,0.000000,0.000000,-0.025625,0.002229,0.006649
0.091000,0.307000,0.000000,0.367000,0.305588,0.002299,0.364102,0.305612,0.002301,0.364154,-0.001412,0.002299,-0.002898,0.003959,0.138051,-0.047373,-0.241509,0.282186,16.168052,180.000000,-0.000000,0.000000,172.483816,3.629640,13.623476,7.516184,-3.629640,-13.623476,0.000000,-0.000001,0.000001,0.000000,0.000000,0.000000,-0.008125,-0.008733,-0.025762
0.092000,0.307000,0.000000,0.367000,0.305586,0.002301,0.364100,0.305612,0.002301,0.364154,-0.001414,0.002301,-0.002900,0.003962,0.138051,-0.047377,-0.241510,0.282187,16.168140,180.000000,-0.000000,0.000000,172.483845,3.629875,13.623518,7.516155,-3.629875,-13.623518,0.000000,-0.000001,0.000001,0.000000,0.000000,0.000000,-0.012234,0.001856,-0.060408
0.093000,0.307000,0.000000,0.367000,0.305587,0.002300,0.364100,0.305612,0.002301,0.364154,-0.001413,0.002300,-0.002900,0.003962,0.138048,-0.047377,-0.241512,0.282187,16.168149,180.000000,-0.000000,0.000000,172.484027,3.629841,13.623644,7.515973,-3.629841,-13.623644,0.000000,-0.000001,0.000001,0.000000,0.000000,0.000000,0.015167,-0.031167,-0.044748
0.094000,0.307000,0.000000,0.367000,0.305586,0.002301,0.364100,0.305612,0.002301,0.364154,-0.001414,0.002301,-0.002900,0.003963,0.138050,-0.047377,-0.241512,0.282188,16.168205,180.000000,-0.000000,0.000000,172.483915,3.629858,13.623640,7.516085,-3.629858,-13.623640,0.000000,-0.000001,0.000001,0.000000,0.000000,0.000000,0.005874,-0.011551,-0.001602
0.095000,0.307000,0.000000,0.367000,0.305586,0.002301,0.364100,0.305612,0.002301,0.364154,-0.001414,0.002301,-0.002900,0.003963,0.138050,-0.047377,-0.241516,0.282191,16.168377,180.000000,-0.000000,0.000000,172.483952,3.629860,13.623861,7.516048,-3.629860,-13.623861,0.000000,-0.000001,0.000001,0.000000,0.000000,0.000000,0.039352,0.005271,-0.006692
0.096000,0.307000,0.000000,0.367000,0.305586,0.002300,0.364100,0.305612,0.002301,0.364154,-0.001414,0.002300,-0.002900,0.003962,0.138046,-0.047379,-0.241515,0.282189,16.168236,180.000000,-0.000000,0.000000,172.484196,3.629935,13.623813,7.515804,-3.629935,-13.623813,0.000000,-0.000001,0.000001,0.000000,0.000000,0.000000,0.014129,-0.005700,-0.013087
0.097000,0.307000,0.000000,0.367000,0.305586,0.002301,0.364101,0.305612,0.002301,0.364154,-0.001414,0.002301,-0.002899,0.003962,0.138049,-0.047375,-0.241509,0.282185,16.168022,180.000000,-0.000000,0.000000,172.483946,3.629748,13.623480,7.516054,-3.629748,-13.623480,0.000000,-0.000001,0.000001,0.000000,0.000000,0.000000,-0.008149,0.004509,-0.068401
0.098000,0.307000,0.000000,0.367000,0.305587,0.002301,0.364100,0.305612,0.002301,0.364154,-0.001413,0.002301,-0.002900,0.003963,0.138049,-0.047377,-0.241514,0.282190,16.168291,180.000000,-0.000000,0.000000,172.484005,3.629849,13.623794,7.515995,-3.629849,-13.623794,0.000000,-0.000001,0.000001,0.000000,0.000000,0.000000,0.019757,-0.014563,-0.103029
0.099000,0.307000,0.000000,0.367000,0.305586,0.002301,0.364101,0.305612,0.002301,0.364154,-0.001414,0.002301,-0.002899,0.003962,0.138052,-0.047373,-0.241515,0.282192,16.168410,180.000000,-0.000000,0.000000,172.483792,3.629680,13.623867,7.516208,-3.629680,-13.623867,0.000000,-0.000001,0.000001,0.000000,0.000000,0.000000,0.017771,-0.021930,-0.009274
0.100000,0.307000,0.000000,0.367000,0.305586,0.002301,0.364101,0.305612,0.002301,0.364154,-0.001414,0.002301,-0.002899,0.003962,0.138046,-0.047374,-0.241512,0.282186,16.168067,180.000000,-0.000000,0.000000,172.484135,3.629653,13.623671,7.515865,-3.629653,-13.623671,0.000000,-0.000001,0.000001,0.000000,0.000000,0.000000,0.026454,0.051397,0.004703
0.101000,0.307000,0.000000,0.367000,0.305586,0.002299,0.364100,0.305612,0.002301,0.364154,-0.001414,0.002299,-0.002900,0.003962,0.138051,-0.047376,-0.241508,0.282186,16.168048,180.000000,-0.000000,0.000000,172.483865,3.629825,13.623438,7.516135,-3.629825,-13.623438,0.000000,-0.000001,0.000001,0.000000,0.000000,0.000000,-0.013860,0.048370,0.059440
0.102000,0.307000,0.000000,0.367000,0.305585,0.002301,0.364099,0.305612,0.002301,0.364154,-0.001415,0.002301,-0.002901,0.003964,0.138050,-0.047379,-0.241518,0.282194,16.168546,180.000000,-0.000000,0.000000,172.483931,3.630027,13.623993,7.516069,-3.630027,-13.623993,0.000000,-0.000001,0.000001,0.000000,0.000000,0.000000,-0.027148,-0.011801,-0.000160
0.103000,0.307000,0.000000,0.367000,0.305585,0.002301,0.364099,0.305612,0.002301,0.364154,-0.001415,0.002301,-0.002901,0.003964,0.138050,-0.047379,-0.241513,0.282190,16.168271,180.000000,-0.000000,0.000000,172.483941,3.629970,13.623696,7.516059,-3.629970,-13.623696,0.000001,-0.000001,0.000001,0.000000,0.000000,0.000000,-0.035764,0.006665,0.003467
0.104000,0.307000,0.000000,0.367000,0.305585,0.002300,0.364099,0.305612,0.002301,0.364154,-0.001415,0.002300,-0.002901,0.003964,0.138047,-0.047382,-0.241515,0.282191,16.168327,180.000000,-0.000000,0.000000,172.484122,3.630135,13.623810,7.515878,-3.630135,-13.623810,0.000001,-0.000001,0.000001,0.000000,0.000000,0.000000,-0.024430,0.006557,-0.060452
0.105000,0.307000,0.000000,0.367000,0.305586,0.002301,0.364102,0.305612,0.002301,0.364154,-0.001414,0.002301,-0.002898,0.003961,0.138049,-0.047372,-0.241512,0.282187,16.168112,180.000000,-0.000000,0.000000,172.483971,3.629565,13.623658,7.516029,-3.629565,-13.623658,0.000001,-0.000001,0.000001,0.000000,0.000000,0.000000,-0.018917,0.039041,0.013687
0.106000,0.307000,0.000000,0.367000,0.305586,0.002301,0.364099,0.305612,0.002301,0.364154,-0.001414,0.002301,-0.002901,0.003963,0.138049,-0.047378,-0.241517,0.282192,16.168430,180.000000,-0.000000,0.000000,172.483971,3.629921,13.623915,7.516029,-3.629921,-13.623915,0.000001,-0.000001,0.000001,0.000000,0.000000,0.000000,0.001700,0.016836,0.045863
0.107000,0.307000,0.000000,0.367000,0.305586,0.002300,0.364099,0.305612,0.002301,0.364154,-0.001414,0.002300,-0.002901,0.003963,0.138048,-0.047380,-0.241511,0.282187,16.168137,180.000000,-0.000000,0.000000,172.484039,3.630019,13.623579,7.515961,-3.630019,-13.623579,0.000001,-0.000001,0.000001,0.000000,0.000000,0.000000,-0.005162,-0.027261,-0.027960
0.108000,0.307000,0.000000,0.367000,0.305585,0.002300,0.364099,0.305612,0.002301,0.364154,-0.001415,0.002300,-0.002901,0.003963,0.138047,-0.047377,-0.241511,0.282187,16.168098,180.000000,-0.000000,0.000000,172.484073,3.629840,13.623611,7.515927,-3.629840,-13.623611,0.000001,-0.000001,0.000001,0.000000,0.000000,0.000000,-0.011921,0.017430,-0.012301
0.109000,0.307000,0.000000,0.367000,0.305585,0.002301,0.364099,0.305612,0.002301,0.364154,-0.001415,0.002301,-0.002901,0.003964,0.138048,-0.047382,-0.241516,0.282192,16.168401,180.000000,-0.000000,0.000000,172.484077,3.630166,13.623861,7.515923,-3.630166,-13.623861,0.000001,-0.000001,0.000001,0.000000,0.000000,0.000000,-0.020025,0.015598,0.041239
0.110000,0.307000,0.000000,0.367000,0.305585,0.002303,0.364099,0.305612,0.002301,0.364154,-0.001415,0.002303,-0.002901,0.003965,0.138052,-0.047379,-0.241521,0.282198,16.168728,180.000000,-0.000000,0.000000,172.483850,3.630029,13.624158,7.516150,-3.630029,-13.624158,0.000001,-0.000001,0.000001,0.000000,0.000000,0.000000,-0.002065,0.026769,0.053363
0.111000,0.307000,0.000000,0.367000,0.305585,0.002301,0.364100,0.305612,0.002301,0.364154,-0.001415,0.002301,-0.002900,0.003963,0.138051,-0.047378,-0.241515,0.282192,16.168422,180.000000,-0.000000,0.000000,172.483885,3.629945,13.623849,7.516115,-3.629945,-13.623849,0.000001,-0.000001,0.000001,0.000000,0.000000,0.000000,0.004117,0.023758,-0.010743
0.112000,0.307000,0.000000,0.367000,0.305587,0.002300,0.364102,0.305612,0.002301,0.364154,-0.001413,0.002300,-0.002898,0.003960,0.138049,-0.047370,-0.241511,0.282186,16.168078,180.000000,-0.000000,0.000000,172.483957,3.629446,13.623649,7.516043,-3.629446,-13.623649,0.000001,-0.000001,0.000001,0.000000,0.000000,0.000000,-0.006832,-0.019195,-0.016082
0.113000,0.307000,0.000000,0.367000,0.305586,0.002300,0.364100,0.305612,0.002301,0.364154,-0.001414,0.002300,-0.002900,0.003962,0.138047,-0.047376,-0.241512,0.282188,16.168158,180.000000,-0.000000,0.000000,172.484070,3.629813,13.623687,7.515930,-3.629813,-13.623687,0.000001,-0.000001,0.000001,0.000000,0.000000,0.000000,-0.019820,-0.007864,-0.002477
0.114000,0.307000,0.000000,0.367000,0.305586,0.002302,0.364100,0.305612,0.002301,0.364154,-0.001414,0.002302,-0.002900,0.003963,0.138051,-0.047374,-0.241515,0.282191,16.168359,180.000000,-0.000000,0.000000,172.483851,3.629735,13.623823,7.516149,-3.629735,-13.623823,0.000001,-0.000001,0.000002,0.000000,0.000000,0.000000,-0.003096,-0.015102,-0.011885
0.115000,0.307000,0.000000,0.367000,0.305585,0.002301,0.364098,0.305612,0.002301,0.364154,-0.001415,0.002301,-0.002902,0.003964,0.138051,-0.047379,-0.241513,0.282190,16.168313,180.000000,-0.000000,0.000000,172.483896,3.630003,13.623709,7.516104,-3.630003,-13.623709,0.000001,-0.000001,0.000002,0.000000,0.000000,0.000000,0.024177,0.002701,-0.094491
0.116000,0.307000,0.000000,0.367000,0.305586,0.002301,0.364100,0.305612,0.002301,0.364154,-0.001414,0.002301,-0.002900,0.003963,0.138047,-0.047376,-0.241511,0.282186,16.168092,180.000000,-0.000000,0.000000,172.484103,3.629809,13.623632,7.515897,-3.629809,-13.623632,0.000001,-0.000001,0.000002,0.000000,0.000000,0.000000,0.029816,-0.002908,0.026344
0.117000,0.307000,0.000000,0.367000,0.305586,0.002300,0.364099,0.305612,0.002301,0.364154,-0.001414,0.002300,-0.002901,0.003963,0.138051,-0.047378,-0.241505,0.282183,16.167902,180.000000,-0.000000,0.000000,172.483877,3.629882,13.623256,7.516123,-3.629882,-13.623256,0.000001,-0.000001,0.000002,0.000000,0.000000,0.000000,0.032336,0.012945,-0.054685
0.118000,0.307000,0.000000,0.367000,0.305586,0.002300,0.364100,0.305612,0.002301,0.364154,-0.001414,0.002300,-0.002900,0.003962,0.138050,-0.047375,-0.241504,0.282182,16.167826,180.000000,-0.000000,0.000000,172.483885,3.629699,13.623232,7.516115,-3.629699,-13.623232,0.000001,-0.000001,0.000002,0.000000,0.000000,0.000000,0.035473,-0.018896,-0.013631
0.119000,0.307000,0.000000,0.367000,0.305586,0.002300,0.364100,0.305612,0.002301,0.364154,-0.001414,0.002300,-0.002900,0.003962,0.138050,-0.047375,-0.241516,0.282192,16.168383,180.000000,-0.000000,0.000000,172.483935,3.629792,13.623881,7.516065,-3.629792,-13.623881,0.000001,-0.000001,0.000002,0.000000,0.000000,0.000000,0.031719,0.004927,-0.015974
0.120000,0.307000,0.000000,0.367000,0.305585,0.002302,0.364098,0.305612,0.002301,0.364154,-0.001415,0.002302,-0.002902,0.003965,0.138049,-0.047381,-0.241513,0.282190,16.168313,180.000000,-0.000000,0.000000,172.484000,3.630119,13.623730,7.516000,-3.630119,-13.623730,0.000001,-0.000002,0.000002,0.000000,0.000000,0.000000,0.003717,0.001296,-0.009103
0.121000,0.307000,0.000000,0.367000,0.305585,0.002301,0.364097,0.305612,0.002301,0.364154,-0.001415,0.002301,-0.002903,0.003966,0.138049,-0.047385,-0.241520,0.282196,16.168664,180.000000,-0.000000,0.000000,172.484068,3.630317,13.624114,7.515932,-3.630317,-13.624114,0.000001,-0.000002,0.000002,0.000000,0.000000,0.000000,0.005063,0.004981,0.030527
0.122000,0.307000,0.000000,0.367000,0.305586,0.002301,0.364098,0.305612,0.002301,0.364154,-0.001414,0.002301,-0.002902,0.003964,0.138049,-0.047380,-0.241515,0.282191,16.168349,180.000000,-0.000000,0.000000,172.484014,3.630058,13.623799,7.515986,-3.630058,-13.623799,0.000001,-0.000002,0.000002,0.000000,0.000000,0.000000,-0.008686,-0.013307,0.058241
0.123000,0.307000,0.000000,0.367000,0.305586,0.002301,0.364097,0.305612,0.002301,0.364154,-0.001414,0.002301,-0.002903,0.003965,0.138051,-0.047383,-0.241515,0.282193,16.168450,180.000000,-0.000000,0.000000,172.483910,3.630201,13.623812,7.516090,-3.630201,-13.623812,0.000001,-0.000002,0.000002,0.000000,0.000000,0.000000,0.022582,-0.001524,0.072638
0.124000,0.307000,0.000000,0.367000,0.305586,0.002301,0.364099,0.305612,0.002301,0.364154,-0.001414,0.002301,-0.002901,0.003964,0.138048,-0.047379,-0.241518,0.282194,16.168517,180.000000,-0.000000,0.000000,172.484042,3.630021,13.624024,7.515958,-3.630021,-13.624024,0.000001,-0.000002,0.000002,0.000000,0.000000,0.000000,0.024565,-0.036302,0.015382
0.125000,0.307000,0.000000,0.367000,0.305586,0.002300,0.364099,0.305612,0.002301,0.364154,-0.001414,0.002300,-0.002901,0.003963,0.138049,-0.047378,-0.241507,0.282184,16.167965,180.000000,-0.000000,0.000000,172.483999,3.629884,13.623400,7.516001,-3.629884,-13.623400,0.000001,-0.000002,0.000002,0.000000,0.000000,0.000000,-0.003382,-0.043679,-0.014520
0.126000,0.307000,0.000000,0.367000,0.305585,0.002301,0.364097,0.305612,0.002301,0.364154,-0.001415,0.002301,-0.002903,0.003965,0.138051,-0.047383,-0.241508,0.282187,16.168100,180.000000,-0.000000,0.000000,172.483926,3.630188,13.623416,7.516074,-3.630188,-13.623416,0.000001,-0.000002,0.000002,0.000000,0.000000,0.000000,-0.034081,-0.021915,-0.008278
0.127000,0.307000,0.000000,0.367000,0.305585,0.002300,0.364098,0.305612,0.002301,0.364154,-0.001415,0.002300,-0.002902,0.003964,0.138043,-0.047378,-0.241517,0.282190,16.168276,180.000000,-0.000000,0.000000,172.484313,3.629870,13.623947,7.515687,-3.629870,-13.623947,0.000001,-0.000002,0.000002,0.000000,0.000000,0.000000,-0.022867,-0.007187,0.020200
0.128000,0.307000,0.000000,0.367000,0.305586,0.002299,0.364099,0.305612,0.002301,0.364154,-0.001414,0.002299,-0.002901,0.003963,0.138047,-0.047377,-0.241507,0.282184,16.167926,180.000000,-0.000000,0.000000,172.484062,3.629834,13.623406,7.515938,-3.629834,-13.623406,0.000001,-0.000002,0.000002,0.000000,0.000000,0.000000,-0.017479,-0.000776,-0.032734
0.129000,0.307000,0.000000,0.367000,0.305585,0.002301,0.364099,0.305612,0.002301,0.364154,-0.001415,0.002301,-0.002901,0.003963,0.138046,-0.047375,-0.241518,0.282191,16.168357,180.000000,-0.000000,0.000000,172.484166,3.629750,13.623996,7.515834,-3.629750,-13.623996,0.000001,-0.000002,0.000002,0.000000,0.000000,0.000000,0.017809,0.001931,-0.063397
0.130000,0.307000,0.000000,0.367000,0.305585,0.002301,0.364099,0.305612,0.002301,0.364154,-0.001415,0.002301,-0.002901,0.003965,0.138050,-0.047379,-0.241519,0.282195,16.168564,180.000000,-0.000000,0.000000,172.483956,3.630006,13.624035,7.516044,-3.630006,-13.624035,0.000001,-0.000002,0.000002,0.000000,0.000000,0.000000,0.031846,0.030193,-0.017164
0.131000,0.307000,0.000000,0.367000,0.305584,0.002301,0.364095,0.305612,0.002301,0.364154,-0.001416,0.002301,-0.002905,0.003967,0.138047,-0.047388,-0.241518,0.282194,16.168541,180.000000,-0.000000,0.000000,172.484203,3.630467,13.623999,7.515797,-3.630467,-13.623999,0.000001,-0.000002,0.000003,0.000000,0.000000,0.000000,0.010975,-0.005091,-0.023689
0.132000,0.307000,0.000000,0.367000,0.305585,0.002300,0.364097,0.305612,0.002301,0.364154,-0.001415,0.002300,-0.002903,0.003965,0.138048,-0.047382,-0.241512,0.282188,16.168203,180.000000,-0.000000,0.000000,172.484083,3.630117,13.623649,7.515917,-3.630117,-13.623649,0.000001,-0.000002,0.000003,0.000000,0.000000,0.000000,-0.001600,-0.014176,0.013063
0.133000,0.307000,0.000000,0.367000,0.305584,0.002300,0.364097,0.305612,0.002301,0.364154,-0.001416,0.002300,-0.002903,0.003966,0.138048,-0.047382,-0.241515,0.282192,16.168394,180.000000,-0.000000,0.000000,172.484054,3.630162,13.623841,7.515946,-3.630162,-13.623841,0.000001,-0.000002,0.000003,0.000000,0.000000,0.000000,-0.013291,-0.012438,0.048448
0.134000,0.307000,0.000000,0.367000,0.305583,0.002300,0.364094,0.305612,0.002301,0.364154,-0.001417,0.002300,-0.002906,0.003968,0.138050,-0.047390,-0.241518,0.282196,16.168620,180.000000,-0.000000,0.000000,172.484029,3.630647,13.623933,7.515971,-3.630647,-13.623933,0.000001,-0.000002,0.000003,0.000000,0.000000,0.000000,0.007893,0.026014,0.045329
0.135000,0.307000,0.000000,0.367000,0.305584,0.002301,0.364094,0.305612,0.002301,0.364154,-0.001416,0.002301,-0.002906,0.003968,0.138052,-0.047390,-0.241506,0.282186,16.168085,180.000000,-0.000000,0.000000,172.483897,3.630570,13.623257,7.516103,-3.630570,-13.623257,0.000001,-0.000002,0.000003,0.000000,0.000000,0.000000,-0.022158,-0.023315,0.052135
0.136000,0.307000,0.000000,0.367000,0.305583,0.002300,0.364095,0.305612,0.002301,0.364154,-0.001417,0.002300,-0.002905,0.003967,0.138047,-0.047387,-0.241514,0.282191,16.168329,180.000000,-0.000000,0.000000,172.484184,3.630432,13.623753,7.515816,-3.630432,-13.623753,0.000001,-0.000002,0.000003,0.000000,0.000000,0.000000,-0.050685,-0.031877,0.066680
0.137000,0.307000,0.000000,0.367000,0.305583,0.002301,0.364096,0.305612,0.002301,0.364154,-0.001417,0.002301,-0.002904,0.003967,0.138046,-0.047382,-0.241511,0.282187,16.168102,180.000000,-0.000000,0.000000,172.484196,3.630118,13.623596,7.515804,-3.630118,-13.623596,0.000001,-0.000002,0.000003,0.000000,0.000000,0.000000,0.003763,-0.019460,0.033348
0.138000,0.307000,0.000000,0.367000,0.305583,0.002300,0.364094,0.305612,0.002301,0.364154,-0.001417,0.002300,-0.002906,0.003967,0.138047,-0.047388,-0.241511,0.282188,16.168169,180.000000,-0.000000,0.000000,172.484185,3.630461,13.623555,7.515815,-3.630461,-13.623555,0.000002,-0.000002,0.000003,0.000000,0.000000,0.000000,0.014378,0.019979,-0.006771
0.139000,0.307000,0.000000,0.367000,0.305583,0.002300,0.364094,0.305612,0.002301,0.364154,-0.001417,0.002300,-0.002906,0.003968,0.138054,-0.047389,-0.241516,0.282195,16.168603,180.000000,-0.000000,0.000000,172.483812,3.630578,13.623812,7.516188,-3.630578,-13.623812,0.000002,-0.000003,0.000003,0.000000,0.000000,0.000000,0.028359,0.002870,-0.010108
0.140000,0.307000,0.000000,0.367000,0.305583,0.002301,0.364094,0.305612,0.002301,0.364154,-0.001417,0.002301,-0.002906,0.003968,0.138049,-0.047389,-0.241515,0.282193,16.168461,180.000000,-0.000000,0.000000,172.484072,3.630524,13.623812,7.515928,-3.630524,-13.623812,0.000002,-0.000003,0.000003,0.000000,0.000000,0.000000,-0.008499,0.019545,-0.019891
0.141000,0.307000,0.000000,0.367000,0.305583,0.002300,0.364093,0.305612,0.002301,0.364154,-0.001417,0.002300,-0.002907,0.003968,0.138052,-0.047392,-0.241513,0.282193,16.168483,180.000000,-0.000000,0.000000,172.483914,3.630739,13.623677,7.516086,-3.630739,-13.623677,0.000002,-0.000003,0.000003,0.000000,0.000000,0.000000,0.007680,0.003120,-0.093005
0.142000,0.307000,0.000000,0.367000,0.305583,0.002300,0.364094,0.305612,0.002301,0.364154,-0.001417,0.002300,-0.002906,0.003968,0.138049,-0.047388,-0.241509,0.282188,16.168156,180.000000,-0.000000,0.000000,172.484076,3.630495,13.623467,7.515924,-3.630495,-13.623467,0.000002,-0.000003,0.000003,0.000000,0.000000,0.000000,0.003199,0.026648,-0.022915
0.143000,0.307000,0.000000,0.367000,0.305583,0.002302,0.364094,0.305612,0.002301,0.364154,-0.001417,0.002302,-0.002906,0.003969,0.138049,-0.047389,-0.241522,0.282198,16.168773,180.000000,-0.000000,0.000000,172.484097,3.630600,13.624166,7.515903,-3.630600,-13.624166,0.000002,-0.000003,0.000003,0.000000,0.000000,0.000000,-0.012016,-0.019745,-0.000512
0.144000,0.307000,0.000000,0.367000,0.305582,0.002300,0.364094,0.305612,0.002300,0.364154,-0.001418,0.002300,-0.002906,0.003968,0.138048,-0.047390,-0.241512,0.282190,16.168284,180.000000,-0.000000,0.000000,172.484143,3.630576,13.623629,7.515857,-3.630576,-13.623629,0.000002,-0.000003,0.000004,0.000000,0.000000,0.000000,-0.016916,0.022651,0.035962
0.145000,0.307000,0.000000,0.367000,0.305582,0.002300,0.364094,0.305612,0.002300,0.364154,-0.001418,0.002300,-0.002906,0.003968,0.138049,-0.047388,-0.241519,0.282196,16.168664,180.000000,-0.000000,0.000000,172.484056,3.630527,13.624038,7.515944,-3.630527,-13.624038,0.000002,-0.000003,0.000004,0.000000,0.000000,0.000000,0.016545,0.012858,-0.019090
0.146000,0.307000,0.000000,0.367000,0.305582,0.002301,0.364092,0.305612,0.002300,0.364154,-0.001418,0.002301,-0.002908,0.003970,0.138048,-0.047395,-0.241522,0.282199,16.168790,180.000000,-0.000000,0.000000,172.484187,3.630879,13.624147,7.515813,-3.630879,-13.624147,0.000002,-0.000003,0.000004,0.000000,0.000000,0.000000,0.018520,-0.004766,0.008648
0.147000,0.307000,0.000000,0.367000,0.305582,0.002300,0.364093,0.305612,0.002300,0.364154,-0.001418,0.002300,-0.002907,0.003969,0.138049,-0.047392,-0.241516,0.282194,16.168526,180.000000,-0.000000,0.000000,172.484114,3.630743,13.623841,7.515886,-3.630743,-13.623841,0.000002,-0.000003,0.000004,0.000000,0.000000,0.000000,0.013498,0.009611,-0.000898
0.148000,0.307000,0.000000,0.367000,0.305582,0.002301,0.364091,0.305612,0.002300,0.364154,-0.001418,0.002301,-0.002909,0.003971,0.138050,-0.047394,-0.241514,0.282193,16.168483,180.000000,-0.000000,0.000000,172.484053,3.630837,13.623725,7.515947,-3.630837,-13.623725,0.000002,-0.000003,0.000004,0.000000,0.000000,0.000000,-0.017682,-0.000867,-0.004451
0.149000,0.307000,0.000000,0.367000,0.305582,0.002300,0.364094,0.305612,0.002300,0.364154,-0.001418,0.002300,-0.002906,0.003968,0.138050,-0.047388,-0.241513,0.282191,16.168382,180.000000,-0.000000,0.000000,172.484004,3.630473,13.623698,7.515996,-3.630473,-13.623698,0.000002,-0.000003,0.000004,0.000000,0.000000,0.000000,0.011743,0.019408,0.015621
0.150000,0.307000,0.000000,0.367000,0.305583,0.002302,0.364095,0.305612,0.002300,0.364154,-0.001417,0.002302,-0.002905,0.003968,0.138052,-0.047385,-0.241515,0.282193,16.168466,180.000000,-0.000000,0.000000,172.483892,3.630353,13.623771,7.516108,-3.630353,-13.623771,0.000002,-0.000003,0.000004,0.000000,0.000000,0.000000,0.004844,0.001278,0.034460
0.151000,0.307000,0.000000,0.367000,0.305583,0.002299,0.364093,0.305612,0.002300,0.364154,-0.001417,0.002299,-0.002907,0.003968,0.138050,-0.047392,-0.241520,0.282198,16.168774,180.000000,-0.000000,0.000000,172.484023,3.630764,13.624072,7.515977,-3.630764,-13.624072,0.000002,-0.000003,0.000004,0.000000,0.000000,0.000000,0.002179,0.016643,0.024767
0.152000,0.307000,0.000000,0.367000,0.305582,0.002301,0.364093,0.305612,0.002300,0.364154,-0.001418,0.002301,-0.002907,0.003969,0.138049,-0.047392,-0.241525,0.282202,16.168988,180.000000,-0.000000,0.000000,172.484088,3.630761,13.624360,7.515912,-3.630761,-13.624360,0.000002,-0.000004,0.000004,0.000000,0.000000,0.000000,-0.018482,0.021964,0.020274
0.153000,0.307000,0.000000,0.367000,0.305583,0.002301,0.364094,0.305612,0.002300,0.364154,-0.001417,0.002301,-0.002906,0.003968,0.138046,-0.047389,-0.241519,0.282195,16.168587,180.000000,-0.000000,0.000000,172.484241,3.630536,13.624052,7.515759,-3.630536,-13.624052,0.000002,-0.000004,0.000004,0.000000,0.000000,0.000000,-0.002527,0.012105,-0.030774
0.154000,0.307000,0.000000,0.367000,0.305582,0.002299,0.364093,0.305612,0.002300,0.364154,-0.001418,0.002299,-0.002907,0.003968,0.138047,-0.047390,-0.241508,0.282186,16.168079,180.000000,-0.000000,0.000000,172.484178,3.630591,13.623405,7.515822,-3.630591,-13.623405,0.000002,-0.000004,0.000005,0.000000,0.000000,0.000000,-0.015090,0.003125,-0.075600
0.155000,0.307000,0.000000,0.367000,0.305582,0.002302,0.364094,0.305612,0.002300,0.364154,-0.001418,0.002302,-0.002906,0.003970,0.138050,-0.047389,-0.241526,0.282202,16.168999,180.000000,-0.000000,0.000000,172.484054,3.630579,13.624412,7.515946,-3.630579,-13.624412,0.000002,-0.000004,0.000005,0.000000,0.000000,0.000000,-0.012167,-0.000280,0.026731
0.156000,0.307000,0.000000,0.367000,0.305582,0.002300,0.364092,0.305612,0.002300,0.364154,-0.001418,0.002300,-0.002908,0.003970,0.138049,-0.047395,-0.241519,0.282197,16.168708,180.000000,-0.000000,0.000000,172.484094,3.630909,13.623988,7.515906,-3.630909,-13.623988,0.000002,-0.000004,0.000005,0.000000,0.000000,0.000000,-0.020273,-0.019768,-0.039155
0.157000,0.307000,0.000000,0.367000,0.305583,0.002300,0.364095,0.305612,0.002300,0.364154,-0.001417,0.002300,-0.002905,0.003967,0.138049,-0.047388,-0.241517,0.282194,16.168523,180.000000,-0.000000,0.000000,172.484079,3.630501,13.623896,7.515921,-3.630501,-13.623896,0.000002,-0.000004,0.000005,0.000000,0.000000,0.000000,-0.000130,-0.022581,-0.026494
0.158000,0.307000,0.000000,0.367000,0.305584,0.002300,0.364094,0.305612,0.002300,0.364154,-0.001416,0.002300,-0.002906,0.003967,0.138048,-0.047386,-0.241515,0.282192,16.168416,180.000000,-0.000000,0.000000,172.484108,3.630380,13.623827,7.515892,-3.630380,-13.623827,0.000002,-0.000004,0.000005,0.000000,0.000000,0.000000,-0.028734,0.016232,0.041499
0.159000,0.307000,0.000000,0.367000,0.305583,0.002302,0.364094,0.305612,0.002300,0.364154,-0.001417,0.002302,-0.002906,0.003969,0.138048,-0.047389,-0.241524,0.282200,16.168872,180.000000,-0.000000,0.000000,172.484131,3.630556,13.624316,7.515869,-3.630556,-13.624316,0.000002,-0.000004,0.000005,0.000000,0.000000,0.000000,-0.007898,0.016407,0.037147
0.160000,0.307000,0.000000,0.367000,0.305584,0.002302,0.364093,0.305612,0.002300,0.364154,-0.001416,0.002302,-0.002907,0.003969,0.138051,-0.047389,-0.241517,0.282195,16.168599,180.000000,-0.000000,0.000000,172.483978,3.630570,13.623904,7.516022,-3.630570,-13.623904,0.000003,-0.000004,0.000005,0.000000,0.000000,0.000000,0.013135,0.025859,0.015711
0.161000,0.307000,0.000000,0.367000,0.305583,0.002301,0.364094,0.305612,0.002300,0.364154,-0.001417,0.002301,-0.002906,0.003969,0.138051,-0.047387,-0.241522,0.282199,16.168817,180.000000,-0.000000,0.000000,172.483965,3.630475,13.624183,7.516035,-3.630475,-13.624183,0.000003,-0.000004,0.000005,0.000000,0.000000,0.000000,0.002437,0.030440,0.012824
0.162000,0.307000,0.000000,0.367000,0.305583,0.002302,0.364094,0.305612,0.002300,0.364154,-0.001417,0.002302,-0.002906,0.003969,0.138048,-0.047388,-0.241518,0.282195,16.168579,180.000000,-0.000000,0.000000,172.484135,3.630518,13.623988,7.515865,-3.630518,-13.623988,0.000003,-0.000004,0.000005,0.000000,0.000000,0.000000,-0.025355,0.018238,0.029683
0.163000,0.307000,0.000000,0.367000,0.305583,0.002300,0.364094,0.305612,0.002300,0.364154,-0.001417,0.002300,-0.002906,0.003968,0.138049,-0.047384,-0.241514,0.282191,16.168366,180.000000,-0.000000,0.000000,172.484057,3.630277,13.623773,7.515943,-3.630277,-13.623773,0.000003,-0.000005,0.000006,0.000000,0.000000,0.000000,0.025908,0.017158,0.044701
0.164000,0.307000,0.000000,0.367000,0.305583,0.002300,0.364093,0.305612,0.002300,0.364154,-0.001417,0.002300,-0.002907,0.003969,0.138049,-0.047389,-0.241526,0.282202,16.168965,180.000000,-0.000000,0.000000,172.484097,3.630592,13.624393,7.515903,-3.630592,-13.624393,0.000003,-0.000005,0.000006,0.000000,0.000000,0.000000,0.009711,-0.012171,-0.018438
0.165000,0.307000,0.000000,0.367000,0.305584,0.002300,0.364094,0.305612,0.002300,0.364154,-0.001416,0.002300,-0.002906,0.003968,0.138048,-0.047387,-0.241516,0.282193,16.168458,180.000000,-0.000000,0.000000,172.484121,3.630414,13.623872,7.515879,-3.630414,-13.623872,0.000003,-0.000005,0.000006,0.000000,0.000000,0.000000,0.019100,-0.019147,-0.008120
0.166000,0.307000,0.000000,0.367000,0.305584,0.002299,0.364093,0.305612,0.002300,0.364155,-0.001416,0.002299,-0.002907,0.003967,0.138050,-0.047388,-0.241520,0.282198,16.168736,180.000000,-0.000000,0.000000,172.484006,3.630523,13.624095,7.515994,-3.630523,-13.624095,0.000003,-0.000005,0.000006,0.000000,0.000000,0.000000,-0.003703,-0.007539,-0.040463
0.167000,0.307000,0.000000,0.367000,0.305582,0.002301,0.364091,0.305612,0.002300,0.364155,-0.001418,0.002301,-0.002909,0.003971,0.138051,-0.047394,-0.241527,0.282205,16.169164,180.000000,-0.000000,0.000000,172.483985,3.630914,13.624457,7.516015,-3.630914,-13.624457,0.000003,-0.000005,0.000006,0.000000,0.000000,0.000000,-0.021353,-0.021122,-0.041087
0.168000,0.307000,0.000000,0.367000,0.305582,0.002300,0.364093,0.305612,0.002300,0.364155,-0.001418,0.002300,-0.002907,0.003969,0.138048,-0.047391,-0.241515,0.282193,16.168455,180.000000,-0.000000,0.000000,172.484123,3.630653,13.623792,7.515877,-3.630653,-13.623792,0.000003,-0.000005,0.000006,0.000000,0.000000,0.000000,-0.011961,-0.023874,-0.029967
0.169000,0.307000,0.000000,0.367000,0.305582,0.002301,0.364091,0.305612,0.002300,0.364155,-0.001418,0.002301,-0.002909,0.003970,0.138046,-0.047391,-0.241515,0.282192,16.168420,180.000000,-0.000000,0.000000,172.484229,3.630658,13.623810,7.515771,-3.630658,-13.623810,0.000003,-0.000005,0.000006,0.000000,0.000000,0.000000,-0.008634,0.016181,0.005863
