t,target_x,target_y,target_z,actual_x,actual_y,actual_z,inner_x,inner_y,inner_z,position_error_x,position_error_y,position_error_z,position_error_norm,orientation_error_x,orientation_error_y,orientation_error_z,orientation_error_norm_rad,orientation_error_norm_deg,target_roll_deg,target_pitch_deg,target_yaw_deg,actual_roll_deg,actual_pitch_deg,actual_yaw_deg,error_roll_deg,error_pitch_deg,error_yaw_deg,inner_vx,inner_vy,inner_vz,filtered_fx,filtered_fy,filtered_fz,masked_fx,masked_fy,masked_fz
0.000000,0.307000,0.000000,0.367000,0.499435,-0.000119,0.281276,0.499435,-0.000119,0.281276,0.192435,-0.000119,-0.085724,0.210665,0.001226,-0.001171,0.784986,0.784988,44.976499,180.000000,-0.000000,0.000000,179.911746,0.034230,-44.976431,0.088254,-0.034230,44.976431,0.000000,0.000000,0.000000,0.000000,0.000000,0.000000,0.000000,0.000000,0.000000
0.001000,0.307000,0.000000,0.367000,0.499436,-0.000119,0.281277,0.499435,-0.000119,0.281276,0.192436,-0.000119,-0.085723,0.210666,0.001223,-0.001169,0.784997,0.784999,44.977107,180.000000,-0.000000,0.000000,179.911928,0.034176,-44.977040,0.088072,-0.034176,44.977040,0.000000,0.000000,0.000000,0.000000,0.000000,0.000000,-0.011964,0.003556,-0.018937
0.002000,0.307000,0.000000,0.367000,0.499438,-0.000120,0.281280,0.499435,-0.000119,0.281276,0.192438,-0.000120,-0.085720,0.210666,0.001223,-0.001164,0.785003,0.785005,44.977483,180.000000,-0.000000,0.000000,179.912031,0.033902,-44.977416,0.087969,-0.033902,44.977416,-0.000000,0.000000,0.000000,0.000000,0.000000,0.000000,0.000044,0.001609,-0.014901
0.003000,0.307000,0.000000,0.367000,0.499434,-0.000119,0.281277,0.499435,-0.000119,0.281276,0.192434,-0.000119,-0.085723,0.210664,0.001226,-0.001170,0.785001,0.785003,44.977375,180.000000,-0.000000,0.000000,179.911755,0.034179,-44.977305,0.088245,-0.034179,44.977305,-0.000000,0.000000,0.000000,0.000000,0.000000,0.000000,-0.009360,0.000228,0.000001
0.004000,0.307000,0.000000,0.367000,0.499435,-0.000119,0.281277,0.499435,-0.000119,0.281276,0.192435,-0.000119,-0.085723,0.210665,0.001225,-0.001169,0.785003,0.785005,44.977455,180.000000,-0.000000,0.000000,179.911850,0.034180,-44.977387,0.088150,-0.034180,44.977387,-0.000000,0.000000,0.000000,0.000000,0.000000,0.000000,0.016207,-0.023768,0.040870
0.005000,0.307000,0.000000,0.367000,0.499436,-0.000118,0.281277,0.499435,-0.000119,0.281276,0.192436,-0.000118,-0.085723,0.210665,0.001220,-0.001171,0.785015,0.785016,44.978128,180.000000,-0.000000,0.000000,179.912033,0.034332,-44.978059,0.087967,-0.034332,44.978059,-0.000000,0.000000,0.000000,0.000000,0.000000,0.000000,0.016098,0.005391,-0.015166
0.006000,0.307000,0.000000,0.367000,0.499436,-0.000118,0.281280,0.499435,-0.000119,0.281276,0.192436,-0.000118,-0.085720,0.210664,0.001217,-0.001169,0.785010,0.785012,44.977849,180.000000,-0.000000,0.000000,179.912237,0.034319,-44.977783,0.087763,-0.034319,44.977783,-0.000000,0.000000,0.000000,0.000000,0.000000,0.000000,-0.017162,0.015995,-0.007008
0.007000,0.307000,0.000000,0.367000,0.499432,-0.000117,0.281276,0.499435,-0.000119,0.281276,0.192432,-0.000117,-0.085724,0.210662,0.001221,-0.001179,0.785009,0.785011,44.977813,180.000000,-0.000000,0.000000,179.911806,0.034758,-44.977745,0.088194,-0.034758,44.977745,-0.000000,0.000000,0.000000,0.000000,0.000000,0.000000,-0.032534,0.041858,0.009329
0.008000,0.307000,0.000000,0.367000,0.499432,-0.000116,0.281273,0.499435,-0.000119,0.281276,0.192432,-0.000116,-0.085727,0.210663,0.001225,-0.001181,0.785005,0.785007,44.977601,180.000000,-0.000000,0.000000,179.911564,0.034783,-44.977532,0.088436,-0.034783,44.977532,-0.000000,0.000000,0.000000,0.000000,0.000000,0.000000,-0.009682,-0.015403,-0.049177
0.009000,0.307000,0.000000,0.367000,0.499428,-0.000119,0.281270,0.499435,-0.000119,0.281276,0.192428,-0.000119,-0.085730,0.210661,0.001232,-0.001186,0.785007,0.785009,44.977674,180.000000,-0.000000,0.000000,179.911122,0.034894,-44.977605,0.088878,-0.034894,44.977605,-0.000000,0.000000,0.000000,0.000000,0.000000,0.000000,0.028462,-0.007934,0.018745
0.010000,0.307000,0.000000,0.367000,0.499429,-0.000118,0.281270,0.499435,-0.000119,0.281276,0.192429,-0.000118,-0.085730,0.210662,0.001235,-0.001181,0.784996,0.784998,44.977049,180.000000,-0.000000,0.000000,179.911057,0.034526,-44.976982,0.088943,-0.034526,44.976982,-0.000000,0.000000,0.000000,0.000000,0.000000,0.000000,0.011818,-0.008775,-0.073317
0.011000,0.307000,0.000000,0.367000,0.499428,-0.000120,0.281270,0.499435,-0.000119,0.281276,0.192428,-0.000120,-0.085730,0.210661,0.001237,-0.001184,0.785002,0.785004,44.977428,180.000000,-0.000000,0.000000,179.910893,0.034641,-44.977358,0.089107,-0.034641,44.977358,-0.000000,0.000000,0.000000,0.000000,0.000000,0.000000,0.014393,0.019605,-0.065414
0.012000,0.307000,0.000000,0.367000,0.499426,-0.000121,0.281267,0.499435,-0.000119,0.281276,0.192426,-0.000121,-0.085733,0.210661,0.001239,-0.001191,0.785006,0.785007,44.977611,180.000000,-0.000000,0.000000,179.910623,0.034992,-44.977542,0.089377,-0.034992,44.977542,-0.000000,0.000000,0.000000,0.000000,0.000000,0.000000,0.004158,-0.009438,-0.049196
0.013000,0.307000,0.000000,0.367000,0.499425,-0.000117,0.281266,0.499435,-0.000119,0.281276,0.192425,-0.000117,-0.085734,0.210660,0.001243,-0.001192,0.784986,0.784988,44.976507,180.000000,-0.000000,0.000000,179.910431,0.034954,-44.976436,0.089569,-0.034954,44.976436,-0.000000,0.000000,0.000000,0.000000,0.000000,0.000000,0.019739,0.002327,-0.004992
0.014000,0.307000,0.000000,0.367000,0.499426,-0.000120,0.281269,0.499435,-0.000119,0.281276,0.192426,-0.000120,-0.085731,0.210660,0.001240,-0.001186,0.784994,0.784996,44.976970,180.000000,-0.000000,0.000000,179.910723,0.034704,-44.976900,0.089277,-0.034704,44.976900,-0.000000,0.000000,0.000000,0.000000,0.000000,0.000000,-0.004368,0.014032,0.076525
0.015000,0.307000,0.000000,0.367000,0.499424,-0.000118,0.281266,0.499435,-0.000119,0.281276,0.192424,-0.000118,-0.085734,0.210659,0.001243,-0.001192,0.784991,0.784993,44.976762,180.000000,-0.000000,0.000000,179.910404,0.034939,-44.976692,0.089596,-0.034939,44.976692,-0.000000,0.000000,0.000000,0.000000,0.000000,0.000000,-0.011196,-0.026047,-0.052053
0.016000,0.307000,0.000000,0.367000,0.499423,-0.000120,0.281265,0.499435,-0.000119,0.281276,0.192423,-0.000120,-0.085735,0.210659,0.001246,-0.001196,0.784984,0.784986,44.976361,180.000000,-0.000000,0.000000,179.910177,0.035108,-44.976291,0.089823,-0.035108,44.976291,-0.000001,0.000000,0.000000,0.000000,0.000000,0.000000,0.002447,-0.005325,-0.092542
0.017000,0.307000,0.000000,0.367000,0.499419,-0.000118,0.281259,0.499435,-0.000119,0.281276,0.192419,-0.000118,-0.085741,0.210657,0.001251,-0.001209,0.784983,0.784985,44.976310,180.000000,-0.000000,0.000000,179.909648,0.035648,-44.976238,0.090352,-0.035648,44.976238,-0.000001,0.000000,0.000000,0.000000,0.000000,0.000000,-0.015417,-0.019851,-0.055789
0.018000,0.307000,0.000000,0.367000,0.499417,-0.000117,0.281259,0.499435,-0.000119,0.281276,0.192417,-0.000117,-0.085741,0.210656,0.001257,-0.001210,0.784984,0.784986,44.976397,180.000000,-0.000000,0.000000,179.909310,0.035585,-44.976325,0.090690,-0.035585,44.976325,-0.000001,0.000000,0.000000,0.000000,0.000000,0.000000,-0.004787,-0.016321,-0.007392
0.019000,0.307000,0.000000,0.367000,0.499416,-0.000120,0.281257,0.499435,-0.000119,0.281276,0.192416,-0.000120,-0.085743,0.210656,0.001260,-0.001210,0.784988,0.784990,44.976615,180.000000,-0.000000,0.000000,179.909168,0.035492,-44.976542,0.090832,-0.035492,44.976542,-0.000001,0.000000,0.000000,0.000000,0.000000,0.000000,-0.001589,0.026058,0.001694
0.020000,0.307000,0.000000,0.367000,0.499414,-0.000120,0.281254,0.499435,-0.000119,0.281276,0.192414,-0.000120,-0.085746,0.210655,0.001263,-0.001217,0.784988,0.784990,44.976631,180.000000,-0.000000,0.000000,179.908863,0.035846,-44.976557,0.091137,-0.035846,44.976557,-0.000001,0.000000,0.000001,0.000000,0.000000,0.000000,-0.039817,0.015442,0.049599
0.021000,0.307000,0.000000,0.367000,0.499413,-0.000122,0.281254,0.499435,-0.000119,0.281276,0.192413,-0.000122,-0.085746,0.210654,0.001264,-0.001218,0.784995,0.784997,44.977008,180.000000,-0.000000,0.000000,179.908793,0.035862,-44.976936,0.091207,-0.035862,44.976936,-0.000002,0.000000,0.000001,0.000000,0.000000,0.000000,-0.009918,0.011022,-0.004578
0.022000,0.307000,0.000000,0.367000,0.499412,-0.000122,0.281253,0.499435,-0.000119,0.281276,0.192412,-0.000122,-0.085747,0.210653,0.001268,-0.001218,0.784982,0.784984,44.976277,180.000000,-0.000000,0.000000,179.908581,0.035774,-44.976204,0.091419,-0.035774,44.976204,-0.000002,0.000000,0.000001,0.000000,0.000000,0.000000,-0.023753,0.049338,-0.047845
0.023000,0.307000,0.000000,0.367000,0.499409,-0.000122,0.281248,0.499435,-0.000119,0.281276,0.192409,-0.000122,-0.085752,0.210653,0.001273,-0.001228,0.784986,0.784988,44.976502,180.000000,-0.000000,0.000000,179.908102,0.036188,-44.976429,0.091898,-0.036188,44.976429,-0.000002,0.000000,0.000001,0.000000,0.000000,0.000000,-0.003379,0.022469,0.050361
0.024000,0.307000,0.000000,0.367000,0.499407,-0.000121,0.281248,0.499435,-0.000119,0.281276,0.192407,-0.000121,-0.085752,0.210651,0.001275,-0.001229,0.784982,0.784984,44.976285,180.000000,-0.000000,0.000000,179.908002,0.036175,-44.976211,0.091998,-0.036175,44.976211,-0.000003,0.000000,0.000001,0.000000,0.000000,0.000000,-0.007101,0.023703,0.073322
0.025000,0.307000,0.000000,0.367000,0.499405,-0.000120,0.281246,0.499435,-0.000119,0.281276,0.192405,-0.000120,-0.085754,0.210650,0.001281,-0.001236,0.784976,0.784978,44.975914,180.000000,-0.000000,0.000000,179.907532,0.036413,-44.975840,0.092468,-0.036413,44.975840,-0.000003,0.000000,0.000001,0.000000,0.000000,0.000000,-0.020519,0.009417,-0.037182
0.026000,0.307000,0.000000,0.367000,0.499403,-0.000120,0.281245,0.499435,-0.000119,0.281276,0.192403,-0.000120,-0.085755,0.210649,0.001283,-0.001238,0.784974,0.784976,44.975839,180.000000,-0.000000,0.000000,179.907396,0.036452,-44.975765,0.092604,-0.036452,44.975765,-0.000004,0.000000,0.000002,0.000000,0.000000,0.000000,0.015617,-0.024344,-0.019136
0.027000,0.307000,0.000000,0.367000,0.499401,-0.000120,0.281240,0.499435,-0.000119,0.281276,0.192401,-0.000120,-0.085760,0.210649,0.001286,-0.001247,0.784966,0.784968,44.975332,180.000000,-0.000000,0.000000,179.907014,0.036857,-44.975255,0.092986,-0.036857,44.975255,-0.000004,0.000000,0.000002,0.000000,0.000000,0.000000,0.044071,0.014849,-0.047493
0.028000,0.307000,0.000000,0.367000,0.499400,-0.000121,0.281239,0.499435,-0.000119,0.281276,0.192400,-0.000121,-0.085761,0.210648,0.001290,-0.001248,0.784965,0.784967,44.975282,180.000000,-0.000000,0.000000,179.906813,0.036819,-44.975207,0.093187,-0.036819,44.975207,-0.000005,0.000000,0.000002,0.000000,0.000000,0.000000,0.005477,0.009462,-0.091613
0.029000,0.307000,0.000000,0.367000,0.499395,-0.000121,0.281234,0.499435,-0.000119,0.281276,0.192395,-0.000121,-0.085766,0.210646,0.001295,-0.001258,0.784963,0.784965,44.975177,180.000000,-0.000000,0.000000,179.906316,0.037245,-44.975101,0.093684,-0.037245,44.975101,-0.000005,0.000000,0.000002,0.000000,0.000000,0.000000,-0.008226,-0.024867,-0.036060
0.030000,0.307000,0.000000,0.367000,0.499395,-0.000121,0.281234,0.499435,-0.000119,0.281276,0.192395,-0.000121,-0.085766,0.210646,0.001298,-0.001258,0.784960,0.784963,44.975042,180.000000,-0.000000,0.000000,179.906205,0.037166,-44.974965,0.093795,-0.037166,44.974965,-0.000006,0.000000,0.000003,0.000000,0.000000,0.000000,0.018477,-0.007974,-0.005208
0.031000,0.307000,0.000000,0.367000,0.499394,-0.000122,0.281234,0.499435,-0.000119,0.281276,0.192394,-0.000122,-0.085766,0.210645,0.001299,-0.001259,0.784963,0.784965,44.975192,180.000000,-0.000000,0.000000,179.906113,0.037193,-44.975115,0.093887,-0.037193,44.975115,-0.000007,0.000000,0.000003,0.000000,0.000000,0.000000,0.009122,-0.013700,-0.023211
0.032000,0.307000,0.000000,0.367000,0.499392,-0.000123,0.281230,0.499435,-0.000119,0.281276,0.192392,-0.000123,-0.085770,0.210644,0.001304,-0.001265,0.784962,0.784964,44.975116,180.000000,-0.000000,0.000000,179.905714,0.037428,-44.975038,0.094286,-0.037428,44.975038,-0.000008,0.000000,0.000003,0.000000,0.000000,0.000000,-0.025025,0.008976,0.026581
0.033000,0.307000,0.000000,0.367000,0.499387,-0.000121,0.281224,0.499435,-0.000119,0.281276,0.192387,-0.000121,-0.085776,0.210643,0.001310,-0.001278,0.784959,0.784961,44.974971,180.000000,-0.000000,0.000000,179.905129,0.037970,-44.974893,0.094871,-0.037970,44.974893,-0.000009,0.000000,0.000004,0.000000,0.000000,0.000000,-0.039436,0.016234,0.028148
0.034000,0.307000,0.000000,0.367000,0.499386,-0.000122,0.281222,0.499435,-0.000119,0.281276,0.192386,-0.000122,-0.085778,0.210643,0.001312,-0.001283,0.784965,0.784967,44.975302,180.000000,-0.000000,0.000000,179.904922,0.038161,-44.975221,0.095078,-0.038161,44.975221,-0.000010,0.000000,0.000004,0.000000,0.000000,0.000000,0.006239,-0.004079,0.014752
0.035000,0.307000,0.000000,0.367000,0.499386,-0.000123,0.281222,0.499435,-0.000119,0.281276,0.192386,-0.000123,-0.085778,0.210643,0.001310,-0.001280,0.784970,0.784973,44.975616,180.000000,-0.000000,0.000000,179.905081,0.038043,-44.975535,0.094919,-0.038043,44.975535,-0.000011,0.000000,0.000005,0.000000,0.000000,0.000000,-0.019973,-0.008194,-0.029574
0.036000,0.307000,0.000000,0.367000,0.499385,-0.000124,0.281219,0.499435,-0.000119,0.281276,0.192385,-0.000124,-0.085781,0.210642,0.001316,-0.001287,0.784961,0.784963,44.975084,180.000000,-0.000000,0.000000,179.904620,0.038285,-44.975004,0.095380,-0.038285,44.975004,-0.000012,0.000000,0.000005,0.000000,0.000000,0.000000,-0.027882,-0.050882,0.006793
0.037000,0.307000,0.000000,0.367000,0.499381,-0.000122,0.281217,0.499435,-0.000119,0.281276,0.192381,-0.000122,-0.085783,0.210640,0.001324,-0.001291,0.784958,0.784960,44.974917,180.000000,-0.000000,0.000000,179.904137,0.038306,-44.974837,0.095863,-0.038306,44.974837,-0.000013,0.000000,0.000006,0.000000,0.000000,0.000000,-0.029373,-0.010143,-0.015630
0.038000,0.307000,0.000000,0.367000,0.499378,-0.000126,0.281214,0.499435,-0.000119,0.281276,0.192378,-0.000126,-0.085786,0.210639,0.001326,-0.001299,0.784954,0.784956,44.974688,180.000000,-0.000000,0.000000,179.903829,0.038712,-44.974608,0.096171,-0.038712,44.974608,-0.000015,0.000000,0.000007,0.000000,0.000000,0.000000,-0.034788,-0.016026,0.077129
0.039000,0.307000,0.000000,0.367000,0.499378,-0.000124,0.281214,0.499435,-0.000119,0.281276,0.192378,-0.000124,-0.085786,0.210639,0.001330,-0.001298,0.784950,0.784952,44.974449,180.000000,-0.000000,0.000000,179.903687,0.038543,-44.974367,0.096313,-0.038543,44.974367,-0.000016,0.000000,0.000007,0.000000,0.000000,0.000000,0.008145,-0.018873,-0.054654
0.040000,0.307000,0.000000,0.367000,0.499375,-0.000126,0.281211,0.499435,-0.000119,0.281276,0.192375,-0.000126,-0.085789,0.210637,0.001335,-0.001303,0.784955,0.784958,44.974762,180.000000,-0.000000,0.000000,179.903302,0.038685,-44.974680,0.096698,-0.038685,44.974680,-0.000018,0.000000,0.000008,0.000000,0.000000,0.000000,0.050800,-0.001580,-0.046543
0.041000,0.307000,0.000000,0.367000,0.499371,-0.000125,0.281206,0.499435,-0.000119,0.281276,0.192371,-0.000125,-0.085794,0.210636,0.001343,-0.001312,0.784943,0.784945,44.974040,180.000000,-0.000000,0.000000,179.902673,0.038997,-44.973956,0.097327,-0.038997,44.973956,-0.000020,0.000000,0.000009,0.000000,0.000000,0.000000,0.004330,-0.014575,0.006423
0.042000,0.307000,0.000000,0.367000,0.499371,-0.000128,0.281206,0.499435,-0.000119,0.281276,0.192371,-0.000128,-0.085794,0.210636,0.001345,-0.001312,0.784935,0.784937,44.973572,180.000000,-0.000000,0.000000,179.902617,0.038963,-44.973490,0.097383,-0.038963,44.973490,-0.000022,0.000000,0.000010,0.000000,0.000000,0.000000,-0.032320,0.000701,-0.043072
0.043000,0.307000,0.000000,0.367000,0.499370,-0.000126,0.281204,0.499434,-0.000119,0.281276,0.192370,-0.000126,-0.085796,0.210635,0.001350,-0.001314,0.784932,0.784934,44.973424,180.000000,-0.000000,0.000000,179.902304,0.038942,-44.973340,0.097696,-0.038942,44.973340,-0.000023,0.000000,0.000010,0.000000,0.000000,0.000000,0.005103,-0.015294,-0.029625
0.044000,0.307000,0.000000,0.367000,0.499365,-0.000127,0.281197,0.499434,-0.000119,0.281276,0.192365,-0.000127,-0.085803,0.210633,0.001360,-0.001329,0.784930,0.784932,44.973301,180.000000,-0.000000,0.000000,179.901470,0.039551,-44.973215,0.098530,-0.039551,44.973215,-0.000025,0.000000,0.000011,0.000000,0.000000,0.000000,0.004948,0.016129,0.008347
0.045000,0.307000,0.000000,0.367000,0.499363,-0.000127,0.281196,0.499434,-0.000119,0.281276,0.192363,-0.000127,-0.085804,0.210632,0.001363,-0.001332,0.784928,0.784931,44.973213,180.000000,-0.000000,0.000000,179.901244,0.039614,-44.973128,0.098756,-0.039614,44.973128,-0.000028,0.000000,0.000012,0.000000,0.000000,0.000000,-0.019895,0.005578,-0.043342
0.046000,0.307000,0.000000,0.367000,0.499360,-0.000128,0.281190,0.499434,-0.000119,0.281276,0.192360,-0.000128,-0.085810,0.210631,0.001377,-0.001339,0.784915,0.784917,44.972442,180.000000,-0.000000,0.000000,179.900347,0.039693,-44.972355,0.099653,-0.039693,44.972355,-0.000030,0.000000,0.000013,0.000000,0.000000,0.000000,-0.006038,0.013376,-0.027677
0.047000,0.307000,0.000000,0.367000,0.499358,-0.000132,0.281190,0.499434,-0.000119,0.281276,0.192358,-0.000132,-0.085810,0.210630,0.001385,-0.001339,0.784925,0.784928,44.973050,180.000000,-0.000000,0.000000,179.899956,0.039505,-44.972963,0.100044,-0.039505,44.972963,-0.000032,0.000000,0.000014,0.000000,0.000000,0.000000,-0.009209,-0.013475,-0.004785
0.048000,0.307000,0.000000,0.367000,0.499356,-0.000130,0.281187,0.499434,-0.000119,0.281276,0.192356,-0.000130,-0.085813,0.210629,0.001397,-0.001343,0.784904,0.784907,44.971835,180.000000,-0.000000,0.000000,179.899268,0.039467,-44.971746,0.100732,-0.039467,44.971746,-0.000035,0.000000,0.000016,0.000000,0.000000,0.000000,-0.003862,-0.036469,-0.030323
0.049000,0.307000,0.000000,0.367000,0.499355,-0.000132,0.281187,0.499434,-0.000119,0.281276,0.192355,-0.000132,-0.085813,0.210628,0.001404,-0.001338,0.784906,0.784908,44.971927,180.000000,-0.000000,0.000000,179.898973,0.039059,-44.971838,0.101027,-0.039059,44.971838,-0.000038,0.000000,0.000017,0.000000,0.000000,0.000000,-0.006823,0.013902,0.017169
0.050000,0.307000,0.000000,0.367000,0.499354,-0.000135,0.281185,0.499434,-0.000119,0.281276,0.192354,-0.000135,-0.085815,0.210628,0.001421,-0.001336,0.784894,0.784897,44.971277,180.000000,-0.000000,0.000000,179.898154,0.038561,-44.971186,0.101846,-0.038561,44.971186,-0.000040,0.000000,0.000018,0.000000,0.000000,0.000000,0.004605,0.009238,0.025224
0.051000,0.307000,0.000000,0.367000,0.499350,-0.000139,0.281181,0.499434,-0.000119,0.281276,0.192350,-0.000139,-0.085819,0.210626,0.001444,-0.001340,0.784891,0.784894,44.971095,180.000000,-0.000000,0.000000,179.896903,0.038283,-44.971003,0.103097,-0.038283,44.971003,-0.000043,0.000000,0.000019,0.000000,0.000000,0.000000,-0.002680,0.004141,0.015304
0.052000,0.307000,0.000000,0.367000,0.499347,-0.000141,0.281177,0.499434,-0.000119,0.281276,0.192347,-0.000141,-0.085823,0.210625,0.001465,-0.001342,0.784871,0.784874,44.969946,180.000000,-0.000000,0.000000,179.895767,0.037940,-44.969853,0.104233,-0.037940,44.969853,-0.000046,0.000000,0.000021,0.000000,0.000000,0.000000,-0.014465,0.001432,-0.006571
0.053000,0.307000,0.000000,0.367000,0.499346,-0.000146,0.281176,0.499434,-0.000119,0.281276,0.192346,-0.000146,-0.085824,0.210625,0.001483,-0.001334,0.784866,0.784868,44.969652,180.000000,-0.000000,0.000000,179.894980,0.037161,-44.969554,0.105020,-0.037161,44.969554,-0.000050,0.000000,0.000022,0.000000,0.000000,0.000000,-0.021667,0.014033,-0.031623
0.054000,0.307000,0.000000,0.367000,0.499344,-0.000150,0.281174,0.499434,-0.000119,0.281276,0.192344,-0.000150,-0.085826,0.210624,0.001505,-0.001329,0.784849,0.784852,44.968696,180.000000,-0.000000,0.000000,179.893946,0.036446,-44.968597,0.106054,-0.036446,44.968597,-0.000053,0.000000,0.000024,0.000000,0.000000,0.000000,0.009356,0.004647,-0.027958
0.055000,0.307000,0.000000,0.367000,0.499340,-0.000152,0.281169,0.499434,-0.000119,0.281276,0.192340,-0.000152,-0.085831,0.210622,0.001532,-0.001334,0.784826,0.784829,44.967390,180.000000,-0.000000,0.000000,179.892441,0.036123,-44.967289,0.107559,-0.036123,44.967289,-0.000057,0.000000,0.000025,0.000000,0.000000,0.000000,-0.001377,-0.013713,-0.010617
0.056000,0.307000,0.000000,0.367000,0.499339,-0.000156,0.281168,0.499434,-0.000119,0.281276,0.192339,-0.000156,-0.085832,0.210622,0.001549,-0.001327,0.784820,0.784823,44.967039,180.000000,-0.000000,0.000000,179.891731,0.035380,-44.966936,0.108269,-0.035380,44.966936,-0.000060,0.000000,0.000027,0.000000,0.000000,0.000000,-0.006032,-0.005701,-0.004551
0.057000,0.307000,0.000000,0.367000,0.499335,-0.000160,0.281162,0.499434,-0.000119,0.281276,0.192335,-0.000160,-0.085838,0.210620,0.001571,-0.001332,0.784810,0.784813,44.966464,180.000000,-0.000000,0.000000,179.890483,0.035168,-44.966356,0.109517,-0.035168,44.966356,-0.000064,0.000000,0.000029,0.000000,0.000000,0.000000,0.010085,-0.031859,-0.046738
0.058000,0.307000,0.000000,0.367000,0.499333,-0.000162,0.281162,0.499434,-0.000119,0.281276,0.192333,-0.000162,-0.085838,0.210619,0.001589,-0.001326,0.784791,0.784793,44.965353,180.000000,-0.000000,0.000000,179.889732,0.034484,-44.965246,0.110268,-0.034484,44.965246,-0.000068,0.000000,0.000030,0.000000,0.000000,0.000000,-0.018401,0.024263,-0.004662
0.059000,0.307000,0.000000,0.367000,0.499332,-0.000165,0.281160,0.499434,-0.000119,0.281277,0.192332,-0.000165,-0.085840,0.210618,0.001601,-0.001327,0.784784,0.784787,44.964993,180.000000,-0.000000,0.000000,179.889043,0.034264,-44.964886,0.110957,-0.034264,44.964886,-0.000073,0.000000,0.000032,0.000000,0.000000,0.000000,0.002183,-0.010598,-0.054873
0.060000,0.307000,0.000000,0.367000,0.499329,-0.000166,0.281155,0.499434,-0.000119,0.281277,0.192329,-0.000166,-0.085845,0.210618,0.001618,-0.001331,0.784778,0.784781,44.964619,180.000000,-0.000000,0.000000,179.888131,0.034106,-44.964509,0.111869,-0.034106,44.964509,-0.000077,0.000000,0.000034,0.000000,0.000000,0.000000,0.020280,-0.019841,0.025426
0.061000,0.307000,0.000000,0.367000,0.499327,-0.000169,0.281154,0.499434,-0.000119,0.281277,0.192327,-0.000169,-0.085846,0.210616,0.001625,-0.001334,0.784764,0.784767,44.963853,180.000000,-0.000000,0.000000,179.887707,0.034127,-44.963741,0.112293,-0.034127,44.963741,-0.000082,0.000000,0.000036,0.000000,0.000000,0.000000,0.008442,-0.029551,-0.031508
0.062000,0.307000,0.000000,0.367000,0.499324,-0.000169,0.281149,0.499434,-0.000119,0.281277,0.192324,-0.000169,-0.085851,0.210616,0.001632,-0.001339,0.784765,0.784768,44.963892,180.000000,-0.000000,0.000000,179.887234,0.034239,-44.963780,0.112766,-0.034239,44.963780,-0.000086,0.000000,0.000038,0.000000,0.000000,0.000000,0.001728,0.003461,-0.028373
0.063000,0.307000,0.000000,0.367000,0.499324,-0.000168,0.281149,0.499433,-0.000119,0.281277,0.192324,-0.000168,-0.085851,0.210615,0.001637,-0.001338,0.784763,0.784766,44.963800,180.000000,-0.000000,0.000000,179.886993,0.034077,-44.963686,0.113007,-0.034077,44.963686,-0.000091,0.000000,0.000041,0.000000,0.000000,0.000000,-0.010727,0.012518,0.036359
0.064000,0.307000,0.000000,0.367000,0.499320,-0.000168,0.281146,0.499433,-0.000119,0.281277,0.192320,-0.000168,-0.085854,0.210613,0.001641,-0.001349,0.784752,0.784755,44.963131,180.000000,-0.000000,0.000000,179.886564,0.034548,-44.963017,0.113436,-0.034548,44.963017,-0.000096,0.000000,0.000043,0.000000,0.000000,0.000000,-0.038165,0.002027,0.016175
0.065000,0.307000,0.000000,0.367000,0.499319,-0.000170,0.281145,0.499433,-0.000119,0.281277,0.192319,-0.000170,-0.085855,0.210613,0.001640,-0.001350,0.784762,0.784765,44.963720,180.000000,-0.000000,0.000000,179.886534,0.034644,-44.963606,0.113466,-0.034644,44.963606,-0.000102,0.000000,0.000045,0.000000,0.000000,0.000000,-0.039395,0.000085,0.047356
0.066000,0.307000,0.000000,0.367000,0.499314,-0.000169,0.281139,0.499433,-0.000119,0.281277,0.192314,-0.000169,-0.085861,0.210610,0.001649,-0.001365,0.784762,0.784765,44.963741,180.000000,-0.000000,0.000000,179.885770,0.035184,-44.963625,0.114230,-0.035184,44.963625,-0.000107,0.000000,0.000048,0.000000,0.000000,0.000000,-0.009434,0.008765,0.052880
0.067000,0.307000,0.000000,0.367000,0.499312,-0.000167,0.281137,0.499433,-0.000119,0.281277,0.192312,-0.000167,-0.085863,0.210610,0.001651,-0.001369,0.784754,0.784757,44.963259,180.000000,-0.000000,0.000000,179.885570,0.035370,-44.963142,0.114430,-0.035370,44.963142,-0.000113,0.000000,0.000050,0.000000,0.000000,0.000000,0.005044,0.021389,0.009329
0.068000,0.307000,0.000000,0.367000,0.499311,-0.000170,0.281136,0.499433,-0.000119,0.281277,0.192311,-0.000170,-0.085864,0.210609,0.001649,-0.001371,0.784766,0.784769,44.963930,180.000000,-0.000000,0.000000,179.885658,0.035515,-44.963814,0.114342,-0.035515,44.963814,-0.000119,0.000000,0.000053,0.000000,0.000000,0.000000,0.015262,0.019021,-0.020458
0.069000,0.307000,0.000000,0.367000,0.499308,-0.000166,0.281133,0.499433,-0.000119,0.281277,0.192308,-0.000166,-0.085867,0.210608,0.001651,-0.001379,0.784761,0.784764,44.963665,180.000000,-0.000000,0.000000,179.885398,0.035912,-44.963548,0.114602,-0.035912,44.963548,-0.000125,0.000000,0.000056,0.000000,0.000000,0.000000,-0.003264,0.022688,0.026805
0.070000,0.307000,0.000000,0.367000,0.499308,-0.000167,0.281132,0.499433,-0.000119,0.281277,0.192308,-0.000167,-0.085868,0.210608,0.001652,-0.001381,0.784759,0.784762,44.963537,180.000000,-0.000000,0.000000,179.885295,0.035972,-44.963422,0.114705,-0.035972,44.963422,-0.000131,0.000000,0.000058,0.000000,0.000000,0.000000,-0.045546,0.030452,0.062429
0.071000,0.307000,0.000000,0.367000,0.499305,-0.000165,0.281129,0.499432,-0.000119,0.281277,0.192305,-0.000165,-0.085871,0.210606,0.001654,-0.001384,0.784756,0.784759,44.963396,180.000000,-0.000000,0.000000,179.885108,0.036098,-44.963278,0.114892,-0.036098,44.963278,-0.000137,0.000000,0.000061,0.000000,0.000000,0.000000,-0.035774,-0.015964,0.030160
0.072000,0.307000,0.000000,0.367000,0.499302,-0.000167,0.281126,0.499432,-0.000119,0.281277,0.192302,-0.000167,-0.085874,0.210605,0.001657,-0.001394,0.784761,0.784764,44.963651,180.000000,-0.000000,0.000000,179.884767,0.036550,-44.963534,0.115233,-0.036550,44.963534,-0.000144,0.000000,0.000064,0.000000,0.000000,0.000000,-0.027977,-0.032610,0.012395
0.073000,0.307000,0.000000,0.367000,0.499302,-0.000167,0.281124,0.499432,-0.000119,0.281277,0.192302,-0.000167,-0.085876,0.210605,0.001659,-0.001399,0.784756,0.784759,44.963358,180.000000,-0.000000,0.000000,179.884534,0.036740,-44.963239,0.115466,-0.036740,44.963239,-0.000151,0.000000,0.000067,0.000000,0.000000,0.000000,0.003695,-0.030974,-0.024929
0.074000,0.307000,0.000000,0.367000,0.499300,-0.000167,0.281122,0.499432,-0.000119,0.281277,0.192300,-0.000167,-0.085878,0.210604,0.001660,-0.001403,0.784745,0.784748,44.962748,180.000000,-0.000000,0.000000,179.884385,0.036925,-44.962630,0.115615,-0.036925,44.962630,-0.000158,0.000000,0.000070,0.000000,0.000000,0.000000,-0.022564,-0.002945,0.007842
0.075000,0.307000,0.000000,0.367000,0.499298,-0.000165,0.281121,0.499432,-0.000119,0.281277,0.192298,-0.000165,-0.085879,0.210604,0.001663,-0.001404,0.784745,0.784748,44.962775,180.000000,-0.000000,0.000000,179.884229,0.036950,-44.962655,0.115771,-0.036950,44.962655,-0.000166,0.000000,0.000074,0.000000,0.000000,0.000000,0.004906,-0.021789,0.063216
0.076000,0.307000,0.000000,0.367000,0.499296,-0.000166,0.281118,0.499432,-0.000119,0.281277,0.192296,-0.000166,-0.085882,0.210602,0.001664,-0.001409,0.784749,0.784752,44.962979,180.000000,-0.000000,0.000000,179.884033,0.037184,-44.962860,0.115967,-0.037184,44.962860,-0.000173,0.000000,0.000077,0.000000,0.000000,0.000000,0.015515,-0.012588,-0.017569
0.077000,0.307000,0.000000,0.367000,0.499294,-0.000168,0.281117,0.499432,-0.000119,0.281278,0.192294,-0.000168,-0.085883,0.210602,0.001667,-0.001415,0.784744,0.784747,44.962709,180.000000,-0.000000,0.000000,179.883753,0.037421,-44.962589,0.116247,-0.037421,44.962589,-0.000181,0.000000,0.000081,0.000000,0.000000,0.000000,0.027038,0.000402,0.011817
0.078000,0.307000,0.000000,0.367000,0.499292,-0.000169,0.281113,0.499431,-0.000119,0.281278,0.192292,-0.000169,-0.085887,0.210601,0.001671,-0.001421,0.784754,0.784757,44.963259,180.000000,-0.000000,0.000000,179.883424,0.037629,-44.963140,0.116576,-0.037629,44.963140,-0.000189,0.000000,0.000084,0.000000,0.000000,0.000000,0.039800,0.005695,-0.083166
0.079000,0.307000,0.000000,0.367000,0.499290,-0.000163,0.281111,0.499431,-0.000119,0.281278,0.192290,-0.000163,-0.085889,0.210600,0.001675,-0.001425,0.784747,0.784750,44.962855,180.000000,-0.000000,0.000000,179.883162,0.037734,-44.962734,0.116838,-0.037734,44.962734,-0.000197,0.000000,0.000088,0.000000,0.000000,0.000000,0.005490,0.008560,-0.020522
0.080000,0.307000,0.000000,0.367000,0.499288,-0.000165,0.281110,0.499431,-0.000119,0.281278,0.192288,-0.000165,-0.085890,0.210599,0.001676,-0.001428,0.784743,0.784746,44.962647,180.000000,-0.000000,0.000000,179.883055,0.037868,-44.962527,0.116945,-0.037868,44.962527,-0.000205,0.000000,0.000092,0.000000,0.000000,0.000000,0.010873,0.012819,0.051755
0.081000,0.307000,0.000000,0.367000,0.499285,-0.000167,0.281104,0.499431,-0.000119,0.281278,0.192285,-0.000167,-0.085896,0.210599,0.001684,-0.001440,0.784746,0.784749,44.962793,180.000000,-0.000000,0.000000,179.882405,0.038327,-44.962671,0.117595,-0.038327,44.962671,-0.000214,0.000000,0.000095,0.000000,0.000000,0.000000,-0.016217,0.028923,-0.021618
0.082000,0.307000,0.000000,0.367000,0.499286,-0.000167,0.281106,0.499430,-0.000119,0.281278,0.192286,-0.000167,-0.085894,0.210598,0.001686,-0.001433,0.784747,0.784750,44.962879,180.000000,-0.000000,0.000000,179.882442,0.037950,-44.962758,0.117558,-0.037950,44.962758,-0.000223,0.000000,0.000099,0.000000,0.000000,0.000000,-0.033111,0.016868,-0.060774
0.083000,0.307000,0.000000,0.367000,0.499285,-0.000167,0.281104,0.499430,-0.000119,0.281278,0.192285,-0.000167,-0.085896,0.210598,0.001688,-0.001435,0.784745,0.784748,44.962761,180.000000,-0.000000,0.000000,179.882259,0.037966,-44.962638,0.117741,-0.037966,44.962638,-0.000232,0.000000,0.000103,0.000000,0.000000,0.000000,0.001205,0.004227,-0.022695
0.084000,0.307000,0.000000,0.367000,0.499282,-0.000170,0.281103,0.499430,-0.000119,0.281278,0.192282,-0.000170,-0.085897,0.210596,0.001693,-0.001437,0.784747,0.784751,44.962900,180.000000,-0.000000,0.000000,179.881969,0.037991,-44.962778,0.118031,-0.037991,44.962778,-0.000242,0.000000,0.000108,0.000000,0.000000,0.000000,-0.019959,0.053865,-0.006185
0.085000,0.307000,0.000000,0.367000,0.499279,-0.000167,0.281099,0.499430,-0.000119,0.281278,0.192279,-0.000167,-0.085901,0.210595,0.001696,-0.001447,0.784748,0.784751,44.962931,180.000000,-0.000000,0.000000,179.881593,0.038441,-44.962807,0.118407,-0.038441,44.962807,-0.000251,0.000000,0.000112,0.000000,0.000000,0.000000,-0.029547,0.036219,0.021025
0.086000,0.307000,0.000000,0.367000,0.499279,-0.000170,0.281097,0.499430,-0.000119,0.281278,0.192279,-0.000170,-0.085903,0.210596,0.001700,-0.001448,0.784740,0.784743,44.962473,180.000000,-0.000000,0.000000,179.881351,0.038412,-44.962348,0.118649,-0.038412,44.962348,-0.000261,0.000000,0.000116,0.000000,0.000000,0.000000,-0.017621,0.030029,-0.010383
0.087000,0.307000,0.000000,0.367000,0.499277,-0.000169,0.281096,0.499429,-0.000119,0.281279,0.192277,-0.000169,-0.085904,0.210595,0.001704,-0.001449,0.784736,0.784739,44.962232,180.000000,-0.000000,0.000000,179.881160,0.038397,-44.962106,0.118840,-0.038397,44.962106,-0.000271,0.000000,0.000121,0.000000,0.000000,0.000000,0.011803,0.029959,-0.037610
0.088000,0.307000,0.000000,0.367000,0.499276,-0.000169,0.281094,0.499429,-0.000119,0.281279,0.192276,-0.000169,-0.085906,0.210594,0.001707,-0.001453,0.784732,0.784735,44.962013,180.000000,-0.000000,0.000000,179.880928,0.038527,-44.961889,0.119072,-0.038527,44.961889,-0.000282,0.000000,0.000125,0.000000,0.000000,0.000000,0.039422,0.027585,-0.037248
0.089000,0.307000,0.000000,0.367000,0.499274,-0.000170,0.281090,0.499429,-0.000119,0.281279,0.192274,-0.000170,-0.085910,0.210594,0.001710,-0.001462,0.784738,0.784741,44.962348,180.000000,-0.000000,0.000000,179.880583,0.038911,-44.962222,0.119417,-0.038911,44.962222,-0.000292,0.000000,0.000130,0.000000,0.000000,0.000000,0.038182,0.000858,-0.061709
0.090000,0.307000,0.000000,0.367000,0.499273,-0.000171,0.281092,0.499428,-0.000119,0.281279,0.192273,-0.000171,-0.085908,0.210592,0.001714,-0.001456,0.784724,0.784727,44.961571,180.000000,-0.000000,0.000000,179.880474,0.038552,-44.961445,0.119526,-0.038552,44.961445,-0.000303,0.000000,0.000135,0.000000,0.000000,0.000000,0.010241,-0.009287,-0.018344
0.091000,0.307000,0.000000,0.367000,0.499270,-0.000172,0.281086,0.499428,-0.000119,0.281279,0.192270,-0.000172,-0.085914,0.210592,0.001721,-0.001468,0.784725,0.784728,44.961615,180.000000,-0.000000,0.000000,179.879863,0.039007,-44.961488,0.120137,-0.039007,44.961488,-0.000314,0.000000,0.000140,0.000000,0.000000,0.000000,0.001684,-0.005793,-0.056958
0.092000,0.307000,0.000000,0.367000,0.499271,-0.000173,0.281087,0.499428,-0.000119,0.281279,0.192271,-0.000173,-0.085913,0.210592,0.001719,-0.001465,0.784736,0.784740,44.962268,180.000000,-0.000000,0.000000,179.880015,0.038883,-44.962140,0.119985,-0.038883,44.962140,-0.000326,0.000000,0.000145,0.000000,0.000000,0.000000,-0.014329,0.016624,-0.017563
0.093000,0.307000,0.000000,0.367000,0.499268,-0.000173,0.281084,0.499427,-0.000119,0.281279,0.192268,-0.000173,-0.085916,0.210591,0.001725,-0.001470,0.784727,0.784730,44.961737,180.000000,-0.000000,0.000000,179.879615,0.039009,-44.961609,0.120385,-0.039009,44.961609,-0.000337,0.000000,0.000150,0.000000,0.000000,0.000000,-0.043853,-0.032050,-0.024133
0.094000,0.307000,0.000000,0.367000,0.499265,-0.000173,0.281081,0.499427,-0.000119,0.281280,0.192265,-0.000173,-0.085919,0.210590,0.001730,-0.001477,0.784728,0.784731,44.961789,180.000000,-0.000000,0.000000,179.879194,0.039256,-44.961660,0.120806,-0.039256,44.961660,-0.000349,0.000000,0.000156,0.000000,0.000000,0.000000,-0.043591,-0.002248,-0.045489
0.095000,0.307000,0.000000,0.367000,0.499264,-0.000172,0.281078,0.499427,-0.000119,0.281280,0.192264,-0.000172,-0.085922,0.210589,0.001733,-0.001482,0.784729,0.784732,44.961846,180.000000,-0.000000,0.000000,179.878951,0.039473,-44.961718,0.121049,-0.039473,44.961718,-0.000361,0.000000,0.000161,0.000000,0.000000,0.000000,-0.061290,0.003214,-0.022353
0.096000,0.307000,0.000000,0.367000,0.499261,-0.000174,0.281076,0.499426,-0.000119,0.281280,0.192261,-0.000174,-0.085924,0.210588,0.001737,-0.001487,0.784731,0.784734,44.961949,180.000000,-0.000000,0.000000,179.878624,0.039647,-44.961819,0.121376,-0.039647,44.961819,-0.000374,0.000000,0.000166,0.000000,0.000000,0.000000,0.023173,0.028068,-0.036853
0.097000,0.307000,0.000000,0.367000,0.499262,-0.000172,0.281078,0.499426,-0.000119,0.281280,0.192262,-0.000172,-0.085922,0.210588,0.001737,-0.001482,0.784722,0.784725,44.961446,180.000000,-0.000000,0.000000,179.878731,0.039398,-44.961317,0.121269,-0.039398,44.961317,-0.000386,0.000000,0.000172,0.000000,0.000000,0.000000,0.026223,-0.011301,0.009606
0.098000,0.307000,0.000000,0.367000,0.499260,-0.000171,0.281074,0.499426,-0.000119,0.281280,0.192260,-0.000171,-0.085926,0.210588,0.001741,-0.001489,0.784727,0.784730,44.961744,180.000000,-0.000000,0.000000,179.878366,0.039664,-44.961614,0.121634,-0.039664,44.961614,-0.000399,0.000000,0.000178,0.000000,0.000000,0.000000,0.006309,0.009543,0.016789
0.099000,0.307000,0.000000,0.367000,0.499256,-0.000174,0.281071,0.499425,-0.000119,0.281280,0.192256,-0.000174,-0.085929,0.210586,0.001745,-0.001499,0.784731,0.784734,44.961953,180.000000,-0.000000,0.000000,179.877964,0.040052,-44.961821,0.122036,-0.040052,44.961821,-0.000412,0.000000,0.000184,0.000000,0.000000,0.000000,-0.018665,0.021089,0.035562
0.100000,0.307000,0.000000,0.367000,0.499255,-0.000172,0.281069,0.499425,-0.000119,0.281281,0.192255,-0.000172,-0.085931,0.210585,0.001749,-0.001503,0.784723,0.784726,44.961496,180.000000,-0.000000,0.000000,179.877691,0.040181,-44.961365,0.122309,-0.040181,44.961365,-0.000426,0.000000,0.000190,0.000000,0.000000,0.000000,0.019217,-0.004409,0.057950
0.101000,0.307000,0.000000,0.367000,0.499255,-0.000174,0.281070,0.499424,-0.000119,0.281281,0.192255,-0.000174,-0.085930,0.210584,0.001749,-0.001498,0.784723,0.784726,44.961496,180.000000,-0.000000,0.000000,179.877755,0.039964,-44.961365,0.122245,-0.039964,44.961365,-0.000440,0.000000,0.000196,0.000000,0.000000,0.000000,0.017135,0.006445,0.023765
0.102000,0.307000,0.000000,0.367000,0.499253,-0.000178,0.281068,0.499424,-0.000119,0.281281,0.192253,-0.000178,-0.085932,0.210584,0.001754,-0.001504,0.784726,0.784729,44.961681,180.000000,-0.000000,0.000000,179.877413,0.040133,-44.961549,0.122587,-0.040133,44.961549,-0.000454,0.000000,0.000202,0.000000,0.000000,0.000000,0.001916,0.027126,-0.042948
0.103000,0.307000,0.000000,0.367000,0.499251,-0.000175,0.281063,0.499423,-0.000119,0.281281,0.192251,-0.000175,-0.085937,0.210584,0.001760,-0.001510,0.784714,0.784717,44.960973,180.000000,-0.000000,0.000000,179.876959,0.040314,-44.960839,0.123041,-0.040314,44.960839,-0.000468,0.000000,0.000208,0.000000,0.000000,0.000000,0.019644,0.015586,-0.034525
0.104000,0.307000,0.000000,0.367000,0.499249,-0.000178,0.281063,0.499423,-0.000119,0.281281,0.192249,-0.000178,-0.085937,0.210583,0.001762,-0.001512,0.784718,0.784721,44.961200,180.000000,-0.000000,0.000000,179.876828,0.040382,-44.961066,0.123172,-0.040382,44.961066,-0.000483,0.000000,0.000215,0.000000,0.000000,0.000000,0.026426,0.036977,-0.043509
0.105000,0.307000,0.000000,0.367000,0.499248,-0.000176,0.281062,0.499422,-0.000119,0.281282,0.192248,-0.000176,-0.085938,0.210582,0.001766,-0.001512,0.784713,0.784717,44.960960,180.000000,-0.000000,0.000000,179.876599,0.040284,-44.960824,0.123401,-0.040284,44.960824,-0.000497,0.000000,0.000222,0.000000,0.000000,0.000000,0.016629,0.000556,-0.004835
0.106000,0.307000,0.000000,0.367000,0.499246,-0.000175,0.281057,0.499422,-0.000119,0.281282,0.192246,-0.000175,-0.085943,0.210582,0.001771,-0.001521,0.784707,0.784711,44.960603,180.000000,-0.000000,0.000000,179.876170,0.040676,-44.960469,0.123830,-0.040676,44.960469,-0.000513,0.000000,0.000228,0.000000,0.000000,0.000000,0.002769,0.015142,-0.010117
0.107000,0.307000,0.000000,0.367000,0.499245,-0.000178,0.281057,0.499421,-0.000119,0.281282,0.192245,-0.000178,-0.085943,0.210581,0.001772,-0.001521,0.784707,0.784710,44.960588,180.000000,-0.000000,0.000000,179.876093,0.040627,-44.960452,0.123907,-0.040627,44.960452,-0.000528,0.000000,0.000235,0.000000,0.000000,0.000000,0.006996,0.016229,-0.085793
0.108000,0.307000,0.000000,0.367000,0.499244,-0.000178,0.281057,0.499421,-0.000119,0.281282,0.192244,-0.000178,-0.085943,0.210581,0.001774,-0.001522,0.784717,0.784720,44.961143,180.000000,-0.000000,0.000000,179.876004,0.040635,-44.961008,0.123996,-0.040635,44.961008,-0.000544,0.000000,0.000242,0.000000,0.000000,0.000000,0.018215,0.032522,-0.021553
0.109000,0.307000,0.000000,0.367000,0.499242,-0.000178,0.281054,0.499420,-0.000119,0.281283,0.192242,-0.000178,-0.085946,0.210579,0.001780,-0.001529,0.784710,0.784714,44.960786,180.000000,-0.000000,0.000000,179.875532,0.040870,-44.960650,0.124468,-0.040870,44.960650,-0.000560,0.000000,0.000249,0.000000,0.000000,0.000000,-0.032497,0.009532,0.033062
0.110000,0.307000,0.000000,0.367000,0.499241,-0.000176,0.281052,0.499420,-0.000119,0.281283,0.192241,-0.000176,-0.085948,0.210579,0.001781,-0.001531,0.784704,0.784708,44.960446,180.000000,-0.000000,0.000000,179.875442,0.040969,-44.960310,0.124558,-0.040969,44.960310,-0.000576,0.000000,0.000257,0.000000,0.000000,0.000000,-0.041892,-0.018779,0.040331
0.111000,0.307000,0.000000,0.367000,0.499242,-0.000179,0.281052,0.499419,-0.000119,0.281283,0.192242,-0.000179,-0.085948,0.210580,0.001784,-0.001527,0.784709,0.784713,44.960730,180.000000,-0.000000,0.000000,179.875332,0.040684,-44.960592,0.124668,-0.040684,44.960592,-0.000592,0.000000,0.000264,0.000000,0.000000,0.000000,-0.015911,0.022845,0.069605
0.112000,0.307000,0.000000,0.367000,0.499241,-0.000181,0.281052,0.499418,-0.000119,0.281283,0.192241,-0.000181,-0.085948,0.210579,0.001788,-0.001528,0.784711,0.784715,44.960847,180.000000,-0.000000,0.000000,179.875140,0.040656,-44.960711,0.124860,-0.040656,44.960711,-0.000609,0.000000,0.000271,0.000000,0.000000,0.000000,-0.039063,0.003958,0.042316
0.113000,0.307000,0.000000,0.367000,0.499240,-0.000179,0.281052,0.499418,-0.000119,0.281284,0.192240,-0.000179,-0.085948,0.210578,0.001789,-0.001529,0.784704,0.784707,44.960406,180.000000,-0.000000,0.000000,179.875069,0.040724,-44.960269,0.124931,-0.040724,44.960269,-0.000626,0.000000,0.000279,0.000000,0.000000,0.000000,-0.037219,-0.026484,0.026016
0.114000,0.307000,0.000000,0.367000,0.499238,-0.000180,0.281050,0.499417,-0.000119,0.281284,0.192238,-0.000180,-0.085950,0.210577,0.001795,-0.001530,0.784703,0.784706,44.960366,180.000000,-0.000000,0.000000,179.874723,0.040587,-44.960228,0.125277,-0.040587,44.960228,-0.000644,0.000000,0.000287,0.000000,0.000000,0.000000,-0.045912,-0.012795,0.036854
0.115000,0.307000,0.000000,0.367000,0.499236,-0.000180,0.281046,0.499416,-0.000119,0.281284,0.192236,-0.000180,-0.085954,0.210578,0.001799,-0.001537,0.784703,0.784707,44.960375,180.000000,-0.000000,0.000000,179.874372,0.040893,-44.960235,0.125628,-0.040893,44.960235,-0.000662,0.000000,0.000295,0.000000,0.000000,0.000000,-0.011013,-0.024149,-0.037878
0.116000,0.307000,0.000000,0.367000,0.499237,-0.000182,0.281048,0.499416,-0.000119,0.281285,0.192237,-0.000182,-0.085952,0.210577,0.001804,-0.001529,0.784690,0.784694,44.959656,180.000000,-0.000000,0.000000,179.874270,0.040352,-44.959515,0.125730,-0.040352,44.959515,-0.000679,0.000000,0.000303,0.000000,0.000000,0.000000,0.022279,0.018656,-0.045229
0.117000,0.307000,0.000000,0.367000,0.499236,-0.000181,0.281045,0.499415,-0.000119,0.281285,0.192236,-0.000181,-0.085955,0.210578,0.001810,-0.001534,0.784686,0.784690,44.959411,180.000000,-0.000000,0.000000,179.873895,0.040500,-44.959269,0.126105,-0.040500,44.959269,-0.000698,0.000000,0.000311,0.000000,0.000000,0.000000,0.011959,0.038945,-0.062174
0.118000,0.307000,0.000000,0.367000,0.499235,-0.000183,0.281046,0.499414,-0.000119,0.281285,0.192235,-0.000183,-0.085954,0.210576,0.001810,-0.001531,0.784695,0.784698,44.959899,180.000000,-0.000000,0.000000,179.873908,0.040354,-44.959759,0.126092,-0.040354,44.959759,-0.000716,0.000000,0.000319,0.000000,0.000000,0.000000,0.031631,-0.000168,0.028160
0.119000,0.307000,0.000000,0.367000,0.499233,-0.000183,0.281044,0.499414,-0.000119,0.281285,0.192233,-0.000183,-0.085956,0.210575,0.001816,-0.001537,0.784687,0.784690,44.959451,180.000000,-0.000000,0.000000,179.873475,0.040534,-44.959310,0.126525,-0.040534,44.959310,-0.000735,0.000000,0.000328,0.000000,0.000000,0.000000,-0.004895,-0.000357,0.038142
0.120000,0.307000,0.000000,0.367000,0.499231,-0.000182,0.281041,0.499413,-0.000119,0.281286,0.192231,-0.000182,-0.085959,0.210575,0.001821,-0.001543,0.784682,0.784686,44.959180,180.000000,-0.000000,0.000000,179.873099,0.040738,-44.959040,0.126901,-0.040738,44.959040,-0.000754,0.000000,0.000336,0.000000,0.000000,0.000000,0.014873,-0.011116,0.030368
0.121000,0.307000,0.000000,0.367000,0.499229,-0.000184,0.281037,0.499412,-0.000119,0.281286,0.192229,-0.000184,-0.085963,0.210574,0.001830,-0.001549,0.784684,0.784688,44.959304,180.000000,-0.000000,0.000000,179.872508,0.040864,-44.959160,0.127492,-0.040864,44.959160,-0.000774,0.000000,0.000345,0.000000,0.000000,0.000000,0.014351,0.012293,-0.056077
0.122000,0.307000,0.000000,0.367000,0.499230,-0.000185,0.281041,0.499411,-0.000119,0.281287,0.192230,-0.000185,-0.085959,0.210574,0.001831,-0.001540,0.784683,0.784686,44.959220,180.000000,-0.000000,0.000000,179.872630,0.040355,-44.959076,0.127370,-0.040355,44.959076,-0.000794,0.000000,0.000354,0.000000,0.000000,0.000000,-0.016171,0.009355,0.026758
0.123000,0.307000,0.000000,0.367000,0.499228,-0.000186,0.281038,0.499411,-0.000119,0.281287,0.192228,-0.000186,-0.085962,0.210573,0.001835,-0.001545,0.784681,0.784685,44.959125,180.000000,-0.000000,0.000000,179.872363,0.040546,-44.958982,0.127637,-0.040546,44.958982,-0.000814,0.000001,0.000362,0.000000,0.000000,0.000000,0.016134,0.014998,-0.010651
0.124000,0.307000,0.000000,0.367000,0.499226,-0.000187,0.281037,0.499410,-0.000119,0.281287,0.192226,-0.000187,-0.085963,0.210572,0.001838,-0.001547,0.784681,0.784685,44.959118,180.000000,-0.000000,0.000000,179.872129,0.040582,-44.958974,0.127871,-0.040582,44.958974,-0.000834,0.000001,0.000372,0.000000,0.000000,0.000000,0.012301,0.009393,-0.026851
0.125000,0.307000,0.000000,0.367000,0.499227,-0.000183,0.281038,0.499409,-0.000119,0.281288,0.192227,-0.000183,-0.085962,0.210572,0.001839,-0.001545,0.784675,0.784679,44.958774,180.000000,-0.000000,0.000000,179.872118,0.040426,-44.958629,0.127882,-0.040426,44.958629,-0.000855,0.000001,0.000381,0.000000,0.000000,0.000000,-0.021751,0.020111,0.057515
0.126000,0.307000,0.000000,0.367000,0.499226,-0.000186,0.281034,0.499408,-0.000119,0.281288,0.192226,-0.000186,-0.085966,0.210573,0.001842,-0.001551,0.784675,0.784679,44.958777,180.000000,-0.000000,0.000000,179.871821,0.040708,-44.958634,0.128179,-0.040708,44.958634,-0.000876,0.000001,0.000390,0.000000,0.000000,0.000000,-0.001674,0.017199,-0.017492
0.127000,0.307000,0.000000,0.367000,0.499224,-0.000185,0.281032,0.499407,-0.000119,0.281288,0.192224,-0.000185,-0.085968,0.210572,0.001846,-0.001556,0.784672,0.784675,44.958581,180.000000,-0.000000,0.000000,179.871565,0.040866,-44.958436,0.128435,-0.040866,44.958436,-0.000897,0.000001,0.000400,0.000000,0.000000,0.000000,0.012007,-0.000091,-0.031971
0.128000,0.307000,0.000000,0.367000,0.499224,-0.000186,0.281033,0.499406,-0.000119,0.281289,0.192224,-0.000186,-0.085967,0.210572,0.001848,-0.001553,0.784678,0.784682,44.958977,180.000000,-0.000000,0.000000,179.871514,0.040706,-44.958832,0.128486,-0.040706,44.958832,-0.000919,0.000001,0.000409,0.000000,0.000000,0.000000,-0.002788,-0.050012,-0.000042
0.129000,0.307000,0.000000,0.367000,0.499223,-0.000186,0.281030,0.499405,-0.000119,0.281289,0.192223,-0.000186,-0.085970,0.210572,0.001849,-0.001559,0.784678,0.784681,44.958938,180.000000,-0.000000,0.000000,179.871318,0.040933,-44.958791,0.128682,-0.040933,44.958791,-0.000940,0.000001,0.000419,0.000000,0.000000,0.000000,-0.038430,-0.031074,-0.050125
0.130000,0.307000,0.000000,0.367000,0.499223,-0.000184,0.281032,0.499404,-0.000119,0.281290,0.192223,-0.000184,-0.085968,0.210571,0.001848,-0.001555,0.784666,0.784670,44.958261,180.000000,-0.000000,0.000000,179.871450,0.040782,-44.958115,0.128550,-0.040782,44.958115,-0.000963,0.000001,0.000429,0.000000,0.000000,0.000000,0.003869,-0.001139,0.025773
0.131000,0.307000,0.000000,0.367000,0.499222,-0.000186,0.281030,0.499403,-0.000119,0.281290,0.192222,-0.000186,-0.085970,0.210571,0.001850,-0.001559,0.784672,0.784676,44.958606,180.000000,-0.000000,0.000000,179.871282,0.040924,-44.958460,0.128718,-0.040924,44.958460,-0.000985,0.000001,0.000439,0.000000,0.000000,0.000000,0.001122,-0.007521,0.022487
0.132000,0.307000,0.000000,0.367000,0.499221,-0.000185,0.281030,0.499402,-0.000119,0.281291,0.192221,-0.000185,-0.085970,0.210570,0.001850,-0.001560,0.784669,0.784673,44.958433,180.000000,-0.000000,0.000000,179.871221,0.041002,-44.958286,0.128779,-0.041002,44.958286,-0.001008,0.000001,0.000449,0.000000,0.000000,0.000000,0.001976,-0.012050,-0.011055
0.133000,0.307000,0.000000,0.367000,0.499221,-0.000187,0.281030,0.499401,-0.000119,0.281291,0.192221,-0.000187,-0.085970,0.210570,0.001852,-0.001560,0.784664,0.784668,44.958148,180.000000,-0.000000,0.000000,179.871153,0.040937,-44.958001,0.128847,-0.040937,44.958001,-0.001031,0.000001,0.000459,0.000000,0.000000,0.000000,0.000816,-0.000643,0.029879
0.134000,0.307000,0.000000,0.367000,0.499219,-0.000187,0.281027,0.499400,-0.000119,0.281291,0.192219,-0.000187,-0.085973,0.210570,0.001855,-0.001567,0.784671,0.784675,44.958555,180.000000,-0.000000,0.000000,179.870842,0.041240,-44.958407,0.129158,-0.041240,44.958407,-0.001054,0.000001,0.000470,0.000000,0.000000,0.000000,0.007576,-0.008037,0.019794
0.135000,0.307000,0.000000,0.367000,0.499218,-0.000187,0.281025,0.499399,-0.000119,0.281292,0.192218,-0.000187,-0.085975,0.210569,0.001855,-0.001570,0.784668,0.784672,44.958377,180.000000,-0.000000,0.000000,179.870781,0.041403,-44.958228,0.129219,-0.041403,44.958228,-0.001078,0.000001,0.000480,0.000000,0.000000,0.000000,-0.009898,-0.012535,0.039980
0.136000,0.307000,0.000000,0.367000,0.499219,-0.000187,0.281026,0.499398,-0.000119,0.281292,0.192219,-0.000187,-0.085974,0.210570,0.001855,-0.001567,0.784664,0.784668,44.958164,180.000000,-0.000000,0.000000,179.870836,0.041250,-44.958016,0.129164,-0.041250,44.958016,-0.001102,0.000001,0.000491,0.000000,0.000000,0.000000,-0.038996,0.000678,0.022281
0.137000,0.307000,0.000000,0.367000,0.499218,-0.000185,0.281027,0.499397,-0.000119,0.281293,0.192218,-0.000185,-0.085973,0.210569,0.001854,-0.001567,0.784663,0.784667,44.958080,180.000000,-0.000000,0.000000,179.870888,0.041258,-44.957934,0.129112,-0.041258,44.957934,-0.001126,0.000001,0.000502,0.000000,0.000000,0.000000,-0.048661,-0.023529,0.024434
0.138000,0.307000,0.000000,0.367000,0.499218,-0.000189,0.281026,0.499396,-0.000119,0.281293,0.192218,-0.000189,-0.085974,0.210569,0.001858,-0.001567,0.784675,0.784678,44.958753,180.000000,-0.000000,0.000000,179.870688,0.041204,-44.958605,0.129312,-0.041204,44.958605,-0.001151,0.000001,0.000513,0.000000,0.000000,0.000000,-0.017517,-0.033877,-0.009594
0.139000,0.307000,0.000000,0.367000,0.499216,-0.000185,0.281025,0.499395,-0.000119,0.281294,0.192216,-0.000185,-0.085975,0.210568,0.001858,-0.001569,0.784662,0.784666,44.958042,180.000000,-0.000000,0.000000,179.870630,0.041259,-44.957895,0.129370,-0.041259,44.957895,-0.001176,0.000001,0.000524,0.000000,0.000000,0.000000,-0.034486,-0.021378,-0.042298
0.140000,0.307000,0.000000,0.367000,0.499215,-0.000186,0.281021,0.499393,-0.000119,0.281295,0.192215,-0.000186,-0.085979,0.210568,0.001862,-0.001576,0.784665,0.784669,44.958198,180.000000,-0.000000,0.000000,179.870273,0.041562,-44.958049,0.129727,-0.041562,44.958049,-0.001201,0.000001,0.000535,0.000000,0.000000,0.000000,-0.015114,-0.003758,0.044649
0.141000,0.307000,0.000000,0.367000,0.499215,-0.000183,0.281023,0.499392,-0.000119,0.281295,0.192215,-0.000183,-0.085977,0.210568,0.001865,-0.001573,0.784659,0.784663,44.957874,180.000000,-0.000000,0.000000,179.870213,0.041331,-44.957726,0.129787,-0.041331,44.957726,-0.001227,0.000001,0.000547,0.000000,0.000000,0.000000,0.013154,-0.038664,0.033602
0.142000,0.307000,0.000000,0.367000,0.499215,-0.000185,0.281023,0.499391,-0.000119,0.281296,0.192215,-0.000185,-0.085977,0.210568,0.001864,-0.001573,0.784666,0.784670,44.958270,180.000000,-0.000000,0.000000,179.870247,0.041356,-44.958122,0.129753,-0.041356,44.958122,-0.001253,0.000001,0.000558,0.000000,0.000000,0.000000,0.006416,-0.060496,-0.041976
0.143000,0.307000,0.000000,0.367000,0.499214,-0.000187,0.281022,0.499390,-0.000119,0.281296,0.192214,-0.000187,-0.085978,0.210567,0.001863,-0.001575,0.784668,0.784672,44.958396,180.000000,-0.000000,0.000000,179.870233,0.041480,-44.958247,0.129767,-0.041480,44.958247,-0.001279,0.000001,0.000570,0.000000,0.000000,0.000000,-0.001532,0.005700,-0.053914
0.144000,0.307000,0.000000,0.367000,0.499214,-0.000189,0.281021,0.499388,-0.000119,0.281297,0.192214,-0.000189,-0.085979,0.210567,0.001865,-0.001576,0.784676,0.784680,44.958835,180.000000,-0.000000,0.000000,179.870152,0.041511,-44.958687,0.129848,-0.041511,44.958687,-0.001305,0.000001,0.000582,0.000000,0.000000,0.000000,0.002431,-0.012280,-0.062528
0.145000,0.307000,0.000000,0.367000,0.499214,-0.000191,0.281020,0.499387,-0.000119,0.281297,0.192214,-0.000191,-0.085980,0.210567,0.001866,-0.001577,0.784680,0.784684,44.959073,180.000000,-0.000000,0.000000,179.870035,0.041526,-44.958924,0.129965,-0.041526,44.958924,-0.001332,0.000001,0.000593,0.000000,0.000000,0.000000,0.022029,-0.017485,-0.025845
0.146000,0.307000,0.000000,0.367000,0.499211,-0.000187,0.281016,0.499386,-0.000119,0.281298,0.192211,-0.000187,-0.085984,0.210567,0.001865,-0.001586,0.784669,0.784673,44.958424,180.000000,-0.000000,0.000000,179.869901,0.042020,-44.958276,0.130099,-0.042020,44.958276,-0.001359,0.000001,0.000606,0.000000,0.000000,0.000000,0.032572,0.004187,0.037419
0.147000,0.307000,0.000000,0.367000,0.499210,-0.000189,0.281017,0.499384,-0.000119,0.281299,0.192210,-0.000189,-0.085983,0.210566,0.001869,-0.001585,0.784667,0.784671,44.958350,180.000000,-0.000000,0.000000,179.869755,0.041875,-44.958199,0.130245,-0.041875,44.958199,-0.001387,0.000001,0.000618,0.000000,0.000000,0.000000,0.019092,0.025298,0.059583
0.148000,0.307000,0.000000,0.367000,0.499210,-0.000190,0.281016,0.499383,-0.000119,0.281299,0.192210,-0.000190,-0.085984,0.210566,0.001870,-0.001585,0.784672,0.784676,44.958619,180.000000,-0.000000,0.000000,179.869683,0.041881,-44.958470,0.130317,-0.041881,44.958470,-0.001415,0.000001,0.000630,0.000000,0.000000,0.000000,0.033480,0.047589,0.014563
0.149000,0.307000,0.000000,0.367000,0.499211,-0.000186,0.281018,0.499381,-0.000119,0.281300,0.192211,-0.000186,-0.085982,0.210566,0.001867,-0.001582,0.784661,0.784665,44.958006,180.000000,-0.000000,0.000000,179.869918,0.041755,-44.957856,0.130082,-0.041755,44.957856,-0.001443,0.000001,0.000643,0.000000,0.000000,0.000000,-0.001896,0.022104,0.069728
0.150000,0.307000,0.000000,0.367000,0.499209,-0.000186,0.281015,0.499380,-0.000119,0.281301,0.192209,-0.000186,-0.085985,0.210565,0.001871,-0.001591,0.784654,0.784658,44.957564,180.000000,-0.000000,0.000000,179.869489,0.042137,-44.957414,0.130511,-0.042137,44.957414,-0.001471,0.000001,0.000655,0.000000,0.000000,0.000000,-0.032306,-0.006803,0.021616
0.151000,0.307000,0.000000,0.367000,0.499209,-0.000186,0.281014,0.499378,-0.000119,0.281301,0.192209,-0.000186,-0.085986,0.210566,0.001873,-0.001590,0.784653,0.784657,44.957531,180.000000,-0.000000,0.000000,179.869410,0.042058,-44.957381,0.130590,-0.042058,44.957381,-0.001500,0.000001,0.000668,0.000000,0.000000,0.000000,-0.020960,0.014686,0.011488
0.152000,0.307000,0.000000,0.367000,0.499209,-0.000187,0.281014,0.499377,-0.000119,0.281302,0.192209,-0.000187,-0.085986,0.210566,0.001872,-0.001592,0.784661,0.784665,44.958011,180.000000,-0.000000,0.000000,179.869439,0.042184,-44.957861,0.130561,-0.042184,44.957861,-0.001529,0.000001,0.000681,0.000000,0.000000,0.000000,-0.006420,0.004920,-0.022603
0.153000,0.307000,0.000000,0.367000,0.499208,-0.000186,0.281013,0.499375,-0.000119,0.281303,0.192208,-0.000186,-0.085987,0.210565,0.001875,-0.001594,0.784663,0.784667,44.958080,180.000000,-0.000000,0.000000,179.869249,0.042204,-44.957931,0.130751,-0.042204,44.957931,-0.001558,0.000001,0.000694,0.000000,0.000000,0.000000,0.031398,0.027153,0.032233
0.154000,0.307000,0.000000,0.367000,0.499206,-0.000187,0.281012,0.499374,-0.000119,0.281303,0.192206,-0.000187,-0.085988,0.210564,0.001875,-0.001596,0.784658,0.784662,44.957827,180.000000,-0.000000,0.000000,179.869181,0.042343,-44.957675,0.130819,-0.042343,44.957675,-0.001588,0.000001,0.000707,0.000000,0.000000,0.000000,-0.027885,-0.011235,-0.004789
0.155000,0.307000,0.000000,0.367000,0.499208,-0.000188,0.281014,0.499372,-0.000119,0.281304,0.192208,-0.000188,-0.085986,0.210564,0.001870,-0.001589,0.784669,0.784673,44.958437,180.000000,-0.000000,0.000000,179.869583,0.042043,-44.958286,0.130417,-0.042043,44.958286,-0.001618,0.000001,0.000721,0.000000,0.000000,0.000000,0.016434,0.001059,-0.099226
0.156000,0.307000,0.000000,0.367000,0.499207,-0.000188,0.281012,0.499370,-0.000119,0.281305,0.192207,-0.000188,-0.085988,0.210565,0.001874,-0.001593,0.784669,0.784673,44.958427,180.000000,-0.000000,0.000000,179.869311,0.042170,-44.958276,0.130689,-0.042170,44.958276,-0.001648,0.000001,0.000734,0.000000,0.000000,0.000000,0.014591,-0.018995,-0.008380
0.157000,0.307000,0.000000,0.367000,0.499205,-0.000188,0.281012,0.499369,-0.000119,0.281305,0.192205,-0.000188,-0.085988,0.210563,0.001876,-0.001596,0.784664,0.784668,44.958176,180.000000,-0.000000,0.000000,179.869107,0.042300,-44.958025,0.130893,-0.042300,44.958025,-0.001679,0.000001,0.000748,0.000000,0.000000,0.000000,0.028923,0.016198,-0.049594
0.158000,0.307000,0.000000,0.367000,0.499203,-0.000187,0.281007,0.499367,-0.000119,0.281306,0.192203,-0.000187,-0.085993,0.210563,0.001882,-0.001605,0.784667,0.784671,44.958329,180.000000,-0.000000,0.000000,179.868626,0.042648,-44.958177,0.131374,-0.042648,44.958177,-0.001710,0.000001,0.000762,0.000000,0.000000,0.000000,0.013157,-0.027167,-0.046113
0.159000,0.307000,0.000000,0.367000,0.499203,-0.000185,0.281008,0.499365,-0.000119,0.281307,0.192203,-0.000185,-0.085992,0.210563,0.001881,-0.001602,0.784664,0.784668,44.958145,180.000000,-0.000000,0.000000,179.868728,0.042502,-44.957994,0.131272,-0.042502,44.957994,-0.001741,0.000001,0.000775,0.000000,0.000000,0.000000,0.017814,-0.022637,-0.036701
0.160000,0.307000,0.000000,0.367000,0.499203,-0.000185,0.281009,0.499364,-0.000119,0.281308,0.192203,-0.000185,-0.085991,0.210563,0.001880,-0.001600,0.784651,0.784655,44.957407,180.000000,-0.000000,0.000000,179.868847,0.042400,-44.957255,0.131153,-0.042400,44.957255,-0.001772,0.000001,0.000790,0.000000,0.000000,0.000000,0.005386,0.004751,-0.077825
0.161000,0.307000,0.000000,0.367000,0.499202,-0.000189,0.281007,0.499362,-0.000119,0.281309,0.192202,-0.000189,-0.085993,0.210562,0.001882,-0.001605,0.784657,0.784661,44.957736,180.000000,-0.000000,0.000000,179.868615,0.042619,-44.957583,0.131385,-0.042619,44.957583,-0.001804,0.000001,0.000804,0.000000,0.000000,0.000000,0.001245,0.037561,-0.034808
0.162000,0.307000,0.000000,0.367000,0.499201,-0.000186,0.281007,0.499360,-0.000119,0.281309,0.192201,-0.000186,-0.085993,0.210561,0.001885,-0.001604,0.784655,0.784659,44.957627,180.000000,-0.000000,0.000000,179.868490,0.042495,-44.957475,0.131510,-0.042495,44.957475,-0.001836,0.000001,0.000818,0.000000,0.000000,0.000000,0.017365,0.009051,0.092055
0.163000,0.307000,0.000000,0.367000,0.499200,-0.000187,0.281005,0.499358,-0.000119,0.281310,0.192200,-0.000187,-0.085995,0.210561,0.001884,-0.001611,0.784658,0.784662,44.957828,180.000000,-0.000000,0.000000,179.868387,0.042898,-44.957675,0.131613,-0.042898,44.957675,-0.001869,0.000001,0.000833,0.000000,0.000000,0.000000,-0.015091,-0.014356,0.060943
0.164000,0.307000,0.000000,0.367000,0.499200,-0.000189,0.281005,0.499356,-0.000119,0.281311,0.192200,-0.000189,-0.085995,0.210562,0.001884,-0.001608,0.784656,0.784660,44.957716,180.000000,-0.000000,0.000000,179.868483,0.042758,-44.957564,0.131517,-0.042758,44.957564,-0.001902,0.000001,0.000847,0.000000,0.000000,0.000000,-0.038643,0.026191,-0.006703
0.165000,0.307000,0.000000,0.367000,0.499198,-0.000189,0.281004,0.499354,-0.000119,0.281312,0.192198,-0.000189,-0.085996,0.210560,0.001883,-0.001615,0.784670,0.784674,44.958499,180.000000,-0.000000,0.000000,179.868370,0.043100,-44.958346,0.131630,-0.043100,44.958346,-0.001935,0.000001,0.000862,0.000000,0.000000,0.000000,-0.003647,0.010619,-0.023420
0.166000,0.307000,0.000000,0.367000,0.499200,-0.000187,0.281006,0.499352,-0.000119,0.281313,0.192200,-0.000187,-0.085994,0.210560,0.001884,-0.001607,0.784659,0.784662,44.957847,180.000000,-0.000000,0.000000,179.868472,0.042697,-44.957694,0.131528,-0.042697,44.957694,-0.001968,0.000001,0.000877,0.000000,0.000000,0.000000,0.023797,0.004647,-0.022907
0.167000,0.307000,0.000000,0.367000,0.499197,-0.000187,0.281003,0.499350,-0.000119,0.281314,0.192197,-0.000187,-0.085997,0.210560,0.001886,-0.001615,0.784655,0.784659,44.957639,180.000000,-0.000000,0.000000,179.868197,0.043081,-44.957487,0.131803,-0.043081,44.957487,-0.002002,0.000001,0.000892,0.000000,0.000000,0.000000,0.004151,0.009962,0.032189
0.168000,0.307000,0.000000,0.367000,0.499197,-0.000188,0.281001,0.499348,-0.000119,0.281315,0.192197,-0.000188,-0.085999,0.210560,0.001887,-0.001618,0.784659,0.784663,44.957895,180.000000,-0.000000,0.000000,179.868082,0.043196,-44.957743,0.131918,-0.043196,44.957743,-0.002036,0.000001,0.000907,0.000000,0.000000,0.000000,0.054289,0.031408,0.018215
