t,target_x,target_y,target_z,actual_x,actual_y,actual_z,inner_x,inner_y,inner_z,position_error_x,position_error_y,position_error_z,position_error_norm,orientation_error_x,orientation_error_y,orientation_error_z,orientation_error_norm_rad,orientation_error_norm_deg,target_roll_deg,target_pitch_deg,target_yaw_deg,actual_roll_deg,actual_pitch_deg,actual_yaw_deg,error_roll_deg,error_pitch_deg,error_yaw_deg,inner_vx,inner_vy,inner_vz,filtered_fx,filtered_fy,filtered_fz,masked_fx,masked_fy,masked_fz
0.000000,0.307000,0.000000,0.367000,0.308781,-0.000300,0.363975,0.308781,-0.000300,0.363975,0.001781,-0.000300,-0.003025,0.003523,0.000245,-0.009565,0.012989,0.016132,0.924317,180.000000,-0.000000,0.000000,179.982397,0.547934,-0.744278,0.017603,-0.547934,0.744278,0.000000,0.000000,0.000000,0.000000,0.000000,0.000000,0.000000,0.000000,0.000000
0.001000,0.307000,0.000000,0.367000,0.308781,-0.000300,0.363974,0.308781,-0.000300,0.363975,0.001781,-0.000300,-0.003026,0.003524,0.000245,-0.009571,0.012999,0.016144,0.924986,180.000000,-0.000000,0.000000,179.982389,0.548250,-0.744876,0.017611,-0.548250,0.744876,0.000000,0.000000,0.000000,0.000000,0.000000,0.000000,-0.000615,0.007651,0.028442
0.002000,0.307000,0.000000,0.367000,0.308781,-0.000300,0.363973,0.308781,-0.000300,0.363975,0.001781,-0.000300,-0.003027,0.003525,0.000242,-0.009573,0.012989,0.016137,0.924610,180.000000,-0.000000,0.000000,179.982585,0.548388,-0.744311,0.017415,-0.548388,0.744311,-0.000000,0.000000,0.000000,0.000000,0.000000,0.000000,0.001388,-0.019372,0.006738
0.003000,0.307000,0.000000,0.367000,0.308781,-0.000300,0.363974,0.308781,-0.000300,0.363975,0.001781,-0.000300,-0.003026,0.003524,0.000243,-0.009571,0.012988,0.016136,0.924498,180.000000,-0.000000,0.000000,179.982541,0.548274,-0.744255,0.017459,-0.548274,0.744255,-0.000000,0.000000,0.000000,0.000000,0.000000,0.000000,0.004247,-0.025928,-0.017293
0.004000,0.307000,0.000000,0.367000,0.308780,-0.000299,0.363973,0.308781,-0.000300,0.363975,0.001780,-0.000299,-0.003027,0.003524,0.000242,-0.009574,0.012985,0.016134,0.924422,180.000000,-0.000000,0.000000,179.982590,0.548419,-0.744055,0.017410,-0.548419,0.744055,-0.000000,0.000000,0.000000,0.000000,0.000000,0.000000,0.011577,0.011337,0.017049
0.005000,0.307000,0.000000,0.367000,0.308780,-0.000298,0.363972,0.308781,-0.000300,0.363975,0.001780,-0.000298,-0.003028,0.003525,0.000237,-0.009573,0.012988,0.016136,0.924545,180.000000,-0.000000,0.000000,179.982837,0.548371,-0.744248,0.017163,-0.548371,0.744248,-0.000000,0.000000,0.000000,0.000000,0.000000,0.000000,-0.023695,0.006747,-0.025154
0.006000,0.307000,0.000000,0.367000,0.308779,-0.000298,0.363970,0.308781,-0.000300,0.363975,0.001779,-0.000298,-0.003030,0.003527,0.000242,-0.009580,0.012978,0.016132,0.924317,180.000000,-0.000000,0.000000,179.982545,0.548772,-0.743663,0.017455,-0.548772,0.743663,-0.000000,0.000000,0.000000,0.000000,0.000000,0.000000,-0.019029,-0.009778,-0.005224
0.007000,0.307000,0.000000,0.367000,0.308779,-0.000299,0.363969,0.308781,-0.000300,0.363975,0.001779,-0.000299,-0.003031,0.003527,0.000241,-0.009581,0.012986,0.016140,0.924728,180.000000,-0.000000,0.000000,179.982629,0.548860,-0.744111,0.017371,-0.548860,0.744111,-0.000000,0.000000,0.000000,0.000000,0.000000,0.000000,-0.010848,0.007031,0.007421
0.008000,0.307000,0.000000,0.367000,0.308780,-0.000300,0.363971,0.308781,-0.000300,0.363975,0.001780,-0.000300,-0.003029,0.003526,0.000241,-0.009573,0.012977,0.016128,0.924050,180.000000,-0.000000,0.000000,179.982655,0.548363,-0.743635,0.017345,-0.548363,0.743635,-0.000000,0.000000,0.000000,0.000000,0.000000,0.000000,0.011533,-0.011188,0.037802
0.009000,0.307000,0.000000,0.367000,0.308778,-0.000297,0.363968,0.308781,-0.000300,0.363975,0.001778,-0.000297,-0.003032,0.003528,0.000242,-0.009582,0.012974,0.016131,0.924218,180.000000,-0.000000,0.000000,179.982552,0.548909,-0.743440,0.017448,-0.548909,0.743440,-0.000000,0.000000,0.000000,0.000000,0.000000,0.000000,-0.007009,-0.004539,-0.038838
0.010000,0.307000,0.000000,0.367000,0.308778,-0.000299,0.363967,0.308781,-0.000300,0.363975,0.001778,-0.000299,-0.003033,0.003528,0.000242,-0.009586,0.012985,0.016142,0.924870,180.000000,-0.000000,0.000000,179.982581,0.549148,-0.744074,0.017419,-0.549148,0.744074,-0.000000,0.000000,0.000000,0.000000,0.000000,0.000000,-0.012394,-0.009178,-0.051710
0.011000,0.307000,0.000000,0.367000,0.308778,-0.000299,0.363968,0.308781,-0.000300,0.363975,0.001778,-0.000299,-0.003032,0.003528,0.000241,-0.009585,0.012978,0.016136,0.924519,180.000000,-0.000000,0.000000,179.982614,0.549065,-0.743699,0.017386,-0.549065,0.743699,-0.000000,0.000000,0.000000,0.000000,0.000000,0.000000,-0.011266,-0.029923,-0.036508
0.012000,0.307000,0.000000,0.367000,0.308780,-0.000299,0.363970,0.308781,-0.000300,0.363975,0.001780,-0.000299,-0.003030,0.003527,0.000246,-0.009577,0.012977,0.016130,0.924189,180.000000,-0.000000,0.000000,179.982345,0.548636,-0.743601,0.017655,-0.548636,0.743601,-0.000000,0.000000,0.000000,0.000000,0.000000,0.000000,0.030893,-0.004941,-0.048073
0.013000,0.307000,0.000000,0.367000,0.308778,-0.000298,0.363966,0.308781,-0.000300,0.363975,0.001778,-0.000298,-0.003034,0.003529,0.000241,-0.009589,0.012982,0.016141,0.924831,180.000000,-0.000000,0.000000,179.982603,0.549313,-0.743904,0.017397,-0.549313,0.743904,-0.000000,0.000000,0.000000,0.000000,0.000000,0.000000,-0.001434,-0.003983,-0.026818
0.014000,0.307000,0.000000,0.367000,0.308778,-0.000297,0.363967,0.308781,-0.000300,0.363975,0.001778,-0.000297,-0.003033,0.003528,0.000245,-0.009590,0.012978,0.016139,0.924682,180.000000,-0.000000,0.000000,179.982382,0.549358,-0.743682,0.017618,-0.549358,0.743682,-0.000000,0.000000,0.000000,0.000000,0.000000,0.000000,0.031832,-0.017466,-0.030409
0.015000,0.307000,0.000000,0.367000,0.308778,-0.000299,0.363968,0.308781,-0.000300,0.363975,0.001778,-0.000299,-0.003032,0.003528,0.000242,-0.009583,0.012980,0.016136,0.924532,180.000000,-0.000000,0.000000,179.982569,0.548933,-0.743812,0.017431,-0.548933,0.743812,-0.000000,0.000000,0.000000,0.000000,0.000000,0.000000,0.000017,-0.017440,-0.003594
0.016000,0.307000,0.000000,0.367000,0.308780,-0.000299,0.363969,0.308781,-0.000300,0.363975,0.001780,-0.000299,-0.003031,0.003528,0.000243,-0.009582,0.012988,0.016142,0.924862,180.000000,-0.000000,0.000000,179.982491,0.548910,-0.744238,0.017509,-0.548910,0.744238,-0.000000,0.000000,0.000000,0.000000,0.000000,0.000000,-0.015808,0.040666,-0.077303
0.017000,0.307000,0.000000,0.367000,0.308779,-0.000300,0.363968,0.308781,-0.000300,0.363975,0.001779,-0.000300,-0.003032,0.003528,0.000247,-0.009584,0.012987,0.016142,0.924876,180.000000,-0.000000,0.000000,179.982295,0.548998,-0.744187,0.017705,-0.548998,0.744187,-0.000000,0.000000,0.000000,0.000000,0.000000,0.000000,-0.031341,-0.013711,-0.070764
0.018000,0.307000,0.000000,0.367000,0.308777,-0.000300,0.363965,0.308781,-0.000300,0.363975,0.001777,-0.000300,-0.003035,0.003530,0.000242,-0.009591,0.012983,0.016143,0.924951,180.000000,-0.000000,0.000000,179.982593,0.549437,-0.743962,0.017407,-0.549437,0.743962,-0.000000,0.000000,0.000000,0.000000,0.000000,0.000000,0.016418,-0.013685,0.019674
0.019000,0.307000,0.000000,0.367000,0.308777,-0.000300,0.363965,0.308781,-0.000300,0.363975,0.001777,-0.000300,-0.003035,0.003529,0.000241,-0.009589,0.012981,0.016140,0.924771,180.000000,-0.000000,0.000000,179.982648,0.549316,-0.743829,0.017352,-0.549316,0.743829,-0.000000,0.000000,0.000000,0.000000,0.000000,0.000000,0.028703,-0.030595,-0.000611
0.020000,0.307000,0.000000,0.367000,0.308778,-0.000298,0.363965,0.308781,-0.000300,0.363975,0.001778,-0.000298,-0.003035,0.003530,0.000239,-0.009591,0.012981,0.016141,0.924821,180.000000,-0.000000,0.000000,179.982748,0.549392,-0.743836,0.017252,-0.549392,0.743836,-0.000000,0.000000,0.000000,0.000000,0.000000,0.000000,-0.032268,-0.016163,0.005449
0.021000,0.307000,0.000000,0.367000,0.308778,-0.000298,0.363965,0.308781,-0.000300,0.363975,0.001778,-0.000298,-0.003035,0.003530,0.000244,-0.009592,0.012983,0.016144,0.924969,180.000000,-0.000000,0.000000,179.982426,0.549454,-0.743969,0.017574,-0.549454,0.743969,-0.000000,0.000000,0.000000,0.000000,0.000000,0.000000,-0.010900,-0.016938,0.027614
0.022000,0.307000,0.000000,0.367000,0.308777,-0.000299,0.363963,0.308781,-0.000300,0.363975,0.001777,-0.000299,-0.003037,0.003531,0.000241,-0.009597,0.012972,0.016138,0.924652,180.000000,-0.000000,0.000000,179.982604,0.549760,-0.743352,0.017396,-0.549760,0.743352,-0.000000,0.000000,0.000000,0.000000,0.000000,0.000000,0.010648,-0.021823,-0.044330
0.023000,0.307000,0.000000,0.367000,0.308776,-0.000299,0.363962,0.308781,-0.000300,0.363975,0.001776,-0.000299,-0.003038,0.003532,0.000239,-0.009602,0.012984,0.016151,0.925385,180.000000,-0.000000,0.000000,179.982738,0.550065,-0.744040,0.017262,-0.550065,0.744040,-0.000000,0.000000,0.000000,0.000000,0.000000,0.000000,0.003837,0.013887,0.005397
0.024000,0.307000,0.000000,0.367000,0.308776,-0.000298,0.363961,0.308781,-0.000300,0.363975,0.001776,-0.000298,-0.003039,0.003532,0.000247,-0.009601,0.012978,0.016145,0.925053,180.000000,-0.000000,0.000000,179.982285,0.550000,-0.743666,0.017715,-0.550000,0.743666,-0.000000,0.000000,0.000000,0.000000,0.000000,0.000000,0.003762,0.017559,-0.050697
0.025000,0.307000,0.000000,0.367000,0.308777,-0.000299,0.363960,0.308781,-0.000300,0.363975,0.001777,-0.000299,-0.003040,0.003534,0.000247,-0.009604,0.012976,0.016146,0.925072,180.000000,-0.000000,0.000000,179.982279,0.550159,-0.743572,0.017721,-0.550159,0.743572,-0.000000,0.000000,0.000000,0.000000,0.000000,0.000000,0.009523,-0.013053,-0.010887
0.026000,0.307000,0.000000,0.367000,0.308777,-0.000299,0.363961,0.308781,-0.000300,0.363975,0.001777,-0.000299,-0.003039,0.003533,0.000243,-0.009604,0.012983,0.016151,0.925407,180.000000,-0.000000,0.000000,179.982502,0.550174,-0.743983,0.017498,-0.550174,0.743983,-0.000000,0.000000,0.000000,0.000000,0.000000,0.000000,-0.033535,0.017799,0.044392
0.027000,0.307000,0.000000,0.367000,0.308776,-0.000300,0.363958,0.308781,-0.000300,0.363975,0.001776,-0.000300,-0.003042,0.003535,0.000242,-0.009609,0.012991,0.016160,0.925910,180.000000,-0.000000,0.000000,179.982577,0.550457,-0.744400,0.017423,-0.550457,0.744400,-0.000000,0.000000,0.000000,0.000000,0.000000,0.000000,0.021871,0.028231,-0.004806
0.028000,0.307000,0.000000,0.367000,0.308777,-0.000299,0.363960,0.308781,-0.000300,0.363975,0.001777,-0.000299,-0.003040,0.003534,0.000242,-0.009607,0.012978,0.016148,0.925234,180.000000,-0.000000,0.000000,179.982587,0.550328,-0.743654,0.017413,-0.550328,0.743654,-0.000000,0.000000,0.000000,0.000000,0.000000,0.000000,0.001324,-0.028682,0.086013
0.029000,0.307000,0.000000,0.367000,0.308777,-0.000299,0.363959,0.308781,-0.000300,0.363975,0.001777,-0.000299,-0.003041,0.003535,0.000242,-0.009607,0.012980,0.016150,0.925344,180.000000,-0.000000,0.000000,179.982588,0.550363,-0.743766,0.017412,-0.550363,0.743766,-0.000000,0.000000,0.000000,0.000000,0.000000,0.000000,-0.008055,-0.015847,-0.024233
0.030000,0.307000,0.000000,0.367000,0.308779,-0.000301,0.363962,0.308781,-0.000300,0.363975,0.001779,-0.000301,-0.003038,0.003534,0.000239,-0.009598,0.012991,0.016154,0.925550,180.000000,-0.000000,0.000000,179.982754,0.549820,-0.744426,0.017246,-0.549820,0.744426,-0.000000,0.000000,0.000000,0.000000,0.000000,0.000000,-0.035520,-0.031903,0.046494
0.031000,0.307000,0.000000,0.367000,0.308778,-0.000299,0.363960,0.308781,-0.000300,0.363975,0.001778,-0.000299,-0.003040,0.003535,0.000241,-0.009603,0.012982,0.016150,0.925318,180.000000,-0.000000,0.000000,179.982633,0.550127,-0.743909,0.017367,-0.550127,0.743909,-0.000000,0.000000,0.000000,0.000000,0.000000,0.000000,0.008706,-0.008884,-0.007731
0.032000,0.307000,0.000000,0.367000,0.308778,-0.000300,0.363958,0.308781,-0.000300,0.363975,0.001778,-0.000300,-0.003042,0.003536,0.000245,-0.009607,0.012980,0.016150,0.925335,180.000000,-0.000000,0.000000,179.982394,0.550329,-0.743776,0.017606,-0.550329,0.743776,-0.000000,0.000000,0.000000,0.000000,0.000000,0.000000,0.014700,-0.004112,-0.014867
0.033000,0.307000,0.000000,0.367000,0.308778,-0.000299,0.363955,0.308781,-0.000300,0.363975,0.001778,-0.000299,-0.003045,0.003538,0.000244,-0.009618,0.012991,0.016165,0.926202,180.000000,-0.000000,0.000000,179.982434,0.550957,-0.744392,0.017566,-0.550957,0.744392,-0.000000,0.000000,0.000000,0.000000,0.000000,0.000000,-0.014308,0.021996,-0.011400
0.034000,0.307000,0.000000,0.367000,0.308778,-0.000301,0.363958,0.308781,-0.000300,0.363975,0.001778,-0.000301,-0.003042,0.003537,0.000246,-0.009609,0.012981,0.016152,0.925456,180.000000,-0.000000,0.000000,179.982349,0.550456,-0.743831,0.017651,-0.550456,0.743831,-0.000000,0.000000,0.000000,0.000000,0.000000,0.000000,0.006622,-0.008702,0.036076
0.035000,0.307000,0.000000,0.367000,0.308779,-0.000299,0.363955,0.308781,-0.000300,0.363975,0.001779,-0.000299,-0.003045,0.003539,0.000241,-0.009617,0.012981,0.016157,0.925726,180.000000,-0.000000,0.000000,179.982616,0.550930,-0.743822,0.017384,-0.550930,0.743822,-0.000000,0.000000,0.000000,0.000000,0.000000,0.000000,-0.000866,-0.010264,0.013313
0.036000,0.307000,0.000000,0.367000,0.308779,-0.000299,0.363955,0.308781,-0.000300,0.363975,0.001779,-0.000299,-0.003045,0.003539,0.000248,-0.009618,0.012977,0.016155,0.925601,180.000000,-0.000000,0.000000,179.982195,0.550962,-0.743635,0.017805,-0.550962,0.743635,-0.000000,0.000000,0.000000,0.000000,0.000000,0.000000,-0.003353,-0.015655,0.054620
0.037000,0.307000,0.000000,0.367000,0.308780,-0.000299,0.363954,0.308781,-0.000300,0.363975,0.001780,-0.000299,-0.003046,0.003540,0.000242,-0.009618,0.012986,0.016162,0.926010,180.000000,-0.000000,0.000000,179.982580,0.550984,-0.744135,0.017420,-0.550984,0.744135,-0.000000,0.000000,0.000000,0.000000,0.000000,0.000000,0.009891,-0.009976,-0.013567
0.038000,0.307000,0.000000,0.367000,0.308780,-0.000299,0.363955,0.308781,-0.000300,0.363975,0.001780,-0.000299,-0.003045,0.003540,0.000247,-0.009616,0.012980,0.016156,0.925667,180.000000,-0.000000,0.000000,179.982258,0.550876,-0.743781,0.017742,-0.550876,0.743781,-0.000000,0.000000,0.000000,0.000000,0.000000,0.000000,0.008354,0.004575,-0.009386
0.039000,0.307000,0.000000,0.367000,0.308781,-0.000300,0.363956,0.308781,-0.000300,0.363975,0.001781,-0.000300,-0.003044,0.003540,0.000240,-0.009614,0.012990,0.016162,0.926030,180.000000,-0.000000,0.000000,179.982651,0.550743,-0.744339,0.017349,-0.550743,0.744339,-0.000000,0.000000,0.000000,0.000000,0.000000,0.000000,0.003701,0.006382,0.061341
0.040000,0.307000,0.000000,0.367000,0.308781,-0.000302,0.363954,0.308781,-0.000300,0.363975,0.001781,-0.000302,-0.003046,0.003541,0.000245,-0.009618,0.012992,0.016166,0.926258,180.000000,-0.000000,0.000000,179.982405,0.550960,-0.744459,0.017595,-0.550960,0.744459,-0.000000,0.000000,0.000000,0.000000,0.000000,0.000000,0.021750,-0.016889,0.029917
0.041000,0.307000,0.000000,0.367000,0.308780,-0.000298,0.363953,0.308781,-0.000300,0.363975,0.001780,-0.000298,-0.003047,0.003542,0.000242,-0.009622,0.012983,0.016162,0.926005,180.000000,-0.000000,0.000000,179.982544,0.551205,-0.743963,0.017456,-0.551205,0.743963,-0.000000,0.000000,0.000000,0.000000,0.000000,0.000000,0.016827,0.007420,-0.045249
0.042000,0.307000,0.000000,0.367000,0.308781,-0.000299,0.363953,0.308781,-0.000300,0.363975,0.001781,-0.000299,-0.003047,0.003542,0.000242,-0.009623,0.012989,0.016167,0.926300,180.000000,-0.000000,0.000000,179.982536,0.551263,-0.744289,0.017464,-0.551263,0.744289,-0.000000,0.000000,0.000000,0.000000,0.000000,0.000000,-0.012808,0.014890,-0.037868
0.043000,0.307000,0.000000,0.367000,0.308780,-0.000300,0.363951,0.308781,-0.000300,0.363975,0.001780,-0.000300,-0.003049,0.003543,0.000245,-0.009628,0.012995,0.016175,0.926745,180.000000,-0.000000,0.000000,179.982396,0.551530,-0.744642,0.017604,-0.551530,0.744642,-0.000000,0.000000,0.000000,0.000000,0.000000,0.000000,-0.025761,0.013190,0.019324
0.044000,0.307000,0.000000,0.367000,0.308781,-0.000299,0.363952,0.308781,-0.000300,0.363975,0.001781,-0.000299,-0.003048,0.003543,0.000242,-0.009626,0.012983,0.016164,0.926139,180.000000,-0.000000,0.000000,179.982527,0.551427,-0.743966,0.017473,-0.551427,0.743966,-0.000000,0.000000,0.000000,0.000000,0.000000,0.000000,0.020516,-0.007205,-0.048537
0.045000,0.307000,0.000000,0.367000,0.308781,-0.000299,0.363953,0.308781,-0.000300,0.363975,0.001781,-0.000299,-0.003047,0.003542,0.000241,-0.009626,0.012981,0.016162,0.926037,180.000000,-0.000000,0.000000,179.982611,0.551436,-0.743834,0.017389,-0.551436,0.743834,-0.000000,0.000000,0.000000,0.000000,0.000000,0.000000,-0.003004,-0.002024,0.023866
0.046000,0.307000,0.000000,0.367000,0.308782,-0.000298,0.363950,0.308781,-0.000300,0.363975,0.001782,-0.000298,-0.003050,0.003545,0.000246,-0.009629,0.012978,0.016162,0.925992,180.000000,-0.000000,0.000000,179.982347,0.551599,-0.743652,0.017653,-0.551599,0.743652,-0.000000,0.000000,0.000000,0.000000,0.000000,0.000000,0.003540,-0.015597,0.051580
0.047000,0.307000,0.000000,0.367000,0.308781,-0.000298,0.363950,0.308781,-0.000300,0.363975,0.001781,-0.000298,-0.003050,0.003545,0.000242,-0.009632,0.012980,0.016165,0.926208,180.000000,-0.000000,0.000000,179.982524,0.551752,-0.743811,0.017476,-0.551752,0.743811,-0.000000,0.000000,0.000001,0.000000,0.000000,0.000000,-0.003941,0.005849,0.026893
0.048000,0.307000,0.000000,0.367000,0.308783,-0.000298,0.363953,0.308781,-0.000300,0.363975,0.001783,-0.000298,-0.003047,0.003543,0.000243,-0.009625,0.012973,0.016155,0.925615,180.000000,-0.000000,0.000000,179.982487,0.551363,-0.743360,0.017513,-0.551363,0.743360,-0.000000,0.000000,0.000001,0.000000,0.000000,0.000000,0.006384,-0.006243,-0.016030
0.049000,0.307000,0.000000,0.367000,0.308781,-0.000298,0.363948,0.308781,-0.000300,0.363975,0.001781,-0.000298,-0.003052,0.003546,0.000247,-0.009636,0.012978,0.016166,0.926228,180.000000,-0.000000,0.000000,179.982255,0.551997,-0.743648,0.017745,-0.551997,0.743648,-0.000000,0.000000,0.000001,0.000000,0.000000,0.000000,0.001786,-0.015254,0.000144
0.050000,0.307000,0.000000,0.367000,0.308781,-0.000298,0.363947,0.308781,-0.000300,0.363975,0.001781,-0.000298,-0.003053,0.003547,0.000246,-0.009641,0.012978,0.016169,0.926396,180.000000,-0.000000,0.000000,179.982323,0.552259,-0.743665,0.017677,-0.552259,0.743665,-0.000000,0.000000,0.000001,0.000000,0.000000,0.000000,-0.006540,0.004641,0.022152
0.051000,0.307000,0.000000,0.367000,0.308781,-0.000299,0.363946,0.308781,-0.000300,0.363975,0.001781,-0.000299,-0.003054,0.003548,0.000247,-0.009645,0.012984,0.016176,0.926822,180.000000,-0.000000,0.000000,179.982283,0.552489,-0.744025,0.017717,-0.552489,0.744025,-0.000000,0.000000,0.000001,0.000000,0.000000,0.000000,-0.012995,-0.010740,0.073990
0.052000,0.307000,0.000000,0.367000,0.308782,-0.000300,0.363946,0.308781,-0.000300,0.363975,0.001782,-0.000300,-0.003054,0.003549,0.000247,-0.009643,0.012986,0.016176,0.926843,180.000000,-0.000000,0.000000,179.982267,0.552379,-0.744133,0.017733,-0.552379,0.744133,-0.000000,0.000000,0.000001,0.000000,0.000000,0.000000,0.003813,-0.002808,0.061385
0.053000,0.307000,0.000000,0.367000,0.308782,-0.000300,0.363946,0.308781,-0.000300,0.363975,0.001782,-0.000300,-0.003054,0.003549,0.000243,-0.009646,0.012997,0.016187,0.927469,180.000000,-0.000000,0.000000,179.982514,0.552576,-0.744771,0.017486,-0.552576,0.744771,-0.000000,0.000000,0.000001,0.000000,0.000000,0.000000,0.015258,0.014768,-0.010350
0.054000,0.307000,0.000000,0.367000,0.308781,-0.000299,0.363944,0.308781,-0.000300,0.363975,0.001781,-0.000299,-0.003056,0.003550,0.000246,-0.009654,0.012988,0.016184,0.927288,180.000000,-0.000000,0.000000,179.982319,0.553008,-0.744220,0.017681,-0.553008,0.744220,-0.000000,0.000000,0.000001,0.000000,0.000000,0.000000,0.048116,-0.004419,-0.004650
0.055000,0.307000,0.000000,0.367000,0.308782,-0.000299,0.363944,0.308781,-0.000300,0.363975,0.001782,-0.000299,-0.003056,0.003551,0.000241,-0.009649,0.012994,0.016187,0.927438,180.000000,-0.000000,0.000000,179.982582,0.552743,-0.744609,0.017418,-0.552743,0.744609,-0.000001,0.000000,0.000001,0.000000,0.000000,0.000000,0.012732,0.002247,-0.001153
0.056000,0.307000,0.000000,0.367000,0.308781,-0.000298,0.363943,0.308781,-0.000300,0.363975,0.001781,-0.000298,-0.003057,0.003551,0.000245,-0.009653,0.012985,0.016182,0.927177,180.000000,-0.000000,0.000000,179.982386,0.552994,-0.744093,0.017614,-0.552994,0.744093,-0.000001,0.000000,0.000001,0.000000,0.000000,0.000000,0.011961,0.006363,-0.020843
0.057000,0.307000,0.000000,0.367000,0.308783,-0.000301,0.363944,0.308781,-0.000300,0.363975,0.001783,-0.000301,-0.003056,0.003551,0.000242,-0.009652,0.012992,0.016187,0.927439,180.000000,-0.000000,0.000000,179.982519,0.552927,-0.744472,0.017481,-0.552927,0.744472,-0.000001,0.000000,0.000001,0.000000,0.000000,0.000000,0.019869,-0.005314,0.009502
0.058000,0.307000,0.000000,0.367000,0.308782,-0.000301,0.363941,0.308781,-0.000300,0.363975,0.001782,-0.000301,-0.003059,0.003553,0.000242,-0.009659,0.012985,0.016185,0.927350,180.000000,-0.000000,0.000000,179.982549,0.553314,-0.744075,0.017451,-0.553314,0.744075,-0.000001,0.000000,0.000001,0.000000,0.000000,0.000000,-0.007363,0.007477,-0.026155
0.059000,0.307000,0.000000,0.367000,0.308783,-0.000300,0.363942,0.308781,-0.000300,0.363975,0.001783,-0.000300,-0.003058,0.003552,0.000241,-0.009655,0.012991,0.016188,0.927477,180.000000,-0.000000,0.000000,179.982582,0.553091,-0.744399,0.017418,-0.553091,0.744399,-0.000001,0.000000,0.000001,0.000000,0.000000,0.000000,0.001064,0.054019,-0.065920
0.060000,0.307000,0.000000,0.367000,0.308782,-0.000299,0.363939,0.308781,-0.000300,0.363975,0.001782,-0.000299,-0.003061,0.003555,0.000243,-0.009662,0.012981,0.016184,0.927273,180.000000,-0.000000,0.000000,179.982462,0.553472,-0.743859,0.017538,-0.553472,0.743859,-0.000001,0.000000,0.000001,0.000000,0.000000,0.000000,-0.018432,-0.038104,0.064067
0.061000,0.307000,0.000000,0.367000,0.308783,-0.000300,0.363939,0.308781,-0.000300,0.363975,0.001783,-0.000300,-0.003061,0.003555,0.000245,-0.009667,0.012984,0.016190,0.927590,180.000000,-0.000000,0.000000,179.982374,0.553765,-0.744035,0.017626,-0.553765,0.744035,-0.000001,0.000000,0.000001,0.000000,0.000000,0.000000,-0.003482,-0.011460,0.002423
0.062000,0.307000,0.000000,0.367000,0.308783,-0.000299,0.363939,0.308781,-0.000300,0.363975,0.001783,-0.000299,-0.003061,0.003555,0.000239,-0.009664,0.012993,0.016195,0.927884,180.000000,-0.000000,0.000000,179.982733,0.553593,-0.744536,0.017267,-0.553593,0.744536,-0.000001,0.000000,0.000001,0.000000,0.000000,0.000000,0.022140,0.014401,-0.008913
0.063000,0.307000,0.000000,0.367000,0.308783,-0.000298,0.363937,0.308781,-0.000300,0.363975,0.001783,-0.000298,-0.003063,0.003557,0.000245,-0.009672,0.012984,0.016192,0.927731,180.000000,-0.000000,0.000000,179.982389,0.554035,-0.744011,0.017611,-0.554035,0.744011,-0.000001,0.000000,0.000001,0.000000,0.000000,0.000000,0.008511,0.000837,-0.003353
0.064000,0.307000,0.000000,0.367000,0.308783,-0.000300,0.363936,0.308781,-0.000300,0.363975,0.001783,-0.000300,-0.003064,0.003557,0.000242,-0.009669,0.012992,0.016197,0.927991,180.000000,-0.000000,0.000000,179.982559,0.553885,-0.744449,0.017441,-0.553885,0.744449,-0.000001,0.000000,0.000002,0.000000,0.000000,0.000000,-0.004726,-0.000903,0.029789
0.065000,0.307000,0.000000,0.367000,0.308783,-0.000298,0.363935,0.308781,-0.000300,0.363975,0.001783,-0.000298,-0.003065,0.003558,0.000244,-0.009674,0.012988,0.016197,0.927999,180.000000,-0.000000,0.000000,179.982434,0.554194,-0.744226,0.017566,-0.554194,0.744226,-0.000001,0.000000,0.000002,0.000000,0.000000,0.000000,0.003751,-0.000155,-0.024494
0.066000,0.307000,0.000000,0.367000,0.308783,-0.000298,0.363936,0.308781,-0.000300,0.363975,0.001783,-0.000298,-0.003064,0.003557,0.000246,-0.009674,0.012990,0.016198,0.928096,180.000000,-0.000000,0.000000,179.982303,0.554173,-0.744361,0.017697,-0.554173,0.744361,-0.000001,0.000000,0.000002,0.000000,0.000000,0.000000,-0.017127,-0.012376,0.060849
0.067000,0.307000,0.000000,0.367000,0.308783,-0.000301,0.363934,0.308781,-0.000300,0.363975,0.001783,-0.000301,-0.003066,0.003559,0.000243,-0.009676,0.012997,0.016205,0.928486,180.000000,-0.000000,0.000000,179.982462,0.554300,-0.744755,0.017538,-0.554300,0.744755,-0.000001,0.000000,0.000002,0.000000,0.000000,0.000000,0.008861,0.011506,-0.024588
0.068000,0.307000,0.000000,0.367000,0.308783,-0.000299,0.363933,0.308781,-0.000300,0.363975,0.001783,-0.000299,-0.003067,0.003561,0.000247,-0.009681,0.012988,0.016201,0.928237,180.000000,-0.000000,0.000000,179.982263,0.554548,-0.744256,0.017737,-0.554548,0.744256,-0.000001,0.000000,0.000002,0.000000,0.000000,0.000000,-0.031535,0.019211,0.030070
0.069000,0.307000,0.000000,0.367000,0.308783,-0.000300,0.363933,0.308781,-0.000300,0.363975,0.001783,-0.000300,-0.003067,0.003560,0.000243,-0.009682,0.012994,0.016207,0.928583,180.000000,-0.000000,0.000000,179.982487,0.554654,-0.744613,0.017513,-0.554654,0.744613,-0.000001,0.000000,0.000002,0.000000,0.000000,0.000000,-0.007492,0.000744,-0.013062
0.070000,0.307000,0.000000,0.367000,0.308783,-0.000301,0.363932,0.308781,-0.000300,0.363975,0.001783,-0.000301,-0.003068,0.003561,0.000243,-0.009686,0.012989,0.016205,0.928459,180.000000,-0.000000,0.000000,179.982488,0.554868,-0.744300,0.017512,-0.554868,0.744300,-0.000001,0.000000,0.000002,0.000000,0.000000,0.000000,-0.023990,-0.001838,0.013073
0.071000,0.307000,0.000000,0.367000,0.308784,-0.000298,0.363931,0.308781,-0.000300,0.363975,0.001784,-0.000298,-0.003069,0.003562,0.000244,-0.009688,0.012988,0.016205,0.928506,180.000000,-0.000000,0.000000,179.982400,0.554997,-0.744260,0.017600,-0.554997,0.744260,-0.000001,0.000000,0.000002,0.000000,0.000000,0.000000,-0.022435,0.011919,-0.002525
0.072000,0.307000,0.000000,0.367000,0.308784,-0.000298,0.363930,0.308781,-0.000300,0.363975,0.001784,-0.000298,-0.003070,0.003563,0.000243,-0.009688,0.012979,0.016198,0.928055,180.000000,-0.000000,0.000000,179.982451,0.554963,-0.743724,0.017549,-0.554963,0.743724,-0.000001,0.000000,0.000002,0.000000,0.000000,0.000000,-0.012720,0.019797,-0.047188
0.073000,0.307000,0.000000,0.367000,0.308784,-0.000299,0.363928,0.308781,-0.000300,0.363975,0.001784,-0.000299,-0.003072,0.003565,0.000245,-0.009694,0.012989,0.016210,0.928756,180.000000,-0.000000,0.000000,179.982376,0.555334,-0.744320,0.017624,-0.555334,0.744320,-0.000001,0.000000,0.000002,0.000000,0.000000,0.000000,-0.010516,0.003110,-0.021744
0.074000,0.307000,0.000000,0.367000,0.308784,-0.000299,0.363928,0.308781,-0.000300,0.363975,0.001784,-0.000299,-0.003072,0.003565,0.000241,-0.009695,0.012984,0.016206,0.928541,180.000000,-0.000000,0.000000,179.982593,0.555372,-0.744028,0.017407,-0.555372,0.744028,-0.000001,0.000000,0.000002,0.000000,0.000000,0.000000,0.014788,-0.011273,-0.033755
0.075000,0.307000,0.000000,0.367000,0.308783,-0.000300,0.363927,0.308781,-0.000300,0.363975,0.001783,-0.000300,-0.003073,0.003565,0.000241,-0.009699,0.012988,0.016212,0.928864,180.000000,-0.000000,0.000000,179.982599,0.555601,-0.744260,0.017401,-0.555601,0.744260,-0.000002,0.000000,0.000003,0.000000,0.000000,0.000000,-0.005756,0.004389,-0.044068
0.076000,0.307000,0.000000,0.367000,0.308785,-0.000299,0.363929,0.308781,-0.000300,0.363975,0.001785,-0.000299,-0.003071,0.003565,0.000241,-0.009695,0.012993,0.016213,0.928930,180.000000,-0.000000,0.000000,179.982570,0.555359,-0.744522,0.017430,-0.555359,0.744522,-0.000002,0.000000,0.000003,0.000000,0.000000,0.000000,-0.000690,-0.001153,-0.001912
0.077000,0.307000,0.000000,0.367000,0.308784,-0.000301,0.363926,0.308781,-0.000300,0.363975,0.001784,-0.000301,-0.003074,0.003567,0.000242,-0.009700,0.013000,0.016222,0.929469,180.000000,-0.000000,0.000000,179.982495,0.555680,-0.744954,0.017505,-0.555680,0.744954,-0.000002,0.000000,0.000003,0.000000,0.000000,0.000000,0.026025,-0.005790,-0.026168
0.078000,0.307000,0.000000,0.367000,0.308786,-0.000300,0.363928,0.308781,-0.000300,0.363975,0.001786,-0.000300,-0.003072,0.003566,0.000243,-0.009698,0.012989,0.016212,0.928882,180.000000,-0.000000,0.000000,179.982457,0.555548,-0.744319,0.017543,-0.555548,0.744319,-0.000002,0.000000,0.000003,0.000000,0.000000,0.000000,0.004943,-0.014037,-0.006484
0.079000,0.307000,0.000000,0.367000,0.308785,-0.000300,0.363927,0.308781,-0.000300,0.363975,0.001785,-0.000300,-0.003073,0.003567,0.000241,-0.009702,0.012998,0.016221,0.929389,180.000000,-0.000000,0.000000,179.982581,0.555756,-0.744799,0.017419,-0.555756,0.744799,-0.000002,0.000000,0.000003,0.000000,0.000000,0.000000,0.016069,0.016939,0.008994
0.080000,0.307000,0.000000,0.367000,0.308785,-0.000301,0.363926,0.308781,-0.000300,0.363975,0.001785,-0.000301,-0.003074,0.003568,0.000242,-0.009703,0.012989,0.016215,0.929034,180.000000,-0.000000,0.000000,179.982533,0.555857,-0.744280,0.017467,-0.555857,0.744280,-0.000002,0.000000,0.000003,0.000000,0.000000,0.000000,0.010272,0.004772,0.024649
0.081000,0.307000,0.000000,0.367000,0.308785,-0.000298,0.363925,0.308781,-0.000300,0.363975,0.001785,-0.000298,-0.003075,0.003568,0.000245,-0.009706,0.012987,0.016215,0.929045,180.000000,-0.000000,0.000000,179.982372,0.556003,-0.744182,0.017628,-0.556003,0.744182,-0.000002,0.000000,0.000003,0.000000,0.000000,0.000000,0.019445,0.025584,-0.013268
0.082000,0.307000,0.000000,0.367000,0.308785,-0.000298,0.363924,0.308781,-0.000300,0.363975,0.001785,-0.000298,-0.003076,0.003568,0.000241,-0.009707,0.012988,0.016216,0.929099,180.000000,-0.000000,0.000000,179.982588,0.556045,-0.744222,0.017412,-0.556045,0.744222,-0.000002,0.000000,0.000004,0.000000,0.000000,0.000000,0.020216,0.016427,-0.037563
0.083000,0.307000,0.000000,0.367000,0.308785,-0.000301,0.363923,0.308781,-0.000300,0.363975,0.001785,-0.000301,-0.003077,0.003570,0.000244,-0.009713,0.012997,0.016227,0.929744,180.000000,-0.000000,0.000000,179.982379,0.556398,-0.744759,0.017621,-0.556398,0.744759,-0.000002,0.000000,0.000004,0.000000,0.000000,0.000000,-0.000215,0.011667,-0.036141
0.084000,0.307000,0.000000,0.367000,0.308785,-0.000301,0.363922,0.308781,-0.000300,0.363975,0.001785,-0.000301,-0.003078,0.003571,0.000246,-0.009716,0.012981,0.016216,0.929126,180.000000,-0.000000,0.000000,179.982285,0.556553,-0.743869,0.017715,-0.556553,0.743869,-0.000002,0.000000,0.000004,0.000000,0.000000,0.000000,0.011269,0.004128,-0.002487
0.085000,0.307000,0.000000,0.367000,0.308784,-0.000299,0.363920,0.308781,-0.000300,0.363975,0.001784,-0.000299,-0.003080,0.003572,0.000243,-0.009721,0.012980,0.016218,0.929239,180.000000,-0.000000,0.000000,179.982438,0.556864,-0.743781,0.017562,-0.556864,0.743781,-0.000002,0.000000,0.000004,0.000000,0.000000,0.000000,0.008554,-0.041815,0.030321
0.086000,0.307000,0.000000,0.367000,0.308786,-0.000299,0.363921,0.308781,-0.000300,0.363975,0.001786,-0.000299,-0.003079,0.003572,0.000240,-0.009716,0.012993,0.016225,0.929651,180.000000,-0.000000,0.000000,179.982605,0.556576,-0.744515,0.017395,-0.556576,0.744515,-0.000002,0.000000,0.000004,0.000000,0.000000,0.000000,-0.037633,-0.050592,0.016538
0.087000,0.307000,0.000000,0.367000,0.308787,-0.000299,0.363922,0.308781,-0.000300,0.363975,0.001787,-0.000299,-0.003078,0.003571,0.000244,-0.009715,0.012986,0.016220,0.929335,180.000000,-0.000000,0.000000,179.982415,0.556549,-0.744136,0.017585,-0.556549,0.744136,-0.000003,0.000000,0.000004,0.000000,0.000000,0.000000,-0.029807,-0.039734,-0.036042
0.088000,0.307000,0.000000,0.367000,0.308786,-0.000298,0.363922,0.308781,-0.000300,0.363975,0.001786,-0.000298,-0.003078,0.003571,0.000241,-0.009717,0.012987,0.016222,0.929435,180.000000,-0.000000,0.000000,179.982567,0.556629,-0.744204,0.017433,-0.556629,0.744204,-0.000003,0.000000,0.000004,0.000000,0.000000,0.000000,0.026531,-0.022054,0.002826
0.089000,0.307000,0.000000,0.367000,0.308786,-0.000299,0.363920,0.308781,-0.000300,0.363975,0.001786,-0.000299,-0.003080,0.003574,0.000244,-0.009721,0.012994,0.016230,0.929902,180.000000,-0.000000,0.000000,179.982395,0.556881,-0.744596,0.017605,-0.556881,0.744596,-0.000003,0.000000,0.000005,0.000000,0.000000,0.000000,0.001835,-0.002098,0.026275
0.090000,0.307000,0.000000,0.367000,0.308787,-0.000299,0.363920,0.308781,-0.000300,0.363975,0.001787,-0.000299,-0.003080,0.003573,0.000248,-0.009719,0.012991,0.016226,0.929685,180.000000,-0.000000,0.000000,179.982194,0.556753,-0.744417,0.017806,-0.556753,0.744417,-0.000003,0.000000,0.000005,0.000000,0.000000,0.000000,-0.013576,-0.035075,-0.011787
0.091000,0.307000,0.000000,0.367000,0.308786,-0.000298,0.363918,0.308781,-0.000300,0.363975,0.001786,-0.000298,-0.003082,0.003575,0.000245,-0.009726,0.012987,0.016227,0.929749,180.000000,-0.000000,0.000000,179.982316,0.557149,-0.744203,0.017684,-0.557149,0.744203,-0.000003,0.000000,0.000005,0.000000,0.000000,0.000000,0.017607,-0.002756,-0.008379
0.092000,0.307000,0.000000,0.367000,0.308786,-0.000299,0.363917,0.308781,-0.000300,0.363975,0.001786,-0.000299,-0.003083,0.003575,0.000244,-0.009727,0.012991,0.016231,0.929965,180.000000,-0.000000,0.000000,179.982390,0.557185,-0.744447,0.017610,-0.557185,0.744447,-0.000003,0.000001,0.000005,0.000000,0.000000,0.000000,0.006429,0.007547,0.010846
0.093000,0.307000,0.000000,0.367000,0.308786,-0.000300,0.363917,0.308781,-0.000300,0.363975,0.001786,-0.000300,-0.003083,0.003576,0.000245,-0.009728,0.012995,0.016235,0.930170,180.000000,-0.000000,0.000000,179.982329,0.557246,-0.744656,0.017671,-0.557246,0.744656,-0.000003,0.000001,0.000005,0.000000,0.000000,0.000000,0.005620,0.013568,0.045665
0.094000,0.307000,0.000000,0.367000,0.308786,-0.000300,0.363917,0.308781,-0.000300,0.363975,0.001786,-0.000300,-0.003083,0.003576,0.000242,-0.009729,0.012988,0.016229,0.929873,180.000000,-0.000000,0.000000,179.982487,0.557319,-0.744234,0.017513,-0.557319,0.744234,-0.000003,0.000001,0.000005,0.000000,0.000000,0.000000,-0.004006,0.011895,0.044566
0.095000,0.307000,0.000000,0.367000,0.308786,-0.000299,0.363916,0.308781,-0.000300,0.363975,0.001786,-0.000299,-0.003084,0.003576,0.000250,-0.009730,0.012987,0.016229,0.929869,180.000000,-0.000000,0.000000,179.982079,0.557373,-0.744180,0.017921,-0.557373,0.744180,-0.000003,0.000001,0.000006,0.000000,0.000000,0.000000,0.021661,0.023745,0.052429
0.096000,0.307000,0.000000,0.367000,0.308787,-0.000300,0.363916,0.308781,-0.000300,0.363975,0.001787,-0.000300,-0.003084,0.003577,0.000247,-0.009730,0.012982,0.016226,0.929665,180.000000,-0.000000,0.000000,179.982225,0.557402,-0.743907,0.017775,-0.557402,0.743907,-0.000003,0.000001,0.000006,0.000000,0.000000,0.000000,-0.000763,-0.001680,0.058511
0.097000,0.307000,0.000000,0.367000,0.308786,-0.000300,0.363916,0.308781,-0.000300,0.363975,0.001786,-0.000300,-0.003084,0.003577,0.000245,-0.009734,0.012984,0.016229,0.929881,180.000000,-0.000000,0.000000,179.982352,0.557592,-0.744037,0.017648,-0.557592,0.744037,-0.000004,0.000001,0.000006,0.000000,0.000000,0.000000,-0.016708,0.012478,0.004499
0.098000,0.307000,0.000000,0.367000,0.308787,-0.000299,0.363915,0.308781,-0.000300,0.363975,0.001787,-0.000299,-0.003085,0.003577,0.000242,-0.009733,0.012991,0.016235,0.930178,180.000000,-0.000000,0.000000,179.982525,0.557567,-0.744429,0.017475,-0.557567,0.744429,-0.000004,0.000001,0.000006,0.000000,0.000000,0.000000,0.000681,-0.010130,0.008411
0.099000,0.307000,0.000000,0.367000,0.308787,-0.000299,0.363914,0.308781,-0.000300,0.363975,0.001787,-0.000299,-0.003086,0.003578,0.000247,-0.009737,0.012981,0.016229,0.929852,180.000000,-0.000000,0.000000,179.982205,0.557766,-0.743867,0.017795,-0.557766,0.743867,-0.000004,0.000001,0.000006,0.000000,0.000000,0.000000,0.026653,0.006973,-0.001718
0.100000,0.307000,0.000000,0.367000,0.308786,-0.000298,0.363914,0.308781,-0.000300,0.363975,0.001786,-0.000298,-0.003086,0.003578,0.000247,-0.009736,0.012985,0.016231,0.929980,180.000000,-0.000000,0.000000,179.982241,0.557701,-0.744076,0.017759,-0.557701,0.744076,-0.000004,0.000001,0.000007,0.000000,0.000000,0.000000,0.005729,0.007426,0.002425
0.101000,0.307000,0.000000,0.367000,0.308787,-0.000299,0.363914,0.308781,-0.000300,0.363975,0.001787,-0.000299,-0.003086,0.003579,0.000244,-0.009737,0.012988,0.016234,0.930165,180.000000,-0.000000,0.000000,179.982402,0.557782,-0.744251,0.017598,-0.557782,0.744251,-0.000004,0.000001,0.000007,0.000000,0.000000,0.000000,-0.005770,0.020348,0.073227
0.102000,0.307000,0.000000,0.367000,0.308787,-0.000300,0.363913,0.308781,-0.000300,0.363975,0.001787,-0.000300,-0.003087,0.003579,0.000247,-0.009738,0.012996,0.016241,0.930565,180.000000,-0.000000,0.000000,179.982197,0.557848,-0.744696,0.017803,-0.557848,0.744696,-0.000004,0.000001,0.000007,0.000000,0.000000,0.000000,-0.002200,0.027236,0.018470
0.103000,0.307000,0.000000,0.367000,0.308787,-0.000300,0.363913,0.308781,-0.000300,0.363975,0.001787,-0.000300,-0.003087,0.003579,0.000245,-0.009740,0.012997,0.016243,0.930680,180.000000,-0.000000,0.000000,179.982329,0.557964,-0.744757,0.017671,-0.557964,0.744757,-0.000004,0.000001,0.000007,0.000000,0.000000,0.000000,-0.010062,0.014509,0.012189
0.104000,0.307000,0.000000,0.367000,0.308787,-0.000299,0.363912,0.308781,-0.000300,0.363975,0.001787,-0.000299,-0.003088,0.003580,0.000242,-0.009743,0.012991,0.016241,0.930520,180.000000,-0.000000,0.000000,179.982502,0.558121,-0.744441,0.017498,-0.558121,0.744441,-0.000004,0.000001,0.000008,0.000000,0.000000,0.000000,0.009732,0.025717,0.018508
0.105000,0.307000,0.000000,0.367000,0.308787,-0.000299,0.363913,0.308781,-0.000300,0.363975,0.001787,-0.000299,-0.003087,0.003580,0.000242,-0.009740,0.012996,0.016242,0.930607,180.000000,-0.000000,0.000000,179.982487,0.557927,-0.744696,0.017513,-0.557927,0.744696,-0.000005,0.000001,0.000008,0.000000,0.000000,0.000000,-0.044664,0.004346,0.051257
0.106000,0.307000,0.000000,0.367000,0.308787,-0.000299,0.363911,0.308781,-0.000300,0.363975,0.001787,-0.000299,-0.003089,0.003581,0.000248,-0.009747,0.012986,0.016239,0.930435,180.000000,-0.000000,0.000000,179.982179,0.558349,-0.744158,0.017821,-0.558349,0.744158,-0.000005,0.000001,0.000008,0.000000,0.000000,0.000000,-0.014963,-0.001517,0.021289
0.107000,0.307000,0.000000,0.367000,0.308788,-0.000299,0.363913,0.308781,-0.000300,0.363975,0.001788,-0.000299,-0.003087,0.003580,0.000242,-0.009741,0.012987,0.016236,0.930242,180.000000,-0.000000,0.000000,179.982504,0.557984,-0.744197,0.017496,-0.557984,0.744197,-0.000005,0.000001,0.000008,0.000000,0.000000,0.000000,-0.006284,-0.010637,0.034457
0.108000,0.307000,0.000000,0.367000,0.308787,-0.000300,0.363911,0.308781,-0.000300,0.363975,0.001787,-0.000300,-0.003089,0.003582,0.000242,-0.009747,0.012993,0.016244,0.930728,180.000000,-0.000000,0.000000,179.982522,0.558379,-0.744510,0.017478,-0.558379,0.744510,-0.000005,0.000001,0.000009,0.000000,0.000000,0.000000,0.015286,0.008087,0.047444
0.109000,0.307000,0.000000,0.367000,0.308787,-0.000298,0.363910,0.308781,-0.000300,0.363975,0.001787,-0.000298,-0.003090,0.003582,0.000246,-0.009749,0.012988,0.016241,0.930566,180.000000,-0.000000,0.000000,179.982271,0.558445,-0.744252,0.017729,-0.558445,0.744252,-0.000005,0.000001,0.000009,0.000000,0.000000,0.000000,0.004697,-0.010104,-0.001607
0.110000,0.307000,0.000000,0.367000,0.308787,-0.000300,0.363909,0.308781,-0.000300,0.363975,0.001787,-0.000300,-0.003091,0.003582,0.000243,-0.009750,0.012989,0.016243,0.930659,180.000000,-0.000000,0.000000,179.982466,0.558542,-0.744299,0.017534,-0.558542,0.744299,-0.000005,0.000001,0.000009,0.000000,0.000000,0.000000,-0.017965,-0.016110,0.020140
0.111000,0.307000,0.000000,0.367000,0.308787,-0.000299,0.363912,0.308781,-0.000300,0.363975,0.001787,-0.000299,-0.003088,0.003580,0.000248,-0.009745,0.012987,0.016238,0.930377,180.000000,-0.000000,0.000000,179.982189,0.558211,-0.744190,0.017811,-0.558211,0.744190,-0.000005,0.000001,0.000009,0.000000,0.000000,0.000000,0.020374,0.018327,0.065187
0.112000,0.307000,0.000000,0.367000,0.308787,-0.000299,0.363910,0.308781,-0.000300,0.363975,0.001787,-0.000299,-0.003090,0.003582,0.000247,-0.009750,0.012979,0.016235,0.930178,180.000000,-0.000000,0.000000,179.982222,0.558519,-0.743710,0.017778,-0.558519,0.743710,-0.000006,0.000001,0.000010,0.000000,0.000000,0.000000,0.023642,0.011189,0.021416
0.113000,0.307000,0.000000,0.367000,0.308788,-0.000298,0.363912,0.308781,-0.000300,0.363975,0.001788,-0.000298,-0.003088,0.003580,0.000245,-0.009743,0.012980,0.016232,0.930016,180.000000,-0.000000,0.000000,179.982324,0.558114,-0.743814,0.017676,-0.558114,0.743814,-0.000006,0.000001,0.000010,0.000000,0.000000,0.000000,-0.003859,0.011079,-0.020300
0.114000,0.307000,0.000000,0.367000,0.308787,-0.000299,0.363910,0.308781,-0.000300,0.363975,0.001787,-0.000299,-0.003090,0.003582,0.000244,-0.009752,0.012990,0.016245,0.930773,180.000000,-0.000000,0.000000,179.982407,0.558665,-0.744349,0.017593,-0.558665,0.744349,-0.000006,0.000001,0.000010,0.000000,0.000000,0.000000,0.006269,0.017725,-0.025143
0.115000,0.307000,0.000000,0.367000,0.308787,-0.000300,0.363908,0.308781,-0.000300,0.363975,0.001787,-0.000300,-0.003092,0.003584,0.000239,-0.009756,0.012995,0.016251,0.931124,180.000000,-0.000000,0.000000,179.982701,0.558887,-0.744626,0.017299,-0.558887,0.744626,-0.000006,0.000001,0.000010,0.000000,0.000000,0.000000,-0.037995,-0.014636,0.008963
0.116000,0.307000,0.000000,0.367000,0.308788,-0.000299,0.363910,0.308781,-0.000300,0.363975,0.001788,-0.000299,-0.003090,0.003583,0.000241,-0.009750,0.012989,0.016243,0.930659,180.000000,-0.000000,0.000000,179.982555,0.558519,-0.744318,0.017445,-0.558519,0.744318,-0.000006,0.000001,0.000011,0.000000,0.000000,0.000000,-0.003829,0.024604,-0.074616
0.117000,0.307000,0.000000,0.367000,0.308788,-0.000300,0.363911,0.308781,-0.000300,0.363975,0.001788,-0.000300,-0.003089,0.003582,0.000240,-0.009748,0.012998,0.016249,0.931015,180.000000,-0.000000,0.000000,179.982627,0.558418,-0.744840,0.017373,-0.558418,0.744840,-0.000006,0.000001,0.000011,0.000000,0.000000,0.000000,-0.001862,0.002262,0.059116
0.118000,0.307000,0.000000,0.367000,0.308786,-0.000298,0.363909,0.308781,-0.000300,0.363975,0.001786,-0.000298,-0.003091,0.003583,0.000246,-0.009753,0.012981,0.016239,0.930412,180.000000,-0.000000,0.000000,179.982278,0.558708,-0.743862,0.017722,-0.558708,0.743862,-0.000007,0.000001,0.000011,0.000000,0.000000,0.000000,-0.023032,0.022697,0.047829
0.119000,0.307000,0.000000,0.367000,0.308787,-0.000300,0.363908,0.308781,-0.000300,0.363975,0.001787,-0.000300,-0.003092,0.003584,0.000243,-0.009755,0.012990,0.016246,0.930855,180.000000,-0.000000,0.000000,179.982432,0.558801,-0.744349,0.017568,-0.558801,0.744349,-0.000007,0.000001,0.000012,0.000000,0.000000,0.000000,-0.012924,-0.012080,0.040714
0.120000,0.307000,0.000000,0.367000,0.308787,-0.000299,0.363909,0.308781,-0.000300,0.363975,0.001787,-0.000299,-0.003091,0.003583,0.000244,-0.009752,0.012994,0.016248,0.930947,180.000000,-0.000000,0.000000,179.982389,0.558626,-0.744595,0.017611,-0.558626,0.744595,-0.000007,0.000001,0.000012,0.000000,0.000000,0.000000,-0.013949,-0.025025,0.011975
0.121000,0.307000,0.000000,0.367000,0.308786,-0.000300,0.363905,0.308781,-0.000300,0.363975,0.001786,-0.000300,-0.003095,0.003586,0.000240,-0.009763,0.012996,0.016257,0.931442,180.000000,-0.000000,0.000000,179.982617,0.559274,-0.744731,0.017383,-0.559274,0.744731,-0.000007,0.000001,0.000012,0.000000,0.000000,0.000000,-0.005297,-0.007343,-0.041131
0.122000,0.307000,0.000000,0.367000,0.308787,-0.000299,0.363907,0.308781,-0.000300,0.363975,0.001787,-0.000299,-0.003093,0.003584,0.000243,-0.009756,0.012983,0.016242,0.930596,180.000000,-0.000000,0.000000,179.982420,0.558848,-0.743990,0.017580,-0.558848,0.743990,-0.000007,0.000001,0.000012,0.000000,0.000000,0.000000,-0.019059,0.012859,-0.010486
0.123000,0.307000,0.000000,0.367000,0.308787,-0.000299,0.363907,0.308781,-0.000300,0.363975,0.001787,-0.000299,-0.003093,0.003585,0.000244,-0.009759,0.012989,0.016248,0.930950,180.000000,-0.000000,0.000000,179.982416,0.559040,-0.744289,0.017584,-0.559040,0.744289,-0.000008,0.000001,0.000013,0.000000,0.000000,0.000000,-0.026258,-0.024663,-0.014126
0.124000,0.307000,0.000000,0.367000,0.308789,-0.000298,0.363908,0.308781,-0.000300,0.363975,0.001789,-0.000298,-0.003092,0.003585,0.000242,-0.009755,0.012986,0.016244,0.930688,180.000000,-0.000000,0.000000,179.982502,0.558820,-0.744127,0.017498,-0.558820,0.744127,-0.000008,0.000001,0.000013,0.000000,0.000000,0.000000,-0.022319,-0.009239,0.051268
0.125000,0.307000,0.000000,0.367000,0.308788,-0.000300,0.363909,0.308781,-0.000300,0.363975,0.001788,-0.000300,-0.003091,0.003584,0.000245,-0.009754,0.012983,0.016240,0.930512,180.000000,-0.000000,0.000000,179.982326,0.558741,-0.743963,0.017674,-0.558741,0.743963,-0.000008,0.000001,0.000013,0.000000,0.000000,0.000000,-0.040814,-0.009119,-0.114763
0.126000,0.307000,0.000000,0.367000,0.308788,-0.000299,0.363908,0.308781,-0.000300,0.363975,0.001788,-0.000299,-0.003092,0.003585,0.000245,-0.009753,0.012985,0.016241,0.930563,180.000000,-0.000000,0.000000,179.982317,0.558696,-0.744061,0.017683,-0.558696,0.744061,-0.000008,0.000001,0.000014,0.000000,0.000000,0.000000,0.001498,0.004413,-0.075024
0.127000,0.307000,0.000000,0.367000,0.308788,-0.000299,0.363907,0.308781,-0.000300,0.363975,0.001788,-0.000299,-0.003093,0.003585,0.000246,-0.009754,0.012987,0.016244,0.930728,180.000000,-0.000000,0.000000,179.982265,0.558778,-0.744205,0.017735,-0.558778,0.744205,-0.000008,0.000001,0.000014,0.000000,0.000000,0.000000,0.004387,0.033471,-0.024759
0.128000,0.307000,0.000000,0.367000,0.308788,-0.000301,0.363907,0.308781,-0.000300,0.363975,0.001788,-0.000301,-0.003093,0.003585,0.000238,-0.009758,0.012988,0.016247,0.930883,180.000000,-0.000000,0.000000,179.982753,0.558967,-0.744266,0.017247,-0.558967,0.744266,-0.000009,0.000001,0.000014,0.000000,0.000000,0.000000,0.013165,0.031804,0.016947
0.129000,0.307000,0.000000,0.367000,0.308788,-0.000298,0.363908,0.308781,-0.000300,0.363975,0.001788,-0.000298,-0.003092,0.003584,0.000242,-0.009755,0.012986,0.016243,0.930684,180.000000,-0.000000,0.000000,179.982494,0.558812,-0.744128,0.017506,-0.558812,0.744128,-0.000009,0.000001,0.000015,0.000000,0.000000,0.000000,0.034000,-0.005500,0.041407
0.130000,0.307000,0.000000,0.367000,0.308788,-0.000300,0.363907,0.308781,-0.000300,0.363975,0.001788,-0.000300,-0.003093,0.003585,0.000241,-0.009757,0.012992,0.016250,0.931060,180.000000,-0.000000,0.000000,179.982540,0.558938,-0.744505,0.017460,-0.558938,0.744505,-0.000009,0.000001,0.000015,0.000000,0.000000,0.000000,0.032690,-0.012555,0.053306
0.131000,0.307000,0.000000,0.367000,0.308787,-0.000299,0.363907,0.308781,-0.000300,0.363975,0.001787,-0.000299,-0.003093,0.003585,0.000241,-0.009759,0.012991,0.016250,0.931030,180.000000,-0.000000,0.000000,179.982545,0.559024,-0.744403,0.017455,-0.559024,0.744403,-0.000009,0.000002,0.000015,0.000000,0.000000,0.000000,0.030159,0.008916,0.042870
0.132000,0.307000,0.000000,0.367000,0.308787,-0.000298,0.363907,0.308781,-0.000299,0.363975,0.001787,-0.000298,-0.003093,0.003585,0.000239,-0.009761,0.012990,0.016251,0.931086,180.000000,-0.000000,0.000000,179.982660,0.559151,-0.744379,0.017340,-0.559151,0.744379,-0.000009,0.000002,0.000016,0.000000,0.000000,0.000000,0.060669,-0.011112,-0.001635
0.133000,0.307000,0.000000,0.367000,0.308788,-0.000299,0.363908,0.308781,-0.000299,0.363975,0.001788,-0.000299,-0.003092,0.003584,0.000246,-0.009757,0.012992,0.016249,0.931023,180.000000,-0.000000,0.000000,179.982297,0.558918,-0.744469,0.017703,-0.558918,0.744469,-0.000010,0.000002,0.000016,0.000000,0.000000,0.000000,-0.004676,-0.003378,0.063109
0.134000,0.307000,0.000000,0.367000,0.308787,-0.000299,0.363904,0.308781,-0.000299,0.363975,0.001787,-0.000299,-0.003096,0.003587,0.000241,-0.009767,0.012991,0.016255,0.931339,180.000000,-0.000000,0.000000,179.982555,0.559478,-0.744449,0.017445,-0.559478,0.744449,-0.000010,0.000002,0.000017,0.000000,0.000000,0.000000,-0.026164,0.012303,0.050757
0.135000,0.307000,0.000000,0.367000,0.308787,-0.000300,0.363905,0.308781,-0.000299,0.363975,0.001787,-0.000300,-0.003095,0.003587,0.000245,-0.009764,0.012989,0.016251,0.931138,180.000000,-0.000000,0.000000,179.982348,0.559306,-0.744322,0.017652,-0.559306,0.744322,-0.000010,0.000002,0.000017,0.000000,0.000000,0.000000,-0.031785,0.000307,0.033806
0.136000,0.307000,0.000000,0.367000,0.308788,-0.000298,0.363907,0.308781,-0.000299,0.363975,0.001788,-0.000298,-0.003093,0.003586,0.000242,-0.009758,0.012994,0.016252,0.931166,180.000000,-0.000000,0.000000,179.982522,0.558980,-0.744605,0.017478,-0.558980,0.744605,-0.000010,0.000002,0.000017,0.000000,0.000000,0.000000,0.003520,-0.015468,-0.027271
0.137000,0.307000,0.000000,0.367000,0.308788,-0.000300,0.363907,0.308781,-0.000299,0.363975,0.001788,-0.000300,-0.003093,0.003586,0.000239,-0.009756,0.013001,0.016256,0.931415,180.000000,-0.000000,0.000000,179.982684,0.558887,-0.744989,0.017316,-0.558887,0.744989,-0.000010,0.000002,0.000018,0.000000,0.000000,0.000000,0.011549,-0.022452,-0.024248
0.138000,0.307000,0.000000,0.367000,0.308788,-0.000301,0.363907,0.308781,-0.000299,0.363975,0.001788,-0.000301,-0.003093,0.003586,0.000241,-0.009760,0.012993,0.016252,0.931191,180.000000,-0.000000,0.000000,179.982564,0.559110,-0.744539,0.017436,-0.559110,0.744539,-0.000011,0.000002,0.000018,0.000000,0.000000,0.000000,-0.012965,-0.031279,-0.007381
0.139000,0.307000,0.000000,0.367000,0.308788,-0.000299,0.363906,0.308781,-0.000299,0.363976,0.001788,-0.000299,-0.003094,0.003586,0.000245,-0.009761,0.012986,0.016248,0.930914,180.000000,-0.000000,0.000000,179.982308,0.559184,-0.744134,0.017692,-0.559184,0.744134,-0.000011,0.000002,0.000018,0.000000,0.000000,0.000000,-0.010576,-0.002594,0.010300
0.140000,0.307000,0.000000,0.367000,0.308789,-0.000299,0.363905,0.308781,-0.000299,0.363976,0.001789,-0.000299,-0.003095,0.003587,0.000245,-0.009763,0.012985,0.016248,0.930922,180.000000,-0.000000,0.000000,179.982304,0.559249,-0.744094,0.017696,-0.559249,0.744094,-0.000011,0.000002,0.000019,0.000000,0.000000,0.000000,0.014681,0.004339,-0.029945
0.141000,0.307000,0.000000,0.367000,0.308789,-0.000300,0.363907,0.308781,-0.000299,0.363976,0.001789,-0.000300,-0.003093,0.003585,0.000241,-0.009757,0.012984,0.016243,0.930646,180.000000,-0.000000,0.000000,179.982553,0.558932,-0.743991,0.017447,-0.558932,0.743991,-0.000011,0.000002,0.000019,0.000000,0.000000,0.000000,-0.013851,0.006945,0.024590
0.142000,0.307000,0.000000,0.367000,0.308789,-0.000298,0.363905,0.308781,-0.000299,0.363976,0.001789,-0.000298,-0.003095,0.003587,0.000243,-0.009762,0.012986,0.016248,0.930933,180.000000,-0.000000,0.000000,179.982419,0.559202,-0.744146,0.017581,-0.559202,0.744146,-0.000012,0.000002,0.000020,0.000000,0.000000,0.000000,-0.001907,-0.008863,-0.071457
0.143000,0.307000,0.000000,0.367000,0.308789,-0.000300,0.363907,0.308781,-0.000299,0.363976,0.001789,-0.000300,-0.003093,0.003585,0.000244,-0.009760,0.012988,0.016248,0.930951,180.000000,-0.000000,0.000000,179.982364,0.559108,-0.744237,0.017636,-0.559108,0.744237,-0.000012,0.000002,0.000020,0.000000,0.000000,0.000000,0.039137,0.018175,-0.018379
0.144000,0.307000,0.000000,0.367000,0.308788,-0.000299,0.363905,0.308781,-0.000299,0.363976,0.001788,-0.000299,-0.003095,0.003587,0.000242,-0.009764,0.012986,0.016249,0.930983,180.000000,-0.000000,0.000000,179.982477,0.559323,-0.744118,0.017523,-0.559323,0.744118,-0.000012,0.000002,0.000021,0.000000,0.000000,0.000000,0.015601,-0.002244,0.008248
0.145000,0.307000,0.000000,0.367000,0.308789,-0.000298,0.363908,0.308781,-0.000299,0.363976,0.001789,-0.000298,-0.003092,0.003585,0.000247,-0.009755,0.012982,0.016240,0.930509,180.000000,-0.000000,0.000000,179.982230,0.558834,-0.743888,0.017770,-0.558834,0.743888,-0.000012,0.000002,0.000021,0.000000,0.000000,0.000000,0.010525,0.014986,0.022013
0.146000,0.307000,0.000000,0.367000,0.308789,-0.000298,0.363907,0.308781,-0.000299,0.363976,0.001789,-0.000298,-0.003093,0.003586,0.000242,-0.009759,0.012982,0.016242,0.930625,180.000000,-0.000000,0.000000,179.982525,0.559045,-0.743880,0.017475,-0.559045,0.743880,-0.000013,0.000002,0.000021,0.000000,0.000000,0.000000,-0.012286,0.009138,0.022363
0.147000,0.307000,0.000000,0.367000,0.308789,-0.000299,0.363906,0.308781,-0.000299,0.363976,0.001789,-0.000299,-0.003094,0.003587,0.000243,-0.009762,0.012984,0.016246,0.930838,180.000000,-0.000000,0.000000,179.982420,0.559204,-0.744025,0.017580,-0.559204,0.744025,-0.000013,0.000002,0.000022,0.000000,0.000000,0.000000,-0.004984,0.009142,0.037591
0.148000,0.307000,0.000000,0.367000,0.308788,-0.000299,0.363904,0.308781,-0.000299,0.363976,0.001788,-0.000299,-0.003096,0.003588,0.000245,-0.009768,0.012992,0.016256,0.931391,180.000000,-0.000000,0.000000,179.982351,0.559546,-0.744459,0.017649,-0.559546,0.744459,-0.000013,0.000002,0.000022,0.000000,0.000000,0.000000,-0.019511,0.015475,0.035261
0.149000,0.307000,0.000000,0.367000,0.308788,-0.000299,0.363904,0.308781,-0.000299,0.363976,0.001788,-0.000299,-0.003096,0.003588,0.000243,-0.009766,0.012997,0.016259,0.931597,180.000000,-0.000000,0.000000,179.982442,0.559471,-0.744774,0.017558,-0.559471,0.744774,-0.000013,0.000002,0.000023,0.000000,0.000000,0.000000,-0.008294,0.027494,0.035797
0.150000,0.307000,0.000000,0.367000,0.308789,-0.000300,0.363906,0.308781,-0.000299,0.363976,0.001789,-0.000300,-0.003094,0.003587,0.000244,-0.009762,0.012995,0.016255,0.931347,180.000000,-0.000000,0.000000,179.982359,0.559206,-0.744659,0.017641,-0.559206,0.744659,-0.000014,0.000002,0.000023,0.000000,0.000000,0.000000,0.035538,-0.014725,-0.043413
0.151000,0.307000,0.000000,0.367000,0.308790,-0.000301,0.363906,0.308780,-0.000299,0.363976,0.001790,-0.000301,-0.003094,0.003587,0.000243,-0.009760,0.012991,0.016251,0.931124,180.000000,-0.000000,0.000000,179.982424,0.559123,-0.744444,0.017576,-0.559123,0.744444,-0.000014,0.000002,0.000024,0.000000,0.000000,0.000000,-0.026817,0.015840,-0.056840
0.152000,0.307000,0.000000,0.367000,0.308788,-0.000299,0.363904,0.308780,-0.000299,0.363976,0.001788,-0.000299,-0.003096,0.003588,0.000247,-0.009766,0.012992,0.016255,0.931315,180.000000,-0.000000,0.000000,179.982209,0.559415,-0.744460,0.017791,-0.559415,0.744460,-0.000014,0.000002,0.000024,0.000000,0.000000,0.000000,-0.013385,0.022004,-0.053734
0.153000,0.307000,0.000000,0.367000,0.308789,-0.000299,0.363904,0.308780,-0.000299,0.363976,0.001789,-0.000299,-0.003096,0.003588,0.000248,-0.009763,0.012992,0.016253,0.931253,180.000000,-0.000000,0.000000,179.982157,0.559293,-0.744473,0.017843,-0.559293,0.744473,-0.000014,0.000002,0.000024,0.000000,0.000000,0.000000,0.010338,0.009367,-0.073779
0.154000,0.307000,0.000000,0.367000,0.308789,-0.000298,0.363906,0.308780,-0.000299,0.363976,0.001789,-0.000298,-0.003094,0.003586,0.000243,-0.009760,0.012986,0.016246,0.930845,180.000000,-0.000000,0.000000,179.982460,0.559084,-0.744125,0.017540,-0.559084,0.744125,-0.000015,0.000002,0.000025,0.000000,0.000000,0.000000,0.042423,0.028061,-0.007132
0.155000,0.307000,0.000000,0.367000,0.308788,-0.000299,0.363904,0.308780,-0.000299,0.363976,0.001788,-0.000299,-0.003096,0.003588,0.000244,-0.009765,0.012987,0.016250,0.931071,180.000000,-0.000000,0.000000,179.982378,0.559388,-0.744178,0.017622,-0.559388,0.744178,-0.000015,0.000003,0.000025,0.000000,0.000000,0.000000,0.029713,0.010819,0.031245
0.156000,0.307000,0.000000,0.367000,0.308789,-0.000298,0.363906,0.308780,-0.000299,0.363976,0.001789,-0.000298,-0.003094,0.003587,0.000241,-0.009764,0.012983,0.016247,0.930857,180.000000,-0.000000,0.000000,179.982575,0.559331,-0.743957,0.017425,-0.559331,0.743957,-0.000015,0.000003,0.000026,0.000000,0.000000,0.000000,0.006201,-0.025354,-0.018068
0.157000,0.307000,0.000000,0.367000,0.308789,-0.000299,0.363905,0.308780,-0.000299,0.363976,0.001789,-0.000299,-0.003095,0.003588,0.000240,-0.009765,0.012983,0.016247,0.930891,180.000000,-0.000000,0.000000,179.982595,0.559368,-0.743971,0.017405,-0.559368,0.743971,-0.000016,0.000003,0.000026,0.000000,0.000000,0.000000,-0.049508,-0.005884,-0.005531
0.158000,0.307000,0.000000,0.367000,0.308788,-0.000298,0.363901,0.308780,-0.000299,0.363976,0.001788,-0.000298,-0.003099,0.003590,0.000246,-0.009774,0.012985,0.016254,0.931288,180.000000,-0.000000,0.000000,179.982287,0.559895,-0.744066,0.017713,-0.559895,0.744066,-0.000016,0.000003,0.000027,0.000000,0.000000,0.000000,0.008464,0.010728,0.036362
0.159000,0.307000,0.000000,0.367000,0.308789,-0.000299,0.363903,0.308780,-0.000299,0.363976,0.001789,-0.000299,-0.003097,0.003589,0.000244,-0.009767,0.012988,0.016252,0.931167,180.000000,-0.000000,0.000000,179.982390,0.559474,-0.744233,0.017610,-0.559474,0.744233,-0.000016,0.000003,0.000027,0.000000,0.000000,0.000000,0.008681,-0.003526,0.072537
0.160000,0.307000,0.000000,0.367000,0.308788,-0.000300,0.363902,0.308780,-0.000299,0.363976,0.001788,-0.000300,-0.003098,0.003589,0.000242,-0.009770,0.012987,0.016253,0.931256,180.000000,-0.000000,0.000000,179.982487,0.559684,-0.744189,0.017513,-0.559684,0.744189,-0.000016,0.000003,0.000028,0.000000,0.000000,0.000000,0.031764,-0.003418,0.014149
0.161000,0.307000,0.000000,0.367000,0.308788,-0.000299,0.363902,0.308780,-0.000299,0.363976,0.001788,-0.000299,-0.003098,0.003589,0.000243,-0.009770,0.012994,0.016259,0.931563,180.000000,-0.000000,0.000000,179.982461,0.559687,-0.744570,0.017539,-0.559687,0.744570,-0.000017,0.000003,0.000028,0.000000,0.000000,0.000000,-0.012021,-0.012985,0.011332
0.162000,0.307000,0.000000,0.367000,0.308788,-0.000299,0.363901,0.308780,-0.000299,0.363976,0.001788,-0.000299,-0.003099,0.003590,0.000244,-0.009770,0.012988,0.016255,0.931332,180.000000,-0.000000,0.000000,179.982363,0.559696,-0.744272,0.017637,-0.559696,0.744272,-0.000017,0.000003,0.000029,0.000000,0.000000,0.000000,-0.053244,-0.038621,0.040017
0.163000,0.307000,0.000000,0.367000,0.308789,-0.000299,0.363903,0.308780,-0.000299,0.363976,0.001789,-0.000299,-0.003097,0.003589,0.000241,-0.009768,0.012993,0.016256,0.931425,180.000000,-0.000000,0.000000,179.982562,0.559534,-0.744514,0.017438,-0.559534,0.744514,-0.000017,0.000003,0.000029,0.000000,0.000000,0.000000,0.015720,-0.025564,0.045402
0.164000,0.307000,0.000000,0.367000,0.308789,-0.000300,0.363903,0.308780,-0.000299,0.363976,0.001789,-0.000300,-0.003097,0.003589,0.000243,-0.009767,0.012997,0.016260,0.931611,180.000000,-0.000000,0.000000,179.982469,0.559522,-0.744754,0.017531,-0.559522,0.744754,-0.000018,0.000003,0.000030,0.000000,0.000000,0.000000,0.021744,-0.001207,-0.046299
0.165000,0.307000,0.000000,0.367000,0.308790,-0.000300,0.363906,0.308780,-0.000299,0.363976,0.001790,-0.000300,-0.003094,0.003587,0.000248,-0.009762,0.012992,0.016253,0.931238,180.000000,-0.000000,0.000000,179.982165,0.559224,-0.744506,0.017835,-0.559224,0.744506,-0.000018,0.000003,0.000030,0.000000,0.000000,0.000000,-0.002019,0.032135,-0.008858
0.166000,0.307000,0.000000,0.367000,0.308790,-0.000300,0.363906,0.308780,-0.000299,0.363976,0.001790,-0.000300,-0.003094,0.003587,0.000246,-0.009762,0.012990,0.016250,0.931079,180.000000,-0.000000,0.000000,179.982266,0.559186,-0.744337,0.017734,-0.559186,0.744337,-0.000018,0.000003,0.000031,0.000000,0.000000,0.000000,0.011710,0.035793,0.000397
0.167000,0.307000,0.000000,0.367000,0.308788,-0.000299,0.363902,0.308780,-0.000299,0.363976,0.001788,-0.000299,-0.003098,0.003589,0.000245,-0.009770,0.012989,0.016255,0.931330,180.000000,-0.000000,0.000000,179.982334,0.559666,-0.744292,0.017666,-0.559666,0.744292,-0.000019,0.000003,0.000031,0.000000,0.000000,0.000000,-0.004147,0.042149,-0.026720
0.168000,0.307000,0.000000,0.367000,0.308789,-0.000298,0.363902,0.308780,-0.000299,0.363976,0.001789,-0.000298,-0.003098,0.003590,0.000240,-0.009769,0.012992,0.016257,0.931469,180.000000,-0.000000,0.000000,179.982592,0.559643,-0.744488,0.017408,-0.559643,0.744488,-0.000019,0.000003,0.000032,0.000000,0.000000,0.000000,-0.031500,0.010745,-0.027333
0.169000,0.307000,0.000000,0.367000,0.308788,-0.000298,0.363902,0.308780,-0.000299,0.363976,0.001788,-0.000298,-0.003098,0.003589,0.000244,-0.009769,0.012984,0.016250,0.931073,180.000000,-0.000000,0.000000,179.982396,0.559612,-0.744012,0.017604,-0.559612,0.744012,-0.000019,0.000003,0.000033,0.000000,0.000000,0.000000,-0.046389,-0.009250,-0.029962
0.170000,0.307000,0.000000,0.367000,0.308789,-0.000298,0.363903,0.308780,-0.000299,0.363976,0.001789,-0.000298,-0.003097,0.003589,0.000248,-0.009769,0.012982,0.016249,0.930997,180.000000,-0.000000,0.000000,179.982154,0.559589,-0.743929,0.017846,-0.559589,0.743929,-0.000019,0.000003,0.000033,0.000000,0.000000,0.000000,-0.070221,-0.000939,0.030008
