t,target_x,target_y,target_z,actual_x,actual_y,actual_z,inner_x,inner_y,inner_z,position_error_x,position_error_y,position_error_z,position_error_norm,orientation_error_x,orientation_error_y,orientation_error_z,orientation_error_norm_rad,orientation_error_norm_deg,target_roll_deg,target_pitch_deg,target_yaw_deg,actual_roll_deg,actual_pitch_deg,actual_yaw_deg,error_roll_deg,error_pitch_deg,error_yaw_deg,inner_vx,inner_vy,inner_vz,filtered_fx,filtered_fy,filtered_fz,masked_fx,masked_fy,masked_fz
0.000000,0.307000,0.000000,0.367000,0.319714,0.063869,0.345464,0.319714,0.063869,0.345464,0.012714,0.063869,-0.021536,0.068590,-0.022912,0.063517,-0.026358,0.072486,4.153118,180.000000,-0.000000,0.000000,-178.733637,-3.655869,1.470338,-1.266363,3.655869,-1.470338,0.000000,0.000000,0.000000,0.000000,0.000000,0.000000,0.000000,0.000000,0.000000
0.001000,0.307000,0.000000,0.367000,0.319714,0.063870,0.345464,0.319714,0.063869,0.345464,0.012714,0.063870,-0.021536,0.068592,-0.022908,0.063521,-0.026360,0.072488,4.153267,180.000000,-0.000000,0.000000,-178.733886,-3.656062,1.470494,-1.266114,3.656062,-1.470494,0.000000,0.000000,0.000000,0.000000,0.000000,0.000000,0.024451,0.002637,0.004592
0.002000,0.307000,0.000000,0.367000,0.319714,0.063869,0.345463,0.319714,0.063869,0.345464,0.012714,0.063869,-0.021537,0.068591,-0.022912,0.063518,-0.026359,0.072486,4.153148,180.000000,-0.000000,0.000000,-178.733623,-3.655874,1.470395,-1.266377,3.655874,-1.470395,-0.000000,-0.000000,0.000000,0.000000,0.000000,0.000000,0.005091,-0.006499,0.027321
0.003000,0.307000,0.000000,0.367000,0.319714,0.063870,0.345464,0.319714,0.063869,0.345464,0.012714,0.063870,-0.021536,0.068591,-0.022909,0.063519,-0.026358,0.072486,4.153142,180.000000,-0.000000,0.000000,-178.733799,-3.655936,1.470382,-1.266201,3.655936,-1.470382,-0.000000,-0.000000,0.000000,0.000000,0.000000,0.000000,0.009519,0.006494,-0.024743
0.004000,0.307000,0.000000,0.367000,0.319713,0.063868,0.345462,0.319714,0.063869,0.345464,0.012713,0.063868,-0.021538,0.068590,-0.022909,0.063516,-0.026354,0.072482,4.152912,180.000000,-0.000000,0.000000,-178.733811,-3.655791,1.470112,-1.266189,3.655791,-1.470112,-0.000000,-0.000000,0.000000,0.000000,0.000000,0.000000,-0.018748,0.010294,-0.043920
0.005000,0.307000,0.000000,0.367000,0.319712,0.063868,0.345460,0.319714,0.063869,0.345464,0.012712,0.063868,-0.021540,0.068591,-0.022908,0.063511,-0.026358,0.072479,4.152756,180.000000,-0.000000,0.000000,-178.733850,-3.655518,1.470381,-1.266150,3.655518,-1.470381,-0.000000,-0.000000,0.000000,0.000000,0.000000,0.000000,0.028890,0.024021,-0.052601
0.006000,0.307000,0.000000,0.367000,0.319711,0.063869,0.345460,0.319714,0.063869,0.345464,0.012711,0.063869,-0.021540,0.068591,-0.022911,0.063514,-0.026354,0.072481,4.152833,180.000000,-0.000000,0.000000,-178.733699,-3.655662,1.470112,-1.266301,3.655662,-1.470112,-0.000000,-0.000000,0.000000,0.000000,0.000000,0.000000,-0.024789,-0.008876,0.002791
0.007000,0.307000,0.000000,0.367000,0.319711,0.063869,0.345458,0.319714,0.063869,0.345464,0.012711,0.063869,-0.021542,0.068592,-0.022909,0.063512,-0.026352,0.072478,4.152678,180.000000,-0.000000,0.000000,-178.733818,-3.655570,1.470013,-1.266182,3.655570,-1.470013,-0.000000,-0.000000,0.000000,0.000000,0.000000,0.000000,0.041214,-0.013637,0.011397
0.008000,0.307000,0.000000,0.367000,0.319709,0.063869,0.345456,0.319714,0.063869,0.345464,0.012709,0.063869,-0.021544,0.068592,-0.022913,0.063505,-0.026355,0.072474,4.152445,180.000000,-0.000000,0.000000,-178.733589,-3.655141,1.470214,-1.266411,3.655141,-1.470214,-0.000000,-0.000000,0.000000,0.000000,0.000000,0.000000,-0.004596,-0.005554,-0.042987
0.009000,0.307000,0.000000,0.367000,0.319709,0.063869,0.345456,0.319714,0.063869,0.345464,0.012709,0.063869,-0.021544,0.068592,-0.022909,0.063504,-0.026362,0.072474,4.152479,180.000000,-0.000000,0.000000,-178.733812,-3.655098,1.470608,-1.266188,3.655098,-1.470608,-0.000000,-0.000000,0.000000,0.000000,0.000000,0.000000,0.012092,0.025224,-0.021969
0.010000,0.307000,0.000000,0.367000,0.319710,0.063868,0.345456,0.319714,0.063869,0.345464,0.012710,0.063868,-0.021544,0.068592,-0.022911,0.063503,-0.026353,0.072470,4.152251,180.000000,-0.000000,0.000000,-178.733708,-3.655019,1.470080,-1.266292,3.655019,-1.470080,-0.000000,-0.000000,0.000000,0.000000,0.000000,0.000000,0.029178,0.005012,-0.042812
0.011000,0.307000,0.000000,0.367000,0.319709,0.063869,0.345457,0.319714,0.063869,0.345464,0.012709,0.063869,-0.021543,0.068592,-0.022907,0.063507,-0.026351,0.072473,4.152375,180.000000,-0.000000,0.000000,-178.733921,-3.655286,1.469959,-1.266079,3.655286,-1.469959,-0.000000,-0.000000,0.000000,0.000000,0.000000,0.000000,-0.003310,-0.027034,-0.018624
0.012000,0.307000,0.000000,0.367000,0.319709,0.063868,0.345456,0.319714,0.063869,0.345464,0.012709,0.063868,-0.021544,0.068592,-0.022905,0.063505,-0.026365,0.072475,4.152509,180.000000,-0.000000,0.000000,-178.734054,-3.655141,1.470794,-1.265946,3.655141,-1.470794,-0.000000,-0.000000,0.000000,0.000000,0.000000,0.000000,0.033457,0.007051,0.014476
0.013000,0.307000,0.000000,0.367000,0.319708,0.063869,0.345454,0.319714,0.063869,0.345464,0.012708,0.063869,-0.021546,0.068593,-0.022904,0.063500,-0.026356,0.072467,4.152042,180.000000,-0.000000,0.000000,-178.734093,-3.654850,1.470252,-1.265907,3.654850,-1.470252,-0.000000,-0.000000,0.000000,0.000000,0.000000,0.000000,-0.005444,-0.008039,0.009234
0.014000,0.307000,0.000000,0.367000,0.319708,0.063868,0.345455,0.319714,0.063869,0.345464,0.012708,0.063868,-0.021545,0.068592,-0.022908,0.063501,-0.026359,0.072470,4.152232,180.000000,-0.000000,0.000000,-178.733859,-3.654904,1.470441,-1.266141,3.654904,-1.470441,-0.000000,-0.000000,0.000000,0.000000,0.000000,0.000000,0.041645,0.011682,0.007146
0.015000,0.307000,0.000000,0.367000,0.319706,0.063870,0.345452,0.319714,0.063869,0.345464,0.012706,0.063870,-0.021548,0.068594,-0.022903,0.063496,-0.026360,0.072465,4.151926,180.000000,-0.000000,0.000000,-178.734134,-3.654629,1.470507,-1.265866,3.654629,-1.470507,-0.000000,-0.000000,0.000000,0.000000,0.000000,0.000000,-0.001563,0.039406,0.025059
0.016000,0.307000,0.000000,0.367000,0.319706,0.063868,0.345451,0.319714,0.063869,0.345464,0.012706,0.063868,-0.021549,0.068593,-0.022909,0.063495,-0.026363,0.072467,4.152032,180.000000,-0.000000,0.000000,-178.733839,-3.654577,1.470669,-1.266161,3.654577,-1.470669,-0.000000,-0.000000,0.000000,0.000000,0.000000,0.000000,-0.031725,0.000356,0.069464
0.017000,0.307000,0.000000,0.367000,0.319706,0.063868,0.345451,0.319714,0.063869,0.345464,0.012706,0.063868,-0.021549,0.068592,-0.022902,0.063496,-0.026358,0.072463,4.151843,180.000000,-0.000000,0.000000,-178.734198,-3.654615,1.470369,-1.265802,3.654615,-1.470369,-0.000000,-0.000000,0.000000,0.000000,0.000000,0.000000,-0.006954,0.027540,0.096005
0.018000,0.307000,0.000000,0.367000,0.319704,0.063868,0.345448,0.319714,0.063869,0.345464,0.012704,0.063868,-0.021552,0.068593,-0.022903,0.063488,-0.026364,0.072459,4.151596,180.000000,-0.000000,0.000000,-178.734139,-3.654165,1.470733,-1.265861,3.654165,-1.470733,-0.000000,-0.000000,0.000000,0.000000,0.000000,0.000000,-0.022308,0.022593,0.020343
0.019000,0.307000,0.000000,0.367000,0.319704,0.063869,0.345447,0.319714,0.063869,0.345464,0.012704,0.063869,-0.021553,0.068594,-0.022901,0.063485,-0.026367,0.072457,4.151469,180.000000,-0.000000,0.000000,-178.734303,-3.653994,1.470939,-1.265697,3.653994,-1.470939,-0.000000,-0.000000,0.000000,0.000000,0.000000,0.000000,-0.044698,0.016130,0.040353
0.020000,0.307000,0.000000,0.367000,0.319705,0.063868,0.345448,0.319714,0.063869,0.345464,0.012705,0.063868,-0.021552,0.068593,-0.022904,0.063491,-0.026360,0.072460,4.151662,180.000000,-0.000000,0.000000,-178.734121,-3.654335,1.470486,-1.265879,3.654335,-1.470486,-0.000000,-0.000000,0.000000,0.000000,0.000000,0.000000,-0.016114,0.014150,0.050420
0.021000,0.307000,0.000000,0.367000,0.319704,0.063869,0.345447,0.319714,0.063869,0.345464,0.012704,0.063869,-0.021553,0.068594,-0.022901,0.063487,-0.026362,0.072457,4.151467,180.000000,-0.000000,0.000000,-178.734252,-3.654104,1.470621,-1.265748,3.654104,-1.470621,-0.000000,-0.000000,0.000000,0.000000,0.000000,0.000000,0.006818,0.004604,0.045958
0.022000,0.307000,0.000000,0.367000,0.319703,0.063869,0.345446,0.319714,0.063869,0.345464,0.012703,0.063869,-0.021554,0.068594,-0.022904,0.063482,-0.026364,0.072455,4.151353,180.000000,-0.000000,0.000000,-178.734067,-3.653859,1.470746,-1.265933,3.653859,-1.470746,-0.000000,-0.000000,0.000000,0.000000,0.000000,0.000000,0.012973,-0.007712,-0.044575
0.023000,0.307000,0.000000,0.367000,0.319703,0.063867,0.345444,0.319714,0.063869,0.345464,0.012703,0.063867,-0.021556,0.068593,-0.022903,0.063479,-0.026358,0.072449,4.151024,180.000000,-0.000000,0.000000,-178.734158,-3.653655,1.470414,-1.265842,3.653655,-1.470414,-0.000000,-0.000000,0.000000,0.000000,0.000000,0.000000,0.007903,-0.012901,-0.009191
0.024000,0.307000,0.000000,0.367000,0.319702,0.063868,0.345443,0.319714,0.063869,0.345464,0.012702,0.063868,-0.021557,0.068594,-0.022901,0.063476,-0.026353,0.072444,4.150745,180.000000,-0.000000,0.000000,-178.734246,-3.653483,1.470141,-1.265754,3.653483,-1.470141,-0.000000,-0.000000,0.000000,0.000000,0.000000,0.000000,-0.017231,-0.000781,-0.015729
0.025000,0.307000,0.000000,0.367000,0.319702,0.063866,0.345442,0.319714,0.063869,0.345464,0.012702,0.063866,-0.021558,0.068593,-0.022905,0.063474,-0.026349,0.072442,4.150619,180.000000,-0.000000,0.000000,-178.734021,-3.653369,1.469877,-1.265979,3.653369,-1.469877,-0.000000,-0.000000,0.000000,0.000000,0.000000,0.000000,-0.017601,0.000831,0.000007
0.026000,0.307000,0.000000,0.367000,0.319701,0.063867,0.345440,0.319714,0.063869,0.345464,0.012701,0.063867,-0.021560,0.068594,-0.022898,0.063471,-0.026362,0.072441,4.150586,180.000000,-0.000000,0.000000,-178.734429,-3.653174,1.470616,-1.265571,3.653174,-1.470616,-0.000000,-0.000000,0.000000,0.000000,0.000000,0.000000,-0.010486,0.031241,-0.005227
0.027000,0.307000,0.000000,0.367000,0.319701,0.063866,0.345440,0.319714,0.063869,0.345464,0.012701,0.063866,-0.021560,0.068593,-0.022898,0.063471,-0.026362,0.072442,4.150609,180.000000,-0.000000,0.000000,-178.734455,-3.653188,1.470667,-1.265545,3.653188,-1.470667,-0.000000,-0.000000,0.000000,0.000000,0.000000,0.000000,-0.030183,-0.006171,0.003769
0.028000,0.307000,0.000000,0.367000,0.319701,0.063866,0.345440,0.319714,0.063869,0.345464,0.012701,0.063866,-0.021560,0.068593,-0.022898,0.063470,-0.026353,0.072437,4.150362,180.000000,-0.000000,0.000000,-178.734438,-3.653123,1.470132,-1.265562,3.653123,-1.470132,-0.000000,-0.000000,0.000000,0.000000,0.000000,0.000000,-0.023105,-0.040793,0.010764
0.029000,0.307000,0.000000,0.367000,0.319700,0.063868,0.345438,0.319714,0.063869,0.345464,0.012700,0.063868,-0.021562,0.068595,-0.022899,0.063466,-0.026363,0.072439,4.150438,180.000000,-0.000000,0.000000,-178.734344,-3.652943,1.470696,-1.265656,3.652943,-1.470696,-0.000000,-0.000000,0.000000,0.000000,0.000000,0.000000,-0.014918,-0.019207,-0.014009
0.030000,0.307000,0.000000,0.367000,0.319698,0.063868,0.345437,0.319714,0.063869,0.345464,0.012698,0.063868,-0.021563,0.068595,-0.022901,0.063462,-0.026356,0.072433,4.150087,180.000000,-0.000000,0.000000,-178.734260,-3.652679,1.470301,-1.265740,3.652679,-1.470301,-0.000000,-0.000000,0.000000,0.000000,0.000000,0.000000,-0.005295,-0.037203,-0.058181
0.031000,0.307000,0.000000,0.367000,0.319699,0.063867,0.345438,0.319714,0.063869,0.345464,0.012699,0.063867,-0.021562,0.068594,-0.022901,0.063463,-0.026354,0.072433,4.150104,180.000000,-0.000000,0.000000,-178.734251,-3.652744,1.470182,-1.265749,3.652744,-1.470182,-0.000000,-0.000000,0.000000,0.000000,0.000000,0.000000,-0.001558,0.016682,-0.038195
0.032000,0.307000,0.000000,0.367000,0.319699,0.063868,0.345437,0.319714,0.063869,0.345464,0.012699,0.063868,-0.021563,0.068596,-0.022898,0.063463,-0.026369,0.072438,4.150369,180.000000,-0.000000,0.000000,-178.734433,-3.652753,1.471045,-1.265567,3.652753,-1.471045,-0.000000,-0.000000,0.000000,0.000000,0.000000,0.000000,0.008409,0.023716,0.053816
0.033000,0.307000,0.000000,0.367000,0.319700,0.063867,0.345437,0.319714,0.063869,0.345464,0.012700,0.063867,-0.021563,0.068595,-0.022901,0.063464,-0.026355,0.072434,4.150176,180.000000,-0.000000,0.000000,-178.734262,-3.652803,1.470246,-1.265738,3.652803,-1.470246,-0.000000,-0.000000,0.000000,0.000000,0.000000,0.000000,-0.005595,0.011882,0.029865
0.034000,0.307000,0.000000,0.367000,0.319699,0.063866,0.345436,0.319714,0.063869,0.345464,0.012699,0.063866,-0.021564,0.068594,-0.022896,0.063463,-0.026354,0.072432,4.150039,180.000000,-0.000000,0.000000,-178.734495,-3.652745,1.470211,-1.265505,3.652745,-1.470211,-0.000000,-0.000000,0.000000,0.000000,0.000000,0.000000,0.003654,-0.003074,0.041343
0.035000,0.307000,0.000000,0.367000,0.319699,0.063868,0.345437,0.319714,0.063869,0.345464,0.012699,0.063868,-0.021563,0.068596,-0.022897,0.063465,-0.026361,0.072436,4.150290,180.000000,-0.000000,0.000000,-178.734492,-3.652866,1.470606,-1.265508,3.652866,-1.470606,-0.000000,-0.000000,0.000000,0.000000,0.000000,0.000000,0.027567,-0.006900,-0.035743
0.036000,0.307000,0.000000,0.367000,0.319699,0.063867,0.345435,0.319714,0.063869,0.345464,0.012699,0.063867,-0.021565,0.068595,-0.022896,0.063461,-0.026368,0.072435,4.150200,180.000000,-0.000000,0.000000,-178.734571,-3.652642,1.470970,-1.265429,3.652642,-1.470970,-0.000000,-0.000001,0.000000,0.000000,0.000000,0.000000,-0.001638,-0.032143,-0.039836
0.037000,0.307000,0.000000,0.367000,0.319699,0.063867,0.345436,0.319714,0.063869,0.345464,0.012699,0.063867,-0.021564,0.068595,-0.022898,0.063461,-0.026356,0.072431,4.149989,180.000000,-0.000000,0.000000,-178.734395,-3.652603,1.470332,-1.265605,3.652603,-1.470332,-0.000000,-0.000001,0.000000,0.000000,0.000000,0.000000,0.001628,-0.001661,0.058947
0.038000,0.307000,0.000000,0.367000,0.319699,0.063868,0.345436,0.319714,0.063869,0.345464,0.012699,0.063868,-0.021564,0.068595,-0.022898,0.063461,-0.026363,0.072434,4.150167,180.000000,-0.000000,0.000000,-178.734421,-3.652650,1.470730,-1.265579,3.652650,-1.470730,-0.000000,-0.000001,0.000000,0.000000,0.000000,0.000000,-0.006060,-0.047812,0.087588
0.039000,0.307000,0.000000,0.367000,0.319698,0.063869,0.345435,0.319714,0.063869,0.345464,0.012698,0.063869,-0.021565,0.068597,-0.022897,0.063456,-0.026366,0.072430,4.149937,180.000000,-0.000000,0.000000,-178.734458,-3.652350,1.470858,-1.265542,3.652350,-1.470858,-0.000000,-0.000001,0.000000,0.000000,0.000000,0.000000,-0.017663,0.051700,0.029617
0.040000,0.307000,0.000000,0.367000,0.319698,0.063869,0.345434,0.319714,0.063869,0.345464,0.012698,0.063869,-0.021566,0.068597,-0.022898,0.063457,-0.026368,0.072432,4.150070,180.000000,-0.000000,0.000000,-178.734416,-3.652424,1.471006,-1.265584,3.652424,-1.471006,-0.000000,-0.000001,0.000000,0.000000,0.000000,0.000000,0.012887,-0.026757,0.011236
0.041000,0.307000,0.000000,0.367000,0.319698,0.063869,0.345433,0.319714,0.063869,0.345464,0.012698,0.063869,-0.021567,0.068597,-0.022897,0.063455,-0.026361,0.072427,4.149786,180.000000,-0.000000,0.000000,-178.734493,-3.652295,1.470609,-1.265507,3.652295,-1.470609,-0.000000,-0.000001,0.000000,0.000000,0.000000,0.000000,0.013462,0.009769,-0.041048
0.042000,0.307000,0.000000,0.367000,0.319698,0.063869,0.345434,0.319714,0.063869,0.345464,0.012698,0.063869,-0.021566,0.068598,-0.022893,0.063458,-0.026372,0.072433,4.150110,180.000000,-0.000000,0.000000,-178.734740,-3.652482,1.471259,-1.265260,3.652482,-1.471259,-0.000000,-0.000001,0.000000,0.000000,0.000000,0.000000,0.032605,0.013157,-0.034768
0.043000,0.307000,0.000000,0.367000,0.319698,0.063869,0.345432,0.319714,0.063869,0.345464,0.012698,0.063869,-0.021568,0.068597,-0.022895,0.063455,-0.026372,0.072431,4.149994,180.000000,-0.000000,0.000000,-178.734585,-3.652316,1.471209,-1.265415,3.652316,-1.471209,-0.000000,-0.000001,0.000000,0.000000,0.000000,0.000000,0.018224,0.031916,0.013044
0.044000,0.307000,0.000000,0.367000,0.319698,0.063867,0.345435,0.319714,0.063869,0.345464,0.012698,0.063867,-0.021565,0.068595,-0.022899,0.063460,-0.026354,0.072430,4.149924,180.000000,-0.000000,0.000000,-178.734351,-3.652583,1.470162,-1.265649,3.652583,-1.470162,-0.000000,-0.000001,0.000000,0.000000,0.000000,0.000000,0.028713,0.011420,-0.026323
0.045000,0.307000,0.000000,0.367000,0.319698,0.063867,0.345435,0.319714,0.063869,0.345464,0.012698,0.063867,-0.021565,0.068595,-0.022900,0.063459,-0.026356,0.072429,4.149901,180.000000,-0.000000,0.000000,-178.734312,-3.652487,1.470300,-1.265688,3.652487,-1.470300,-0.000000,-0.000001,0.000000,0.000000,0.000000,0.000000,0.014000,-0.046704,-0.080498
0.046000,0.307000,0.000000,0.367000,0.319696,0.063866,0.345431,0.319714,0.063869,0.345464,0.012696,0.063866,-0.021569,0.068595,-0.022900,0.063449,-0.026359,0.072422,4.149497,180.000000,-0.000000,0.000000,-178.734278,-3.651937,1.470496,-1.265722,3.651937,-1.470496,-0.000000,-0.000001,0.000000,0.000000,0.000000,0.000000,0.022810,-0.006178,-0.006676
0.047000,0.307000,0.000000,0.367000,0.319696,0.063867,0.345432,0.319714,0.063869,0.345464,0.012696,0.063867,-0.021568,0.068596,-0.022897,0.063453,-0.026360,0.072425,4.149646,180.000000,-0.000000,0.000000,-178.734462,-3.652156,1.470533,-1.265538,3.652156,-1.470533,-0.000000,-0.000001,0.000000,0.000000,0.000000,0.000000,-0.014019,0.027246,0.024300
0.048000,0.307000,0.000000,0.367000,0.319697,0.063867,0.345432,0.319714,0.063869,0.345464,0.012697,0.063867,-0.021568,0.068596,-0.022897,0.063454,-0.026353,0.072423,4.149543,180.000000,-0.000000,0.000000,-178.734473,-3.652199,1.470156,-1.265527,3.652199,-1.470156,-0.000000,-0.000002,0.000001,0.000000,0.000000,0.000000,-0.027540,-0.001717,0.033553
0.049000,0.307000,0.000000,0.367000,0.319697,0.063867,0.345433,0.319714,0.063869,0.345464,0.012697,0.063867,-0.021567,0.068596,-0.022899,0.063456,-0.026354,0.072426,4.149727,180.000000,-0.000000,0.000000,-178.734338,-3.652345,1.470189,-1.265662,3.652345,-1.470189,-0.000000,-0.000002,0.000001,0.000000,0.000000,0.000000,0.003013,0.010047,-0.036070
0.050000,0.307000,0.000000,0.367000,0.319696,0.063867,0.345429,0.319714,0.063869,0.345464,0.012696,0.063867,-0.021571,0.068596,-0.022895,0.063447,-0.026357,0.072418,4.149269,180.000000,-0.000000,0.000000,-178.734548,-3.651834,1.470353,-1.265452,3.651834,-1.470353,-0.000000,-0.000002,0.000001,0.000000,0.000000,0.000000,0.006758,0.019682,-0.050247
0.051000,0.307000,0.000000,0.367000,0.319697,0.063865,0.345430,0.319714,0.063869,0.345464,0.012697,0.063865,-0.021570,0.068594,-0.022895,0.063450,-0.026347,0.072417,4.149170,180.000000,-0.000000,0.000000,-178.734584,-3.651962,1.469802,-1.265416,3.651962,-1.469802,-0.000000,-0.000002,0.000001,0.000000,0.000000,0.000000,-0.004866,-0.000607,0.004037
0.052000,0.307000,0.000000,0.367000,0.319694,0.063866,0.345428,0.319714,0.063869,0.345464,0.012694,0.063866,-0.021572,0.068595,-0.022894,0.063444,-0.026359,0.072416,4.149124,180.000000,-0.000000,0.000000,-178.734610,-3.651633,1.470499,-1.265390,3.651633,-1.470499,-0.000000,-0.000002,0.000001,0.000000,0.000000,0.000000,-0.011588,-0.021130,0.028500
0.053000,0.307000,0.000000,0.367000,0.319696,0.063868,0.345430,0.319714,0.063869,0.345464,0.012696,0.063868,-0.021570,0.068597,-0.022897,0.063449,-0.026360,0.072422,4.149448,180.000000,-0.000000,0.000000,-178.734481,-3.651941,1.470528,-1.265519,3.651941,-1.470528,-0.000000,-0.000002,0.000001,0.000000,0.000000,0.000000,-0.005180,-0.015699,-0.002388
0.054000,0.307000,0.000000,0.367000,0.319695,0.063868,0.345429,0.319714,0.063869,0.345464,0.012695,0.063868,-0.021571,0.068597,-0.022894,0.063446,-0.026359,0.072418,4.149223,180.000000,-0.000000,0.000000,-178.734622,-3.651754,1.470487,-1.265378,3.651754,-1.470487,-0.000000,-0.000002,0.000001,0.000000,0.000000,0.000000,0.003633,-0.007541,0.040596
0.055000,0.307000,0.000000,0.367000,0.319694,0.063866,0.345428,0.319714,0.063869,0.345464,0.012694,0.063866,-0.021572,0.068595,-0.022898,0.063446,-0.026349,0.072415,4.149081,180.000000,-0.000000,0.000000,-178.734389,-3.651754,1.469894,-1.265611,3.651754,-1.469894,-0.000001,-0.000003,0.000001,0.000000,0.000000,0.000000,-0.017924,-0.009517,0.031912
0.056000,0.307000,0.000000,0.367000,0.319695,0.063866,0.345429,0.319714,0.063869,0.345464,0.012695,0.063866,-0.021571,0.068596,-0.022897,0.063446,-0.026367,0.072422,4.149466,180.000000,-0.000000,0.000000,-178.734452,-3.651790,1.470918,-1.265548,3.651790,-1.470918,-0.000001,-0.000003,0.000001,0.000000,0.000000,0.000000,-0.032291,0.000386,0.052952
0.057000,0.307000,0.000000,0.367000,0.319694,0.063868,0.345427,0.319714,0.063869,0.345464,0.012694,0.063868,-0.021573,0.068598,-0.022896,0.063443,-0.026363,0.072418,4.149226,180.000000,-0.000000,0.000000,-178.734534,-3.651621,1.470740,-1.265466,3.651621,-1.470740,-0.000001,-0.000003,0.000001,0.000000,0.000000,0.000000,0.015619,0.039883,0.020671
0.058000,0.307000,0.000000,0.367000,0.319694,0.063867,0.345427,0.319714,0.063869,0.345464,0.012694,0.063867,-0.021573,0.068597,-0.022892,0.063445,-0.026363,0.072418,4.149220,180.000000,-0.000000,0.000000,-178.734737,-3.651695,1.470722,-1.265263,3.651695,-1.470722,-0.000001,-0.000003,0.000001,0.000000,0.000000,0.000000,0.025849,0.012127,0.061932
0.059000,0.307000,0.000000,0.367000,0.319694,0.063868,0.345427,0.319714,0.063869,0.345464,0.012694,0.063868,-0.021573,0.068598,-0.022892,0.063446,-0.026368,0.072420,4.149382,180.000000,-0.000000,0.000000,-178.734739,-3.651768,1.470993,-1.265261,3.651768,-1.470993,-0.000001,-0.000003,0.000001,0.000000,0.000000,0.000000,-0.006008,0.034736,0.063104
0.060000,0.307000,0.000000,0.367000,0.319696,0.063868,0.345430,0.319714,0.063869,0.345464,0.012696,0.063868,-0.021570,0.068597,-0.022895,0.063451,-0.026360,0.072423,4.149540,180.000000,-0.000000,0.000000,-178.734556,-3.652061,1.470553,-1.265444,3.652061,-1.470553,-0.000001,-0.000004,0.000001,0.000000,0.000000,0.000000,0.020910,-0.006595,0.038945
0.061000,0.307000,0.000000,0.367000,0.319694,0.063867,0.345428,0.319714,0.063869,0.345464,0.012694,0.063867,-0.021572,0.068597,-0.022897,0.063446,-0.026366,0.072421,4.149421,180.000000,-0.000000,0.000000,-178.734453,-3.651760,1.470868,-1.265547,3.651760,-1.470868,-0.000001,-0.000004,0.000001,0.000000,0.000000,0.000000,0.026532,-0.013248,0.018759
0.062000,0.307000,0.000000,0.367000,0.319694,0.063867,0.345428,0.319714,0.063869,0.345464,0.012694,0.063867,-0.021572,0.068597,-0.022898,0.063448,-0.026363,0.072422,4.149458,180.000000,-0.000000,0.000000,-178.734396,-3.651857,1.470685,-1.265604,3.651857,-1.470685,-0.000001,-0.000004,0.000001,0.000000,0.000000,0.000000,0.017352,0.008716,-0.013869
0.063000,0.307000,0.000000,0.367000,0.319693,0.063866,0.345426,0.319714,0.063869,0.345464,0.012693,0.063866,-0.021574,0.068596,-0.022896,0.063440,-0.026353,0.072411,4.148830,180.000000,-0.000000,0.000000,-178.734521,-3.651412,1.470152,-1.265479,3.651412,-1.470152,-0.000001,-0.000004,0.000001,0.000000,0.000000,0.000000,-0.004228,0.008678,0.010234
0.064000,0.307000,0.000000,0.367000,0.319694,0.063868,0.345428,0.319714,0.063869,0.345464,0.012694,0.063868,-0.021572,0.068597,-0.022893,0.063450,-0.026362,0.072422,4.149452,180.000000,-0.000000,0.000000,-178.734706,-3.651978,1.470644,-1.265294,3.651978,-1.470644,-0.000001,-0.000005,0.000002,0.000000,0.000000,0.000000,0.013241,-0.001236,0.019361
0.065000,0.307000,0.000000,0.367000,0.319694,0.063868,0.345428,0.319714,0.063869,0.345464,0.012694,0.063868,-0.021572,0.068597,-0.022896,0.063446,-0.026364,0.072420,4.149362,180.000000,-0.000000,0.000000,-178.734538,-3.651756,1.470790,-1.265462,3.651756,-1.470790,-0.000001,-0.000005,0.000002,0.000000,0.000000,0.000000,0.017116,0.015930,-0.004857
0.066000,0.307000,0.000000,0.367000,0.319693,0.063867,0.345428,0.319714,0.063869,0.345464,0.012693,0.063867,-0.021572,0.068596,-0.022895,0.063444,-0.026364,0.072418,4.149244,180.000000,-0.000000,0.000000,-178.734581,-3.651650,1.470762,-1.265419,3.651650,-1.470762,-0.000001,-0.000005,0.000002,0.000000,0.000000,0.000000,0.016976,0.034425,-0.035265
0.067000,0.307000,0.000000,0.367000,0.319692,0.063868,0.345426,0.319714,0.063869,0.345464,0.012692,0.063868,-0.021574,0.068598,-0.022894,0.063441,-0.026359,0.072413,4.148981,180.000000,-0.000000,0.000000,-178.734625,-3.651480,1.470491,-1.265375,3.651480,-1.470491,-0.000001,-0.000006,0.000002,0.000000,0.000000,0.000000,-0.034714,0.008018,-0.012926
0.068000,0.307000,0.000000,0.367000,0.319694,0.063867,0.345427,0.319714,0.063869,0.345464,0.012694,0.063867,-0.021573,0.068596,-0.022895,0.063446,-0.026364,0.072420,4.149371,180.000000,-0.000000,0.000000,-178.734585,-3.651786,1.470783,-1.265415,3.651786,-1.470783,-0.000001,-0.000006,0.000002,0.000000,0.000000,0.000000,-0.025931,-0.039025,0.018062
0.069000,0.307000,0.000000,0.367000,0.319693,0.063867,0.345427,0.319714,0.063869,0.345464,0.012693,0.063867,-0.021573,0.068597,-0.022897,0.063445,-0.026361,0.072418,4.149267,180.000000,-0.000000,0.000000,-178.734488,-3.651719,1.470576,-1.265512,3.651719,-1.470576,-0.000001,-0.000006,0.000002,0.000000,0.000000,0.000000,0.009980,-0.040658,-0.063012
0.070000,0.307000,0.000000,0.367000,0.319694,0.063866,0.345428,0.319714,0.063868,0.345464,0.012694,0.063866,-0.021572,0.068595,-0.022894,0.063445,-0.026355,0.072416,4.149125,180.000000,-0.000000,0.000000,-178.734599,-3.651728,1.470261,-1.265401,3.651728,-1.470261,-0.000001,-0.000007,0.000002,0.000000,0.000000,0.000000,0.060350,-0.003838,-0.031054
0.071000,0.307000,0.000000,0.367000,0.319693,0.063866,0.345426,0.319714,0.063868,0.345464,0.012693,0.063866,-0.021574,0.068596,-0.022894,0.063442,-0.026357,0.072414,4.149000,180.000000,-0.000000,0.000000,-178.734609,-3.651543,1.470376,-1.265391,3.651543,-1.470376,-0.000001,-0.000007,0.000002,0.000000,0.000000,0.000000,0.010655,0.010431,0.019803
0.072000,0.307000,0.000000,0.367000,0.319692,0.063867,0.345423,0.319714,0.063868,0.345464,0.012692,0.063867,-0.021577,0.068598,-0.022894,0.063436,-0.026366,0.072412,4.148874,180.000000,-0.000000,0.000000,-178.734621,-3.651191,1.470896,-1.265379,3.651191,-1.470896,-0.000001,-0.000007,0.000002,0.000000,0.000000,0.000000,0.014730,-0.000404,-0.070732
0.073000,0.307000,0.000000,0.367000,0.319694,0.063867,0.345427,0.319714,0.063868,0.345464,0.012694,0.063867,-0.021573,0.068597,-0.022897,0.063443,-0.026357,0.072415,4.149094,180.000000,-0.000000,0.000000,-178.734470,-3.651597,1.470383,-1.265530,3.651597,-1.470383,-0.000002,-0.000008,0.000003,0.000000,0.000000,0.000000,-0.010387,-0.000786,0.005744
0.074000,0.307000,0.000000,0.367000,0.319693,0.063866,0.345426,0.319714,0.063868,0.345464,0.012693,0.063866,-0.021574,0.068596,-0.022897,0.063440,-0.026362,0.072415,4.149054,180.000000,-0.000000,0.000000,-178.734454,-3.651438,1.470643,-1.265546,3.651438,-1.470643,-0.000002,-0.000008,0.000003,0.000000,0.000000,0.000000,-0.034238,0.034370,-0.007240
0.075000,0.307000,0.000000,0.367000,0.319692,0.063867,0.345422,0.319714,0.063868,0.345464,0.012692,0.063867,-0.021578,0.068598,-0.022895,0.063430,-0.026364,0.072406,4.148531,180.000000,-0.000000,0.000000,-178.734564,-3.650830,1.470777,-1.265436,3.650830,-1.470777,-0.000002,-0.000009,0.000003,0.000000,0.000000,0.000000,0.008581,-0.021606,-0.000969
0.076000,0.307000,0.000000,0.367000,0.319692,0.063868,0.345424,0.319714,0.063868,0.345464,0.012692,0.063868,-0.021576,0.068599,-0.022895,0.063436,-0.026366,0.072412,4.148877,180.000000,-0.000000,0.000000,-178.734582,-3.651180,1.470897,-1.265418,3.651180,-1.470897,-0.000002,-0.000009,0.000003,0.000000,0.000000,0.000000,0.015469,0.014957,0.047919
0.077000,0.307000,0.000000,0.367000,0.319692,0.063868,0.345426,0.319714,0.063868,0.345464,0.012692,0.063868,-0.021574,0.068598,-0.022897,0.063442,-0.026358,0.072415,4.149085,180.000000,-0.000000,0.000000,-178.734474,-3.651558,1.470454,-1.265526,3.651558,-1.470454,-0.000002,-0.000009,0.000003,0.000000,0.000000,0.000000,0.008307,-0.002959,-0.004639
0.078000,0.307000,0.000000,0.367000,0.319693,0.063868,0.345427,0.319714,0.063868,0.345464,0.012693,0.063868,-0.021573,0.068597,-0.022897,0.063442,-0.026362,0.072416,4.149139,180.000000,-0.000000,0.000000,-178.734489,-3.651533,1.470678,-1.265511,3.651533,-1.470678,-0.000002,-0.000010,0.000003,0.000000,0.000000,0.000000,-0.005572,0.027654,-0.048550
0.079000,0.307000,0.000000,0.367000,0.319693,0.063868,0.345425,0.319714,0.063868,0.345464,0.012693,0.063868,-0.021575,0.068598,-0.022896,0.063440,-0.026369,0.072416,4.149154,180.000000,-0.000000,0.000000,-178.734558,-3.651406,1.471085,-1.265442,3.651406,-1.471085,-0.000002,-0.000010,0.000003,0.000000,0.000000,0.000000,0.007711,0.034335,-0.035235
0.080000,0.307000,0.000000,0.367000,0.319693,0.063866,0.345425,0.319714,0.063868,0.345464,0.012693,0.063866,-0.021575,0.068596,-0.022895,0.063438,-0.026358,0.072411,4.148825,180.000000,-0.000000,0.000000,-178.734548,-3.651285,1.470466,-1.265452,3.651285,-1.470466,-0.000002,-0.000011,0.000004,0.000000,0.000000,0.000000,-0.031847,0.010795,-0.020712
0.081000,0.307000,0.000000,0.367000,0.319691,0.063868,0.345423,0.319714,0.063868,0.345464,0.012691,0.063868,-0.021577,0.068599,-0.022890,0.063435,-0.026362,0.072408,4.148669,180.000000,-0.000000,0.000000,-178.734837,-3.651121,1.470690,-1.265163,3.651121,-1.470690,-0.000002,-0.000011,0.000004,0.000000,0.000000,0.000000,0.020189,0.019534,0.024709
0.082000,0.307000,0.000000,0.367000,0.319691,0.063868,0.345423,0.319714,0.063868,0.345464,0.012691,0.063868,-0.021577,0.068599,-0.022891,0.063433,-0.026366,0.072408,4.148664,180.000000,-0.000000,0.000000,-178.734792,-3.651014,1.470897,-1.265208,3.651014,-1.470897,-0.000002,-0.000012,0.000004,0.000000,0.000000,0.000000,-0.022803,0.008059,0.018823
0.083000,0.307000,0.000000,0.367000,0.319691,0.063868,0.345423,0.319714,0.063868,0.345464,0.012691,0.063868,-0.021577,0.068599,-0.022895,0.063433,-0.026371,0.072411,4.148847,180.000000,-0.000000,0.000000,-178.734607,-3.651045,1.471163,-1.265393,3.651045,-1.471163,-0.000002,-0.000012,0.000004,0.000000,0.000000,0.000000,0.009487,0.017611,-0.023052
0.084000,0.307000,0.000000,0.367000,0.319691,0.063868,0.345422,0.319714,0.063868,0.345464,0.012691,0.063868,-0.021578,0.068598,-0.022896,0.063432,-0.026357,0.072405,4.148528,180.000000,-0.000000,0.000000,-178.734486,-3.650962,1.470383,-1.265514,3.650962,-1.470383,-0.000003,-0.000013,0.000004,0.000000,0.000000,0.000000,-0.022016,0.010816,0.003313
0.085000,0.307000,0.000000,0.367000,0.319690,0.063868,0.345420,0.319714,0.063868,0.345464,0.012690,0.063868,-0.021580,0.068599,-0.022894,0.063429,-0.026363,0.072404,4.148440,180.000000,-0.000000,0.000000,-178.734627,-3.650770,1.470731,-1.265373,3.650770,-1.470731,-0.000003,-0.000014,0.000005,0.000000,0.000000,0.000000,-0.023593,-0.015937,-0.041029
0.086000,0.307000,0.000000,0.367000,0.319691,0.063865,0.345421,0.319714,0.063868,0.345464,0.012691,0.063865,-0.021579,0.068597,-0.022894,0.063429,-0.026359,0.072403,4.148378,180.000000,-0.000000,0.000000,-178.734611,-3.650785,1.470508,-1.265389,3.650785,-1.470508,-0.000003,-0.000014,0.000005,0.000000,0.000000,0.000000,0.001074,-0.000436,0.031673
0.087000,0.307000,0.000000,0.367000,0.319690,0.063868,0.345421,0.319714,0.063868,0.345464,0.012690,0.063868,-0.021579,0.068599,-0.022893,0.063428,-0.026357,0.072401,4.148250,180.000000,-0.000000,0.000000,-178.734646,-3.650704,1.470383,-1.265354,3.650704,-1.470383,-0.000003,-0.000015,0.000005,0.000000,0.000000,0.000000,0.000788,0.017427,0.019861
0.088000,0.307000,0.000000,0.367000,0.319689,0.063867,0.345419,0.319714,0.063868,0.345464,0.012689,0.063867,-0.021581,0.068599,-0.022894,0.063425,-0.026355,0.072398,4.148088,180.000000,-0.000000,0.000000,-178.734591,-3.650552,1.470259,-1.265409,3.650552,-1.470259,-0.000003,-0.000016,0.000005,0.000000,0.000000,0.000000,0.017400,0.002668,0.004476
0.089000,0.307000,0.000000,0.367000,0.319688,0.063868,0.345418,0.319714,0.063868,0.345464,0.012688,0.063868,-0.021582,0.068599,-0.022894,0.063423,-0.026365,0.072400,4.148192,180.000000,-0.000000,0.000000,-178.734646,-3.650454,1.470833,-1.265354,3.650454,-1.470833,-0.000003,-0.000016,0.000005,0.000000,0.000000,0.000000,-0.007125,0.028810,-0.069313
0.090000,0.307000,0.000000,0.367000,0.319688,0.063868,0.345418,0.319714,0.063868,0.345464,0.012688,0.063868,-0.021582,0.068599,-0.022896,0.063423,-0.026366,0.072400,4.148242,180.000000,-0.000000,0.000000,-178.734500,-3.650436,1.470887,-1.265500,3.650436,-1.470887,-0.000003,-0.000017,0.000006,0.000000,0.000000,0.000000,-0.012489,0.011729,-0.010111
0.091000,0.307000,0.000000,0.367000,0.319690,0.063867,0.345420,0.319714,0.063868,0.345464,0.012690,0.063867,-0.021580,0.068598,-0.022896,0.063431,-0.026354,0.072403,4.148386,180.000000,-0.000000,0.000000,-178.734502,-3.650875,1.470219,-1.265498,3.650875,-1.470219,-0.000003,-0.000018,0.000006,0.000000,0.000000,0.000000,0.014097,0.026031,-0.020600
0.092000,0.307000,0.000000,0.367000,0.319688,0.063866,0.345417,0.319714,0.063868,0.345464,0.012688,0.063866,-0.021583,0.068598,-0.022894,0.063422,-0.026356,0.072395,4.147938,180.000000,-0.000000,0.000000,-178.734633,-3.650377,1.470310,-1.265367,3.650377,-1.470310,-0.000004,-0.000018,0.000006,0.000000,0.000000,0.000000,-0.013587,-0.004392,-0.049050
0.093000,0.307000,0.000000,0.367000,0.319687,0.063866,0.345415,0.319714,0.063868,0.345464,0.012687,0.063866,-0.021585,0.068599,-0.022892,0.063419,-0.026363,0.072395,4.147914,180.000000,-0.000000,0.000000,-178.734727,-3.650206,1.470741,-1.265273,3.650206,-1.470741,-0.000004,-0.000019,0.000006,0.000000,0.000000,0.000000,0.013357,-0.021861,0.018837
0.094000,0.307000,0.000000,0.367000,0.319688,0.063866,0.345416,0.319714,0.063868,0.345464,0.012688,0.063866,-0.021584,0.068598,-0.022891,0.063419,-0.026357,0.072392,4.147780,180.000000,-0.000000,0.000000,-178.734776,-3.650218,1.470385,-1.265224,3.650218,-1.470385,-0.000004,-0.000020,0.000007,0.000000,0.000000,0.000000,0.004329,0.014298,0.000065
0.095000,0.307000,0.000000,0.367000,0.319689,0.063867,0.345419,0.319714,0.063868,0.345464,0.012689,0.063867,-0.021581,0.068599,-0.022892,0.063428,-0.026357,0.072401,4.148271,180.000000,-0.000000,0.000000,-178.734762,-3.650754,1.470421,-1.265238,3.650754,-1.470421,-0.000004,-0.000021,0.000007,0.000000,0.000000,0.000000,-0.011339,0.005122,-0.010087
0.096000,0.307000,0.000000,0.367000,0.319688,0.063867,0.345417,0.319714,0.063868,0.345464,0.012688,0.063867,-0.021583,0.068599,-0.022895,0.063424,-0.026360,0.072399,4.148176,180.000000,-0.000000,0.000000,-178.734583,-3.650523,1.470564,-1.265417,3.650523,-1.470564,-0.000004,-0.000021,0.000007,0.000000,0.000000,0.000000,-0.013090,-0.003833,0.091748
0.097000,0.307000,0.000000,0.367000,0.319688,0.063866,0.345417,0.319714,0.063868,0.345464,0.012688,0.063866,-0.021583,0.068598,-0.022888,0.063421,-0.026363,0.072395,4.147940,180.000000,-0.000000,0.000000,-178.734945,-3.650316,1.470735,-1.265055,3.650316,-1.470735,-0.000004,-0.000022,0.000008,0.000000,0.000000,0.000000,-0.045097,-0.003270,0.068317
0.098000,0.307000,0.000000,0.367000,0.319686,0.063866,0.345414,0.319714,0.063868,0.345464,0.012686,0.063866,-0.021586,0.068599,-0.022892,0.063415,-0.026357,0.072389,4.147584,180.000000,-0.000000,0.000000,-178.734720,-3.649969,1.470403,-1.265280,3.649969,-1.470403,-0.000005,-0.000023,0.000008,0.000000,0.000000,0.000000,0.002404,-0.014405,0.046857
0.099000,0.307000,0.000000,0.367000,0.319686,0.063865,0.345415,0.319714,0.063868,0.345464,0.012686,0.063865,-0.021585,0.068598,-0.022889,0.063417,-0.026354,0.072389,4.147610,180.000000,-0.000000,0.000000,-178.734864,-3.650110,1.470258,-1.265136,3.650110,-1.470258,-0.000005,-0.000024,0.000008,0.000000,0.000000,0.000000,0.008674,0.008566,0.035687
0.100000,0.307000,0.000000,0.367000,0.319687,0.063867,0.345415,0.319714,0.063868,0.345464,0.012687,0.063867,-0.021585,0.068599,-0.022888,0.063419,-0.026371,0.072397,4.148021,180.000000,-0.000000,0.000000,-178.734996,-3.650229,1.471210,-1.265004,3.650229,-1.471210,-0.000005,-0.000025,0.000008,0.000000,0.000000,0.000000,-0.006739,0.022419,-0.005482
0.101000,0.307000,0.000000,0.367000,0.319687,0.063867,0.345416,0.319714,0.063868,0.345464,0.012687,0.063867,-0.021584,0.068599,-0.022889,0.063419,-0.026361,0.072393,4.147814,180.000000,-0.000000,0.000000,-178.734915,-3.650206,1.470628,-1.265085,3.650206,-1.470628,-0.000005,-0.000026,0.000009,0.000000,0.000000,0.000000,0.018893,-0.010347,-0.039390
0.102000,0.307000,0.000000,0.367000,0.319687,0.063868,0.345417,0.319714,0.063868,0.345464,0.012687,0.063868,-0.021583,0.068600,-0.022891,0.063422,-0.026366,0.072398,4.148126,180.000000,-0.000000,0.000000,-178.734808,-3.650400,1.470924,-1.265192,3.650400,-1.470924,-0.000005,-0.000027,0.000009,0.000000,0.000000,0.000000,0.044023,-0.013091,-0.036734
0.103000,0.307000,0.000000,0.367000,0.319687,0.063866,0.345415,0.319714,0.063868,0.345464,0.012687,0.063866,-0.021585,0.068598,-0.022893,0.063417,-0.026361,0.072393,4.147818,180.000000,-0.000000,0.000000,-178.734652,-3.650120,1.470619,-1.265348,3.650120,-1.470619,-0.000006,-0.000028,0.000009,0.000000,0.000000,0.000000,0.043703,-0.024717,0.012289
0.104000,0.307000,0.000000,0.367000,0.319687,0.063866,0.345416,0.319714,0.063868,0.345464,0.012687,0.063866,-0.021584,0.068598,-0.022895,0.063418,-0.026365,0.072396,4.147973,180.000000,-0.000000,0.000000,-178.734573,-3.650176,1.470843,-1.265427,3.650176,-1.470843,-0.000006,-0.000029,0.000010,0.000000,0.000000,0.000000,0.018307,0.009174,-0.020040
0.105000,0.307000,0.000000,0.367000,0.319686,0.063867,0.345415,0.319714,0.063868,0.345464,0.012686,0.063867,-0.021585,0.068599,-0.022893,0.063417,-0.026360,0.072393,4.147805,180.000000,-0.000000,0.000000,-178.734652,-3.650120,1.470585,-1.265348,3.650120,-1.470585,-0.000006,-0.000030,0.000010,0.000000,0.000000,0.000000,-0.001204,0.053598,0.061338
0.106000,0.307000,0.000000,0.367000,0.319686,0.063868,0.345415,0.319714,0.063868,0.345464,0.012686,0.063868,-0.021585,0.068600,-0.022889,0.063418,-0.026368,0.072395,4.147902,180.000000,-0.000000,0.000000,-178.734942,-3.650137,1.471061,-1.265058,3.650137,-1.471061,-0.000006,-0.000031,0.000010,0.000000,0.000000,0.000000,0.005743,0.011812,-0.051363
0.107000,0.307000,0.000000,0.367000,0.319688,0.063866,0.345418,0.319714,0.063868,0.345464,0.012688,0.063866,-0.021582,0.068598,-0.022893,0.063422,-0.026363,0.072398,4.148098,180.000000,-0.000000,0.000000,-178.734666,-3.650393,1.470739,-1.265334,3.650393,-1.470739,-0.000006,-0.000032,0.000011,0.000000,0.000000,0.000000,0.001647,-0.022878,-0.007291
0.108000,0.307000,0.000000,0.367000,0.319686,0.063867,0.345415,0.319714,0.063868,0.345464,0.012686,0.063867,-0.021585,0.068599,-0.022890,0.063416,-0.026371,0.072394,4.147895,180.000000,-0.000000,0.000000,-178.734844,-3.650038,1.471197,-1.265156,3.650038,-1.471197,-0.000007,-0.000033,0.000011,0.000000,0.000000,0.000000,0.003082,-0.016388,-0.023669
0.109000,0.307000,0.000000,0.367000,0.319686,0.063866,0.345414,0.319714,0.063868,0.345464,0.012686,0.063866,-0.021586,0.068599,-0.022891,0.063414,-0.026358,0.072388,4.147555,180.000000,-0.000000,0.000000,-178.734794,-3.649932,1.470478,-1.265206,3.649932,-1.470478,-0.000007,-0.000034,0.000012,0.000000,0.000000,0.000000,-0.041938,0.005225,-0.039042
0.110000,0.307000,0.000000,0.367000,0.319687,0.063866,0.345415,0.319714,0.063868,0.345464,0.012687,0.063866,-0.021585,0.068598,-0.022892,0.063415,-0.026361,0.072390,4.147668,180.000000,-0.000000,0.000000,-178.734749,-3.649988,1.470615,-1.265251,3.649988,-1.470615,-0.000007,-0.000035,0.000012,0.000000,0.000000,0.000000,-0.029643,0.047220,-0.063776
0.111000,0.307000,0.000000,0.367000,0.319687,0.063866,0.345415,0.319714,0.063868,0.345464,0.012687,0.063866,-0.021585,0.068598,-0.022896,0.063418,-0.026364,0.072395,4.147928,180.000000,-0.000000,0.000000,-178.734528,-3.650140,1.470767,-1.265472,3.650140,-1.470767,-0.000007,-0.000037,0.000012,0.000000,0.000000,0.000000,0.008622,0.016595,-0.048293
0.112000,0.307000,0.000000,0.367000,0.319686,0.063867,0.345414,0.319714,0.063868,0.345464,0.012686,0.063867,-0.021586,0.068599,-0.022891,0.063419,-0.026360,0.072393,4.147831,180.000000,-0.000000,0.000000,-178.734776,-3.650193,1.470586,-1.265224,3.650193,-1.470586,-0.000008,-0.000038,0.000013,0.000000,0.000000,0.000000,0.003359,0.026878,-0.027707
0.113000,0.307000,0.000000,0.367000,0.319688,0.063868,0.345417,0.319714,0.063868,0.345464,0.012688,0.063868,-0.021583,0.068599,-0.022889,0.063420,-0.026364,0.072395,4.147954,180.000000,-0.000000,0.000000,-178.734916,-3.650295,1.470800,-1.265084,3.650295,-1.470800,-0.000008,-0.000039,0.000013,0.000000,0.000000,0.000000,0.015311,0.020571,-0.002327
0.114000,0.307000,0.000000,0.367000,0.319686,0.063867,0.345414,0.319714,0.063868,0.345464,0.012686,0.063867,-0.021586,0.068599,-0.022889,0.063418,-0.026362,0.072392,4.147770,180.000000,-0.000000,0.000000,-178.734898,-3.650134,1.470668,-1.265102,3.650134,-1.470668,-0.000008,-0.000040,0.000014,0.000000,0.000000,0.000000,-0.004401,-0.048228,-0.007706
0.115000,0.307000,0.000000,0.367000,0.319687,0.063865,0.345415,0.319714,0.063868,0.345464,0.012687,0.063865,-0.021585,0.068598,-0.022889,0.063418,-0.026364,0.072394,4.147862,180.000000,-0.000000,0.000000,-178.734908,-3.650175,1.470828,-1.265092,3.650175,-1.470828,-0.000008,-0.000042,0.000014,0.000000,0.000000,0.000000,-0.014009,-0.003800,-0.015194
0.116000,0.307000,0.000000,0.367000,0.319686,0.063866,0.345413,0.319714,0.063868,0.345464,0.012686,0.063866,-0.021587,0.068599,-0.022892,0.063410,-0.026356,0.072384,4.147317,180.000000,-0.000000,0.000000,-178.734721,-3.649700,1.470324,-1.265279,3.649700,-1.470324,-0.000009,-0.000043,0.000014,0.000000,0.000000,0.000000,0.008440,0.015112,0.019231
0.117000,0.307000,0.000000,0.367000,0.319688,0.063867,0.345416,0.319714,0.063867,0.345464,0.012688,0.063867,-0.021584,0.068599,-0.022894,0.063418,-0.026355,0.072392,4.147732,180.000000,-0.000000,0.000000,-178.734595,-3.650136,1.470295,-1.265405,3.650136,-1.470295,-0.000009,-0.000044,0.000015,0.000000,0.000000,0.000000,0.013657,-0.019654,0.013084
0.118000,0.307000,0.000000,0.367000,0.319687,0.063864,0.345414,0.319714,0.063867,0.345464,0.012687,0.063864,-0.021586,0.068597,-0.022892,0.063416,-0.026354,0.072389,4.147579,180.000000,-0.000000,0.000000,-178.734709,-3.650027,1.470238,-1.265291,3.650027,-1.470238,-0.000009,-0.000046,0.000015,0.000000,0.000000,0.000000,-0.017570,-0.006008,0.076247
0.119000,0.307000,0.000000,0.367000,0.319687,0.063867,0.345416,0.319714,0.063867,0.345464,0.012687,0.063867,-0.021584,0.068599,-0.022892,0.063421,-0.026366,0.072397,4.148069,180.000000,-0.000000,0.000000,-178.734722,-3.650311,1.470907,-1.265278,3.650311,-1.470907,-0.000009,-0.000047,0.000016,0.000000,0.000000,0.000000,0.000851,0.006390,0.024188
0.120000,0.307000,0.000000,0.367000,0.319687,0.063865,0.345415,0.319714,0.063867,0.345464,0.012687,0.063865,-0.021585,0.068598,-0.022891,0.063420,-0.026352,0.072392,4.147737,180.000000,-0.000000,0.000000,-178.734776,-3.650276,1.470127,-1.265224,3.650276,-1.470127,-0.000010,-0.000049,0.000016,0.000000,0.000000,0.000000,-0.016923,-0.011918,0.013747
0.121000,0.307000,0.000000,0.367000,0.319687,0.063866,0.345415,0.319714,0.063867,0.345465,0.012687,0.063866,-0.021585,0.068598,-0.022891,0.063419,-0.026354,0.072391,4.147693,180.000000,-0.000000,0.000000,-178.734776,-3.650194,1.470205,-1.265224,3.650194,-1.470205,-0.000010,-0.000050,0.000017,0.000000,0.000000,0.000000,-0.003513,0.014136,0.041119
0.122000,0.307000,0.000000,0.367000,0.319686,0.063868,0.345415,0.319713,0.063867,0.345465,0.012686,0.063868,-0.021585,0.068600,-0.022890,0.063422,-0.026366,0.072397,4.148066,180.000000,-0.000000,0.000000,-178.734864,-3.650362,1.470898,-1.265136,3.650362,-1.470898,-0.000010,-0.000052,0.000017,0.000000,0.000000,0.000000,0.021719,0.004031,0.036378
0.123000,0.307000,0.000000,0.367000,0.319687,0.063864,0.345416,0.319713,0.063867,0.345465,0.012687,0.063864,-0.021584,0.068597,-0.022894,0.063421,-0.026353,0.072394,4.147849,180.000000,-0.000000,0.000000,-178.734619,-3.650336,1.470151,-1.265381,3.650336,-1.470151,-0.000011,-0.000053,0.000018,0.000000,0.000000,0.000000,-0.006085,0.015443,-0.003701
0.124000,0.307000,0.000000,0.367000,0.319686,0.063867,0.345415,0.319713,0.063867,0.345465,0.012686,0.063867,-0.021585,0.068599,-0.022891,0.063415,-0.026355,0.072388,4.147525,180.000000,-0.000000,0.000000,-178.734788,-3.649983,1.470266,-1.265212,3.649983,-1.470266,-0.000011,-0.000055,0.000018,0.000000,0.000000,0.000000,0.029950,-0.001994,0.017917
0.125000,0.307000,0.000000,0.367000,0.319685,0.063869,0.345413,0.319713,0.063867,0.345465,0.012685,0.063869,-0.021587,0.068601,-0.022893,0.063413,-0.026364,0.072390,4.147660,180.000000,-0.000000,0.000000,-178.734657,-3.649879,1.470775,-1.265343,3.649879,-1.470775,-0.000011,-0.000056,0.000019,0.000000,0.000000,0.000000,-0.014271,-0.022582,0.017175
0.126000,0.307000,0.000000,0.367000,0.319686,0.063867,0.345413,0.319713,0.063867,0.345465,0.012686,0.063867,-0.021587,0.068600,-0.022896,0.063412,-0.026363,0.072390,4.147638,180.000000,-0.000000,0.000000,-178.734524,-3.649825,1.470730,-1.265476,3.649825,-1.470730,-0.000012,-0.000058,0.000020,0.000000,0.000000,0.000000,0.003760,-0.003152,-0.039666
0.127000,0.307000,0.000000,0.367000,0.319686,0.063866,0.345413,0.319713,0.063867,0.345465,0.012686,0.063866,-0.021587,0.068599,-0.022892,0.063414,-0.026352,0.072386,4.147435,180.000000,-0.000000,0.000000,-178.734689,-3.649920,1.470086,-1.265311,3.649920,-1.470086,-0.000012,-0.000060,0.000020,0.000000,0.000000,0.000000,-0.005123,-0.005879,-0.000767
0.128000,0.307000,0.000000,0.367000,0.319686,0.063866,0.345413,0.319713,0.063867,0.345465,0.012686,0.063866,-0.021587,0.068599,-0.022890,0.063415,-0.026357,0.072388,4.147537,180.000000,-0.000000,0.000000,-178.734855,-3.649974,1.470377,-1.265145,3.649974,-1.470377,-0.000012,-0.000061,0.000021,0.000000,0.000000,0.000000,-0.002238,0.005189,0.017774
0.129000,0.307000,0.000000,0.367000,0.319686,0.063868,0.345414,0.319713,0.063867,0.345465,0.012686,0.063868,-0.021586,0.068600,-0.022891,0.063418,-0.026366,0.072395,4.147934,180.000000,-0.000000,0.000000,-178.734797,-3.650180,1.470918,-1.265203,3.650180,-1.470918,-0.000013,-0.000063,0.000021,0.000000,0.000000,0.000000,-0.065693,-0.029985,0.053750
0.130000,0.307000,0.000000,0.367000,0.319686,0.063867,0.345413,0.319713,0.063867,0.345465,0.012686,0.063867,-0.021587,0.068600,-0.022895,0.063414,-0.026361,0.072391,4.147704,180.000000,-0.000000,0.000000,-178.734583,-3.649958,1.470641,-1.265417,3.649958,-1.470641,-0.000013,-0.000065,0.000022,0.000000,0.000000,0.000000,-0.032053,-0.002188,-0.015765
0.131000,0.307000,0.000000,0.367000,0.319685,0.063867,0.345412,0.319713,0.063867,0.345465,0.012685,0.063867,-0.021588,0.068600,-0.022892,0.063412,-0.026357,0.072386,4.147423,180.000000,-0.000000,0.000000,-178.734736,-3.649797,1.470393,-1.265264,3.649797,-1.470393,-0.000013,-0.000067,0.000022,0.000000,0.000000,0.000000,-0.020305,0.017090,-0.040448
0.132000,0.307000,0.000000,0.367000,0.319686,0.063866,0.345412,0.319713,0.063867,0.345465,0.012686,0.063866,-0.021588,0.068599,-0.022890,0.063412,-0.026359,0.072387,4.147458,180.000000,-0.000000,0.000000,-178.734826,-3.649824,1.470503,-1.265174,3.649824,-1.470503,-0.000014,-0.000068,0.000023,0.000000,0.000000,0.000000,0.017437,-0.006070,0.035513
0.133000,0.307000,0.000000,0.367000,0.319685,0.063867,0.345412,0.319713,0.063867,0.345465,0.012685,0.063867,-0.021588,0.068600,-0.022890,0.063411,-0.026366,0.072389,4.147558,180.000000,-0.000000,0.000000,-178.734849,-3.649771,1.470925,-1.265151,3.649771,-1.470925,-0.000014,-0.000070,0.000024,0.000000,0.000000,0.000000,0.010089,-0.002332,-0.012162
0.134000,0.307000,0.000000,0.367000,0.319685,0.063865,0.345410,0.319713,0.063866,0.345465,0.012685,0.063865,-0.021590,0.068598,-0.022890,0.063407,-0.026361,0.072383,4.147246,180.000000,-0.000000,0.000000,-178.734837,-3.649532,1.470637,-1.265163,3.649532,-1.470637,-0.000014,-0.000072,0.000024,0.000000,0.000000,0.000000,-0.000311,-0.009022,-0.026449
0.135000,0.307000,0.000000,0.367000,0.319685,0.063865,0.345411,0.319713,0.063866,0.345465,0.012685,0.063865,-0.021589,0.068599,-0.022888,0.063409,-0.026355,0.072382,4.147177,180.000000,-0.000000,0.000000,-178.734941,-3.649622,1.470320,-1.265059,3.649622,-1.470320,-0.000015,-0.000074,0.000025,0.000000,0.000000,0.000000,-0.012774,-0.008283,-0.023954
0.136000,0.307000,0.000000,0.367000,0.319684,0.063866,0.345410,0.319713,0.063866,0.345465,0.012684,0.063866,-0.021590,0.068600,-0.022894,0.063403,-0.026362,0.072381,4.147139,180.000000,-0.000000,0.000000,-178.734599,-3.649305,1.470689,-1.265401,3.649305,-1.470689,-0.000015,-0.000076,0.000026,0.000000,0.000000,0.000000,-0.031146,0.013141,0.026659
0.137000,0.307000,0.000000,0.367000,0.319683,0.063869,0.345408,0.319713,0.063866,0.345465,0.012683,0.063869,-0.021592,0.068602,-0.022888,0.063403,-0.026372,0.072383,4.147241,180.000000,-0.000000,0.000000,-178.734995,-3.649320,1.471275,-1.265005,3.649320,-1.471275,-0.000016,-0.000078,0.000026,0.000000,0.000000,0.000000,0.003951,0.026301,-0.003643
0.138000,0.307000,0.000000,0.367000,0.319683,0.063865,0.345410,0.319713,0.063866,0.345465,0.012683,0.063865,-0.021590,0.068599,-0.022894,0.063408,-0.026364,0.072387,4.147445,180.000000,-0.000000,0.000000,-178.734602,-3.649601,1.470812,-1.265398,3.649601,-1.470812,-0.000016,-0.000080,0.000027,0.000000,0.000000,0.000000,-0.013159,0.036298,-0.012383
0.139000,0.307000,0.000000,0.367000,0.319682,0.063866,0.345407,0.319713,0.063866,0.345465,0.012682,0.063866,-0.021593,0.068600,-0.022886,0.063400,-0.026358,0.072375,4.146777,180.000000,-0.000000,0.000000,-178.735043,-3.649149,1.470459,-1.264957,3.649149,-1.470459,-0.000016,-0.000082,0.000028,0.000000,0.000000,0.000000,-0.021954,0.009209,-0.035480
0.140000,0.307000,0.000000,0.367000,0.319682,0.063866,0.345407,0.319713,0.063866,0.345465,0.012682,0.063866,-0.021593,0.068601,-0.022889,0.063400,-0.026366,0.072379,4.147001,180.000000,-0.000000,0.000000,-178.734874,-3.649148,1.470929,-1.265126,3.649148,-1.470929,-0.000017,-0.000084,0.000028,0.000000,0.000000,0.000000,0.008445,0.011737,0.006206
0.141000,0.307000,0.000000,0.367000,0.319683,0.063867,0.345409,0.319713,0.063866,0.345465,0.012683,0.063867,-0.021591,0.068600,-0.022888,0.063405,-0.026367,0.072383,4.147213,180.000000,-0.000000,0.000000,-178.734963,-3.649407,1.470962,-1.265037,3.649407,-1.470962,-0.000017,-0.000087,0.000029,0.000000,0.000000,0.000000,-0.008303,-0.022924,0.059713
0.142000,0.307000,0.000000,0.367000,0.319683,0.063864,0.345408,0.319713,0.063866,0.345465,0.012683,0.063864,-0.021592,0.068598,-0.022890,0.063403,-0.026354,0.072377,4.146884,180.000000,-0.000000,0.000000,-178.734817,-3.649275,1.470250,-1.265183,3.649275,-1.470250,-0.000018,-0.000089,0.000030,0.000000,0.000000,0.000000,0.009397,-0.015062,0.035162
0.143000,0.307000,0.000000,0.367000,0.319684,0.063866,0.345409,0.319713,0.063866,0.345465,0.012684,0.063866,-0.021591,0.068599,-0.022887,0.063406,-0.026365,0.072382,4.147205,180.000000,-0.000000,0.000000,-178.735031,-3.649462,1.470863,-1.264969,3.649462,-1.470863,-0.000018,-0.000091,0.000031,0.000000,0.000000,0.000000,-0.007844,-0.015641,-0.020105
0.144000,0.307000,0.000000,0.367000,0.319683,0.063867,0.345410,0.319713,0.063866,0.345465,0.012683,0.063867,-0.021590,0.068600,-0.022888,0.063407,-0.026370,0.072386,4.147389,180.000000,-0.000000,0.000000,-178.734950,-3.649513,1.471175,-1.265050,3.649513,-1.471175,-0.000019,-0.000093,0.000031,0.000000,0.000000,0.000000,-0.032023,-0.023152,-0.012748
0.145000,0.307000,0.000000,0.367000,0.319683,0.063867,0.345408,0.319713,0.063866,0.345465,0.012683,0.063867,-0.021592,0.068600,-0.022890,0.063401,-0.026362,0.072378,4.146976,180.000000,-0.000000,0.000000,-178.734858,-3.649207,1.470705,-1.265142,3.649207,-1.470705,-0.000019,-0.000096,0.000032,0.000000,0.000000,0.000000,-0.030818,-0.017748,-0.031256
0.146000,0.307000,0.000000,0.367000,0.319683,0.063866,0.345408,0.319713,0.063865,0.345465,0.012683,0.063866,-0.021592,0.068600,-0.022890,0.063403,-0.026359,0.072378,4.146976,180.000000,-0.000000,0.000000,-178.734835,-3.649278,1.470510,-1.265165,3.649278,-1.470510,-0.000019,-0.000098,0.000033,0.000000,0.000000,0.000000,-0.021179,0.000218,-0.023804
0.147000,0.307000,0.000000,0.367000,0.319683,0.063867,0.345407,0.319713,0.063865,0.345465,0.012683,0.063867,-0.021593,0.068601,-0.022889,0.063401,-0.026365,0.072379,4.146984,180.000000,-0.000000,0.000000,-178.734885,-3.649164,1.470853,-1.265115,3.649164,-1.470853,-0.000020,-0.000100,0.000034,0.000000,0.000000,0.000000,0.001850,-0.018775,-0.000975
0.148000,0.307000,0.000000,0.367000,0.319683,0.063865,0.345408,0.319713,0.063865,0.345465,0.012683,0.063865,-0.021592,0.068598,-0.022886,0.063405,-0.026365,0.072381,4.147119,180.000000,-0.000000,0.000000,-178.735095,-3.649394,1.470848,-1.264905,3.649394,-1.470848,-0.000020,-0.000103,0.000035,0.000000,0.000000,0.000000,0.022497,-0.026145,0.011902
0.149000,0.307000,0.000000,0.367000,0.319683,0.063866,0.345408,0.319713,0.063865,0.345465,0.012683,0.063866,-0.021592,0.068600,-0.022890,0.063399,-0.026362,0.072377,4.146868,180.000000,-0.000000,0.000000,-178.734846,-3.649080,1.470704,-1.265154,3.649080,-1.470704,-0.000021,-0.000105,0.000035,0.000000,0.000000,0.000000,-0.027195,0.016819,0.002356
0.150000,0.307000,0.000000,0.367000,0.319683,0.063868,0.345407,0.319713,0.063865,0.345465,0.012683,0.063868,-0.021593,0.068602,-0.022891,0.063399,-0.026360,0.072376,4.146853,180.000000,-0.000000,0.000000,-178.734747,-3.649081,1.470573,-1.265253,3.649081,-1.470573,-0.000021,-0.000108,0.000036,0.000000,0.000000,0.000000,-0.034843,-0.004303,-0.023609
0.151000,0.307000,0.000000,0.367000,0.319683,0.063866,0.345410,0.319713,0.063865,0.345465,0.012683,0.063866,-0.021590,0.068600,-0.022890,0.063408,-0.026365,0.072385,4.147383,180.000000,-0.000000,0.000000,-178.734826,-3.649586,1.470874,-1.265174,3.649586,-1.470874,-0.000022,-0.000110,0.000037,0.000000,0.000000,0.000000,-0.051048,-0.063063,-0.008932
0.152000,0.307000,0.000000,0.367000,0.319682,0.063866,0.345408,0.319713,0.063865,0.345465,0.012682,0.063866,-0.021592,0.068600,-0.022887,0.063403,-0.026363,0.072379,4.147027,180.000000,-0.000000,0.000000,-178.734995,-3.649280,1.470785,-1.265005,3.649280,-1.470785,-0.000022,-0.000113,0.000038,0.000000,0.000000,0.000000,-0.027549,0.005133,-0.017490
0.153000,0.307000,0.000000,0.367000,0.319683,0.063865,0.345409,0.319713,0.063865,0.345465,0.012683,0.063865,-0.021591,0.068599,-0.022891,0.063406,-0.026359,0.072382,4.147162,180.000000,-0.000000,0.000000,-178.734805,-3.649475,1.470518,-1.265195,3.649475,-1.470518,-0.000023,-0.000116,0.000039,0.000000,0.000000,0.000000,-0.013722,0.014412,-0.018167
0.154000,0.307000,0.000000,0.367000,0.319682,0.063868,0.345408,0.319713,0.063865,0.345465,0.012682,0.063868,-0.021592,0.068601,-0.022889,0.063403,-0.026358,0.072378,4.146948,180.000000,-0.000000,0.000000,-178.734902,-3.649292,1.470458,-1.265098,3.649292,-1.470458,-0.000024,-0.000118,0.000040,0.000000,0.000000,0.000000,-0.021942,-0.012739,0.013432
0.155000,0.307000,0.000000,0.367000,0.319682,0.063865,0.345406,0.319713,0.063864,0.345465,0.012682,0.063865,-0.021594,0.068600,-0.022887,0.063400,-0.026367,0.072378,4.146972,180.000000,-0.000000,0.000000,-178.735022,-3.649145,1.470986,-1.264978,3.649145,-1.470986,-0.000024,-0.000121,0.000041,0.000000,0.000000,0.000000,-0.003516,0.004586,0.007797
0.156000,0.307000,0.000000,0.367000,0.319683,0.063869,0.345409,0.319713,0.063864,0.345466,0.012683,0.063869,-0.021591,0.068602,-0.022892,0.063405,-0.026370,0.072385,4.147349,180.000000,-0.000000,0.000000,-178.734751,-3.649410,1.471142,-1.265249,3.649410,-1.471142,-0.000025,-0.000124,0.000042,0.000000,0.000000,0.000000,0.016548,0.018894,0.006013
0.157000,0.307000,0.000000,0.367000,0.319682,0.063867,0.345406,0.319713,0.063864,0.345466,0.012682,0.063867,-0.021594,0.068601,-0.022886,0.063398,-0.026365,0.072375,4.146801,180.000000,-0.000000,0.000000,-178.735048,-3.649012,1.470861,-1.264952,3.649012,-1.470861,-0.000025,-0.000127,0.000043,0.000000,0.000000,0.000000,0.029181,0.009948,0.022982
0.158000,0.307000,0.000000,0.367000,0.319682,0.063868,0.345407,0.319713,0.063864,0.345466,0.012682,0.063868,-0.021593,0.068602,-0.022889,0.063402,-0.026359,0.072377,4.146913,180.000000,-0.000000,0.000000,-178.734891,-3.649229,1.470505,-1.265109,3.649229,-1.470505,-0.000026,-0.000129,0.000044,0.000000,0.000000,0.000000,-0.000670,0.014228,-0.014376
0.159000,0.307000,0.000000,0.367000,0.319683,0.063866,0.345408,0.319713,0.063864,0.345466,0.012683,0.063866,-0.021592,0.068600,-0.022889,0.063402,-0.026366,0.072380,4.147089,180.000000,-0.000000,0.000000,-178.734909,-3.649266,1.470916,-1.265091,3.649266,-1.470916,-0.000026,-0.000132,0.000045,0.000000,0.000000,0.000000,-0.006495,0.041438,0.033687
0.160000,0.307000,0.000000,0.367000,0.319683,0.063866,0.345409,0.319713,0.063864,0.345466,0.012683,0.063866,-0.021591,0.068599,-0.022891,0.063407,-0.026363,0.072384,4.147308,180.000000,-0.000000,0.000000,-178.734777,-3.649541,1.470733,-1.265223,3.649541,-1.470733,-0.000027,-0.000135,0.000046,0.000000,0.000000,0.000000,-0.032771,0.013662,0.027159
0.161000,0.307000,0.000000,0.367000,0.319683,0.063865,0.345409,0.319713,0.063864,0.345466,0.012683,0.063865,-0.021591,0.068599,-0.022889,0.063407,-0.026357,0.072382,4.147154,180.000000,-0.000000,0.000000,-178.734867,-3.649539,1.470395,-1.265133,3.649539,-1.470395,-0.000028,-0.000138,0.000047,0.000000,0.000000,0.000000,-0.012029,0.004183,0.060857
0.162000,0.307000,0.000000,0.367000,0.319682,0.063867,0.345406,0.319713,0.063864,0.345466,0.012682,0.063867,-0.021594,0.068601,-0.022886,0.063399,-0.026359,0.072374,4.146730,180.000000,-0.000000,0.000000,-178.735073,-3.649082,1.470520,-1.264927,3.649082,-1.470520,-0.000028,-0.000141,0.000048,0.000000,0.000000,0.000000,-0.007521,0.023510,0.024305
0.163000,0.307000,0.000000,0.367000,0.319682,0.063868,0.345406,0.319713,0.063863,0.345466,0.012682,0.063868,-0.021594,0.068602,-0.022883,0.063401,-0.026378,0.072382,4.147163,180.000000,-0.000000,0.000000,-178.735296,-3.649182,1.471657,-1.264704,3.649182,-1.471657,-0.000029,-0.000144,0.000049,0.000000,0.000000,0.000000,-0.007580,-0.016477,0.009147
0.164000,0.307000,0.000000,0.367000,0.319683,0.063865,0.345407,0.319713,0.063863,0.345466,0.012683,0.063865,-0.021593,0.068599,-0.022886,0.063403,-0.026356,0.072376,4.146843,180.000000,-0.000000,0.000000,-178.735032,-3.649271,1.470333,-1.264968,3.649271,-1.470333,-0.000029,-0.000147,0.000050,0.000000,0.000000,0.000000,-0.000105,-0.035156,0.029559
0.165000,0.307000,0.000000,0.367000,0.319682,0.063867,0.345407,0.319713,0.063863,0.345466,0.012682,0.063867,-0.021593,0.068601,-0.022890,0.063401,-0.026357,0.072377,4.146875,180.000000,-0.000000,0.000000,-178.734823,-3.649202,1.470406,-1.265177,3.649202,-1.470406,-0.000030,-0.000150,0.000051,0.000000,0.000000,0.000000,0.003655,0.019282,-0.004036
0.166000,0.307000,0.000000,0.367000,0.319683,0.063866,0.345408,0.319713,0.063863,0.345466,0.012683,0.063866,-0.021592,0.068600,-0.022892,0.063403,-0.026356,0.072378,4.146949,180.000000,-0.000000,0.000000,-178.734722,-3.649283,1.470327,-1.265278,3.649283,-1.470327,-0.000031,-0.000154,0.000052,0.000000,0.000000,0.000000,0.031936,0.034126,-0.030838
0.167000,0.307000,0.000000,0.367000,0.319683,0.063866,0.345408,0.319713,0.063863,0.345466,0.012683,0.063866,-0.021592,0.068600,-0.022891,0.063402,-0.026359,0.072378,4.146980,180.000000,-0.000000,0.000000,-178.734800,-3.649259,1.470536,-1.265200,3.649259,-1.470536,-0.000031,-0.000157,0.000053,0.000000,0.000000,0.000000,0.005415,-0.010013,-0.013273
0.168000,0.307000,0.000000,0.367000,0.319683,0.063867,0.345408,0.319713,0.063863,0.345466,0.012683,0.063867,-0.021592,0.068601,-0.022890,0.063403,-0.026357,0.072378,4.146981,180.000000,-0.000000,0.000000,-178.734806,-3.649311,1.470421,-1.265194,3.649311,-1.470421,-0.000032,-0.000160,0.000054,0.000000,0.000000,0.000000,-0.013498,-0.038848,0.007225
0.169000,0.307000,0.000000,0.367000,0.319683,0.063867,0.345409,0.319713,0.063862,0.345466,0.012683,0.063867,-0.021591,0.068601,-0.022885,0.063408,-0.026360,0.072382,4.147179,180.000000,-0.000000,0.000000,-178.735108,-3.649563,1.470613,-1.264892,3.649563,-1.470613,-0.000033,-0.000164,0.000055,0.000000,0.000000,0.000000,-0.006444,0.001745,-0.028545
