t,target_x,target_y,target_z,actual_x,actual_y,actual_z,inner_x,inner_y,inner_z,position_error_x,position_error_y,position_error_z,position_error_norm,orientation_error_x,orientation_error_y,orientation_error_z,orientation_error_norm_rad,orientation_error_norm_deg,target_roll_deg,target_pitch_deg,target_yaw_deg,actual_roll_deg,actual_pitch_deg,actual_yaw_deg,error_roll_deg,error_pitch_deg,error_yaw_deg,inner_vx,inner_vy,inner_vz,filtered_fx,filtered_fy,filtered_fz,masked_fx,masked_fy,masked_fz
0.000000,0.307000,0.000000,0.367000,0.499437,-0.000121,0.281283,0.499437,-0.000121,0.281283,0.192437,-0.000121,-0.085717,0.210664,0.001225,-0.001168,0.785013,0.785015,44.978062,180.000000,-0.000000,0.000000,179.911866,0.034084,-44.977994,0.088134,-0.034084,44.977994,0.000000,0.000000,0.000000,0.000000,0.000000,0.000000,0.000000,0.000000,0.000000
0.001000,0.307000,0.000000,0.367000,0.499438,-0.000122,0.281286,0.499437,-0.000121,0.281283,0.192438,-0.000122,-0.085714,0.210664,0.001221,-0.001161,0.785013,0.785015,44.978051,180.000000,-0.000000,0.000000,179.912216,0.033804,-44.977984,0.087784,-0.033804,44.977984,0.000000,0.000000,0.000000,0.000000,0.000000,0.000000,-0.001891,-0.000681,-0.023025
0.002000,0.307000,0.000000,0.367000,0.499437,-0.000122,0.281283,0.499437,-0.000121,0.281283,0.192437,-0.000122,-0.085717,0.210664,0.001224,-0.001165,0.785016,0.785018,44.978216,180.000000,-0.000000,0.000000,179.911946,0.033971,-44.978148,0.088054,-0.033971,44.978148,-0.000000,0.000000,0.000000,0.000000,0.000000,0.000000,-0.008530,-0.008405,-0.003651
0.003000,0.307000,0.000000,0.367000,0.499437,-0.000122,0.281285,0.499437,-0.000121,0.281283,0.192437,-0.000122,-0.085715,0.210664,0.001224,-0.001164,0.785020,0.785021,44.978417,180.000000,-0.000000,0.000000,179.912021,0.033911,-44.978349,0.087979,-0.033911,44.978349,-0.000000,0.000000,0.000000,0.000000,0.000000,0.000000,-0.018329,-0.022169,-0.015891
0.004000,0.307000,0.000000,0.367000,0.499436,-0.000121,0.281282,0.499437,-0.000121,0.281283,0.192436,-0.000121,-0.085718,0.210664,0.001226,-0.001168,0.785017,0.785019,44.978269,180.000000,-0.000000,0.000000,179.911806,0.034064,-44.978201,0.088194,-0.034064,44.978201,-0.000000,0.000000,0.000000,0.000000,0.000000,0.000000,-0.024813,-0.007812,0.026865
0.005000,0.307000,0.000000,0.367000,0.499436,-0.000122,0.281282,0.499437,-0.000121,0.281283,0.192436,-0.000122,-0.085718,0.210663,0.001221,-0.001169,0.785020,0.785022,44.978432,180.000000,-0.000000,0.000000,179.912022,0.034238,-44.978363,0.087978,-0.034238,44.978363,-0.000000,0.000000,0.000000,0.000000,0.000000,0.000000,-0.037540,-0.001344,-0.007884
0.006000,0.307000,0.000000,0.367000,0.499436,-0.000122,0.281281,0.499437,-0.000121,0.281283,0.192436,-0.000122,-0.085719,0.210664,0.001224,-0.001174,0.785027,0.785029,44.978826,180.000000,-0.000000,0.000000,179.911808,0.034408,-44.978759,0.088192,-0.034408,44.978759,-0.000000,0.000000,0.000000,0.000000,0.000000,0.000000,-0.038292,0.016349,0.060218
0.007000,0.307000,0.000000,0.367000,0.499435,-0.000121,0.281281,0.499437,-0.000121,0.281283,0.192435,-0.000121,-0.085719,0.210663,0.001222,-0.001172,0.785023,0.785025,44.978615,180.000000,-0.000000,0.000000,179.911913,0.034374,-44.978547,0.088087,-0.034374,44.978547,-0.000000,0.000000,0.000000,0.000000,0.000000,0.000000,-0.048630,0.019599,0.000374
0.008000,0.307000,0.000000,0.367000,0.499433,-0.000122,0.281279,0.499437,-0.000121,0.281283,0.192433,-0.000122,-0.085721,0.210662,0.001228,-0.001175,0.785011,0.785013,44.977908,180.000000,-0.000000,0.000000,179.911553,0.034391,-44.977839,0.088447,-0.034391,44.977839,-0.000000,0.000000,0.000000,0.000000,0.000000,0.000000,-0.039880,0.002931,0.055628
0.009000,0.307000,0.000000,0.367000,0.499431,-0.000122,0.281277,0.499437,-0.000121,0.281283,0.192431,-0.000122,-0.085723,0.210661,0.001234,-0.001179,0.785004,0.785006,44.977511,180.000000,-0.000000,0.000000,179.911162,0.034487,-44.977443,0.088838,-0.034487,44.977443,-0.000000,0.000000,0.000000,0.000000,0.000000,0.000000,-0.008927,0.019869,0.032284
0.010000,0.307000,0.000000,0.367000,0.499429,-0.000123,0.281274,0.499437,-0.000121,0.281283,0.192429,-0.000123,-0.085726,0.210660,0.001236,-0.001183,0.785009,0.785011,44.977829,180.000000,-0.000000,0.000000,179.910943,0.034634,-44.977759,0.089057,-0.034634,44.977759,-0.000000,0.000000,0.000000,0.000000,0.000000,0.000000,0.008457,0.005816,0.033569
0.011000,0.307000,0.000000,0.367000,0.499426,-0.000123,0.281273,0.499437,-0.000121,0.281283,0.192426,-0.000123,-0.085727,0.210659,0.001241,-0.001187,0.785005,0.785007,44.977562,180.000000,-0.000000,0.000000,179.910621,0.034730,-44.977494,0.089379,-0.034730,44.977494,-0.000000,0.000000,0.000000,0.000000,0.000000,0.000000,0.007785,-0.008964,-0.014660
0.012000,0.307000,0.000000,0.367000,0.499427,-0.000122,0.281273,0.499437,-0.000121,0.281283,0.192427,-0.000122,-0.085727,0.210660,0.001242,-0.001186,0.785001,0.785003,44.977375,180.000000,-0.000000,0.000000,179.910618,0.034649,-44.977305,0.089382,-0.034649,44.977305,-0.000000,0.000000,0.000000,0.000000,0.000000,0.000000,-0.001199,0.037423,-0.005633
0.013000,0.307000,0.000000,0.367000,0.499427,-0.000123,0.281271,0.499437,-0.000121,0.281283,0.192427,-0.000123,-0.085729,0.210660,0.001244,-0.001185,0.785004,0.785005,44.977500,180.000000,-0.000000,0.000000,179.910512,0.034589,-44.977431,0.089488,-0.034589,44.977431,-0.000000,0.000000,0.000000,0.000000,0.000000,0.000000,0.023255,-0.023927,-0.074737
0.014000,0.307000,0.000000,0.367000,0.499427,-0.000121,0.281272,0.499437,-0.000121,0.281283,0.192427,-0.000121,-0.085728,0.210659,0.001244,-0.001187,0.784992,0.784994,44.976848,180.000000,-0.000000,0.000000,179.910468,0.034662,-44.976779,0.089532,-0.034662,44.976779,-0.000000,0.000000,0.000000,0.000000,0.000000,0.000000,0.019662,-0.023509,-0.011511
0.015000,0.307000,0.000000,0.367000,0.499426,-0.000122,0.281271,0.499437,-0.000121,0.281283,0.192426,-0.000122,-0.085729,0.210659,0.001244,-0.001188,0.784992,0.784994,44.976824,180.000000,-0.000000,0.000000,179.910453,0.034695,-44.976755,0.089547,-0.034695,44.976755,-0.000000,0.000000,0.000000,0.000000,0.000000,0.000000,0.020610,-0.021296,-0.005969
0.016000,0.307000,0.000000,0.367000,0.499424,-0.000125,0.281269,0.499437,-0.000121,0.281283,0.192424,-0.000125,-0.085731,0.210658,0.001246,-0.001193,0.785003,0.785005,44.977459,180.000000,-0.000000,0.000000,179.910219,0.034932,-44.977387,0.089781,-0.034932,44.977387,-0.000001,0.000000,0.000000,0.000000,0.000000,0.000000,0.020939,-0.005954,-0.026612
0.017000,0.307000,0.000000,0.367000,0.499423,-0.000124,0.281270,0.499437,-0.000121,0.281283,0.192423,-0.000124,-0.085730,0.210657,0.001248,-0.001192,0.784997,0.784999,44.977139,180.000000,-0.000000,0.000000,179.910136,0.034827,-44.977069,0.089864,-0.034827,44.977069,-0.000001,0.000000,0.000000,0.000000,0.000000,0.000000,0.027147,-0.021035,0.013917
0.018000,0.307000,0.000000,0.367000,0.499420,-0.000125,0.281265,0.499437,-0.000121,0.281283,0.192420,-0.000125,-0.085735,0.210656,0.001251,-0.001203,0.785000,0.785002,44.977304,180.000000,-0.000000,0.000000,179.909770,0.035349,-44.977233,0.090230,-0.035349,44.977233,-0.000001,0.000000,0.000000,0.000000,0.000000,0.000000,0.019848,-0.012432,0.029392
0.019000,0.307000,0.000000,0.367000,0.499420,-0.000124,0.281266,0.499437,-0.000121,0.281283,0.192420,-0.000124,-0.085734,0.210655,0.001254,-0.001201,0.785001,0.785003,44.977367,180.000000,-0.000000,0.000000,179.909654,0.035162,-44.977296,0.090346,-0.035162,44.977296,-0.000001,0.000000,0.000000,0.000000,0.000000,0.000000,0.034177,0.003674,-0.013089
0.020000,0.307000,0.000000,0.367000,0.499416,-0.000125,0.281260,0.499437,-0.000121,0.281283,0.192416,-0.000125,-0.085740,0.210655,0.001261,-0.001211,0.784996,0.784998,44.977091,180.000000,-0.000000,0.000000,179.909078,0.035522,-44.977020,0.090922,-0.035522,44.977020,-0.000001,0.000000,0.000001,0.000000,0.000000,0.000000,0.024888,0.031226,-0.041128
0.021000,0.307000,0.000000,0.367000,0.499415,-0.000125,0.281260,0.499437,-0.000121,0.281283,0.192415,-0.000125,-0.085740,0.210654,0.001262,-0.001210,0.785001,0.785002,44.977330,180.000000,-0.000000,0.000000,179.909037,0.035470,-44.977257,0.090963,-0.035470,44.977257,-0.000002,0.000000,0.000001,0.000000,0.000000,0.000000,0.019843,0.023623,-0.033004
0.022000,0.307000,0.000000,0.367000,0.499413,-0.000125,0.281257,0.499437,-0.000121,0.281283,0.192413,-0.000125,-0.085743,0.210653,0.001266,-0.001216,0.785000,0.785002,44.977320,180.000000,-0.000000,0.000000,179.908686,0.035712,-44.977247,0.091314,-0.035712,44.977247,-0.000002,0.000000,0.000001,0.000000,0.000000,0.000000,-0.028479,-0.013197,-0.066789
0.023000,0.307000,0.000000,0.367000,0.499410,-0.000125,0.281254,0.499437,-0.000121,0.281283,0.192410,-0.000125,-0.085746,0.210652,0.001272,-0.001227,0.784998,0.785000,44.977196,180.000000,-0.000000,0.000000,179.908144,0.036131,-44.977124,0.091856,-0.036131,44.977124,-0.000002,0.000000,0.000001,0.000000,0.000000,0.000000,0.007813,-0.028878,-0.035350
0.024000,0.307000,0.000000,0.367000,0.499410,-0.000125,0.281256,0.499437,-0.000121,0.281283,0.192410,-0.000125,-0.085744,0.210650,0.001275,-0.001221,0.784986,0.784988,44.976472,180.000000,-0.000000,0.000000,179.908138,0.035775,-44.976397,0.091862,-0.035775,44.976397,-0.000003,0.000000,0.000001,0.000000,0.000000,0.000000,-0.010296,0.005766,0.033068
0.025000,0.307000,0.000000,0.367000,0.499408,-0.000125,0.281252,0.499437,-0.000121,0.281283,0.192408,-0.000125,-0.085748,0.210650,0.001279,-0.001228,0.784990,0.784992,44.976713,180.000000,-0.000000,0.000000,179.907760,0.036049,-44.976639,0.092240,-0.036049,44.976639,-0.000003,0.000000,0.000001,0.000000,0.000000,0.000000,0.006983,-0.012386,0.006189
0.026000,0.307000,0.000000,0.367000,0.499406,-0.000125,0.281250,0.499437,-0.000121,0.281283,0.192406,-0.000125,-0.085750,0.210649,0.001284,-0.001233,0.784990,0.784992,44.976721,180.000000,-0.000000,0.000000,179.907407,0.036207,-44.976646,0.092593,-0.036207,44.976646,-0.000004,0.000000,0.000002,0.000000,0.000000,0.000000,-0.000408,-0.011127,-0.040240
0.027000,0.307000,0.000000,0.367000,0.499404,-0.000128,0.281248,0.499436,-0.000121,0.281283,0.192404,-0.000128,-0.085752,0.210648,0.001287,-0.001239,0.784988,0.784990,44.976597,180.000000,-0.000000,0.000000,179.907159,0.036451,-44.976523,0.092841,-0.036451,44.976523,-0.000004,0.000000,0.000002,0.000000,0.000000,0.000000,0.007613,0.000185,-0.064699
0.028000,0.307000,0.000000,0.367000,0.499401,-0.000125,0.281245,0.499436,-0.000121,0.281283,0.192401,-0.000125,-0.085755,0.210647,0.001289,-0.001247,0.784985,0.784987,44.976452,180.000000,-0.000000,0.000000,179.906848,0.036813,-44.976376,0.093152,-0.036813,44.976376,-0.000005,0.000000,0.000002,0.000000,0.000000,0.000000,-0.051196,0.004455,-0.053335
0.029000,0.307000,0.000000,0.367000,0.499400,-0.000129,0.281243,0.499436,-0.000121,0.281283,0.192400,-0.000129,-0.085757,0.210647,0.001294,-0.001250,0.784989,0.784991,44.976651,180.000000,-0.000000,0.000000,179.906569,0.036864,-44.976574,0.093431,-0.036864,44.976574,-0.000005,0.000000,0.000002,0.000000,0.000000,0.000000,0.011091,0.010101,-0.084158
0.030000,0.307000,0.000000,0.367000,0.499398,-0.000126,0.281240,0.499436,-0.000121,0.281283,0.192398,-0.000126,-0.085760,0.210646,0.001297,-0.001253,0.784975,0.784977,44.975868,180.000000,-0.000000,0.000000,179.906323,0.036939,-44.975791,0.093677,-0.036939,44.975791,-0.000006,0.000000,0.000003,0.000000,0.000000,0.000000,0.014837,-0.050666,-0.041827
0.031000,0.307000,0.000000,0.367000,0.499395,-0.000126,0.281238,0.499436,-0.000121,0.281283,0.192395,-0.000126,-0.085762,0.210644,0.001301,-0.001258,0.784972,0.784974,44.975716,180.000000,-0.000000,0.000000,179.905988,0.037118,-44.975639,0.094012,-0.037118,44.975639,-0.000007,0.000000,0.000003,0.000000,0.000000,0.000000,-0.020181,-0.006522,-0.018611
0.032000,0.307000,0.000000,0.367000,0.499394,-0.000127,0.281237,0.499436,-0.000121,0.281283,0.192394,-0.000127,-0.085763,0.210644,0.001306,-0.001260,0.784970,0.784972,44.975579,180.000000,-0.000000,0.000000,179.905706,0.037134,-44.975501,0.094294,-0.037134,44.975501,-0.000008,0.000000,0.000003,0.000000,0.000000,0.000000,0.017693,-0.000193,-0.030874
0.033000,0.307000,0.000000,0.367000,0.499391,-0.000129,0.281233,0.499436,-0.000121,0.281283,0.192391,-0.000129,-0.085767,0.210643,0.001307,-0.001267,0.784973,0.784975,44.975768,180.000000,-0.000000,0.000000,179.905530,0.037450,-44.975690,0.094470,-0.037450,44.975690,-0.000009,0.000000,0.000004,0.000000,0.000000,0.000000,-0.040364,-0.013160,-0.007929
0.034000,0.307000,0.000000,0.367000,0.499391,-0.000130,0.281233,0.499436,-0.000121,0.281283,0.192391,-0.000130,-0.085767,0.210643,0.001309,-0.001269,0.784971,0.784973,44.975654,180.000000,-0.000000,0.000000,179.905385,0.037500,-44.975576,0.094615,-0.037500,44.975576,-0.000010,0.000000,0.000004,0.000000,0.000000,0.000000,-0.027449,0.013920,-0.013402
0.035000,0.307000,0.000000,0.367000,0.499387,-0.000127,0.281228,0.499436,-0.000121,0.281283,0.192387,-0.000127,-0.085772,0.210641,0.001315,-0.001280,0.784967,0.784969,44.975431,180.000000,-0.000000,0.000000,179.904842,0.037950,-44.975352,0.095158,-0.037950,44.975352,-0.000011,0.000000,0.000005,0.000000,0.000000,0.000000,-0.026393,0.000956,0.024117
0.036000,0.307000,0.000000,0.367000,0.499386,-0.000127,0.281226,0.499436,-0.000121,0.281283,0.192386,-0.000127,-0.085774,0.210641,0.001315,-0.001281,0.784967,0.784969,44.975426,180.000000,-0.000000,0.000000,179.904788,0.038028,-44.975347,0.095212,-0.038028,44.975347,-0.000012,0.000000,0.000005,0.000000,0.000000,0.000000,-0.036269,-0.006899,0.020984
0.037000,0.307000,0.000000,0.367000,0.499385,-0.000128,0.281225,0.499436,-0.000121,0.281283,0.192385,-0.000128,-0.085775,0.210640,0.001318,-0.001284,0.784967,0.784969,44.975431,180.000000,-0.000000,0.000000,179.904597,0.038071,-44.975352,0.095403,-0.038071,44.975352,-0.000013,0.000000,0.000006,0.000000,0.000000,0.000000,0.001679,-0.022526,-0.010178
0.038000,0.307000,0.000000,0.367000,0.499383,-0.000129,0.281220,0.499436,-0.000121,0.281283,0.192383,-0.000129,-0.085780,0.210640,0.001325,-0.001293,0.784971,0.784973,44.975634,180.000000,-0.000000,0.000000,179.904045,0.038389,-44.975555,0.095955,-0.038389,44.975555,-0.000015,0.000000,0.000007,0.000000,0.000000,0.000000,-0.019017,-0.029959,0.021952
0.039000,0.307000,0.000000,0.367000,0.499381,-0.000129,0.281220,0.499436,-0.000121,0.281283,0.192381,-0.000129,-0.085780,0.210638,0.001328,-0.001293,0.784966,0.784968,44.975366,180.000000,-0.000000,0.000000,179.903861,0.038344,-44.975284,0.096139,-0.038344,44.975284,-0.000016,0.000000,0.000007,0.000000,0.000000,0.000000,0.006933,0.018470,-0.000634
0.040000,0.307000,0.000000,0.367000,0.499379,-0.000129,0.281217,0.499436,-0.000121,0.281283,0.192379,-0.000129,-0.085783,0.210638,0.001331,-0.001298,0.784962,0.784964,44.975146,180.000000,-0.000000,0.000000,179.903618,0.038571,-44.975064,0.096382,-0.038571,44.975064,-0.000018,0.000000,0.000008,0.000000,0.000000,0.000000,0.038096,0.017845,0.012744
0.041000,0.307000,0.000000,0.367000,0.499378,-0.000127,0.281217,0.499436,-0.000121,0.281283,0.192378,-0.000127,-0.085783,0.210637,0.001332,-0.001298,0.784963,0.784966,44.975212,180.000000,-0.000000,0.000000,179.903590,0.038514,-44.975130,0.096410,-0.038514,44.975130,-0.000020,0.000000,0.000009,0.000000,0.000000,0.000000,0.030853,0.022339,0.013175
0.042000,0.307000,0.000000,0.367000,0.499377,-0.000129,0.281215,0.499436,-0.000121,0.281283,0.192377,-0.000129,-0.085785,0.210637,0.001335,-0.001301,0.784966,0.784968,44.975376,180.000000,-0.000000,0.000000,179.903324,0.038620,-44.975294,0.096676,-0.038620,44.975294,-0.000022,0.000000,0.000010,0.000000,0.000000,0.000000,0.036385,0.005980,0.009980
0.043000,0.307000,0.000000,0.367000,0.499372,-0.000128,0.281208,0.499436,-0.000121,0.281283,0.192372,-0.000128,-0.085792,0.210635,0.001345,-0.001317,0.784954,0.784956,44.974693,180.000000,-0.000000,0.000000,179.902519,0.039205,-44.974610,0.097481,-0.039205,44.974610,-0.000023,0.000000,0.000010,0.000000,0.000000,0.000000,0.020202,0.004939,0.018637
0.044000,0.307000,0.000000,0.367000,0.499370,-0.000131,0.281208,0.499436,-0.000121,0.281283,0.192370,-0.000131,-0.085792,0.210634,0.001345,-0.001317,0.784965,0.784967,44.975325,180.000000,-0.000000,0.000000,179.902455,0.039224,-44.975241,0.097545,-0.039224,44.975241,-0.000025,0.000000,0.000011,0.000000,0.000000,0.000000,0.021686,-0.004305,0.007601
0.045000,0.307000,0.000000,0.367000,0.499367,-0.000130,0.281206,0.499436,-0.000121,0.281283,0.192367,-0.000130,-0.085794,0.210632,0.001350,-0.001322,0.784965,0.784968,44.975331,180.000000,-0.000000,0.000000,179.902140,0.039392,-44.975248,0.097860,-0.039392,44.975248,-0.000028,0.000000,0.000012,0.000000,0.000000,0.000000,0.007680,-0.015302,-0.048989
0.046000,0.307000,0.000000,0.367000,0.499367,-0.000133,0.281202,0.499436,-0.000121,0.281283,0.192367,-0.000133,-0.085798,0.210633,0.001355,-0.001326,0.784961,0.784964,44.975103,180.000000,-0.000000,0.000000,179.901764,0.039488,-44.975019,0.098236,-0.039488,44.975019,-0.000030,0.000000,0.000013,0.000000,0.000000,0.000000,-0.017008,0.008790,0.016459
0.047000,0.307000,0.000000,0.367000,0.499364,-0.000132,0.281199,0.499436,-0.000121,0.281283,0.192364,-0.000132,-0.085801,0.210632,0.001362,-0.001333,0.784960,0.784963,44.975043,180.000000,-0.000000,0.000000,179.901238,0.039681,-44.974958,0.098762,-0.039681,44.974958,-0.000032,0.000000,0.000014,0.000000,0.000000,0.000000,-0.033601,0.027602,-0.018626
0.048000,0.307000,0.000000,0.367000,0.499364,-0.000133,0.281198,0.499436,-0.000121,0.281283,0.192364,-0.000133,-0.085802,0.210632,0.001366,-0.001333,0.784954,0.784956,44.974657,180.000000,-0.000000,0.000000,179.901045,0.039585,-44.974572,0.098955,-0.039585,44.974572,-0.000035,0.000000,0.000016,0.000000,0.000000,0.000000,-0.002658,0.026402,0.027601
0.049000,0.307000,0.000000,0.367000,0.499360,-0.000132,0.281196,0.499436,-0.000121,0.281283,0.192360,-0.000132,-0.085804,0.210629,0.001373,-0.001340,0.784943,0.784945,44.974031,180.000000,-0.000000,0.000000,179.900576,0.039808,-44.973944,0.099424,-0.039808,44.973944,-0.000038,0.000000,0.000017,0.000000,0.000000,0.000000,-0.034694,-0.000202,0.030581
0.050000,0.307000,0.000000,0.367000,0.499358,-0.000133,0.281194,0.499436,-0.000121,0.281283,0.192358,-0.000133,-0.085806,0.210629,0.001378,-0.001343,0.784939,0.784941,44.973814,180.000000,-0.000000,0.000000,179.900258,0.039846,-44.973727,0.099742,-0.039846,44.973727,-0.000040,0.000000,0.000018,0.000000,0.000000,0.000000,-0.005324,0.023286,-0.002345
0.051000,0.307000,0.000000,0.367000,0.499354,-0.000134,0.281189,0.499436,-0.000121,0.281283,0.192354,-0.000134,-0.085811,0.210627,0.001390,-0.001348,0.784933,0.784936,44.973510,180.000000,-0.000000,0.000000,179.899486,0.039861,-44.973422,0.100514,-0.039861,44.973422,-0.000043,0.000000,0.000019,0.000000,0.000000,0.000000,0.048224,-0.001974,-0.029244
0.052000,0.307000,0.000000,0.367000,0.499353,-0.000133,0.281186,0.499436,-0.000121,0.281283,0.192353,-0.000133,-0.085814,0.210627,0.001401,-0.001351,0.784923,0.784925,44.972913,180.000000,-0.000000,0.000000,179.898873,0.039804,-44.972823,0.101127,-0.039804,44.972823,-0.000046,0.000000,0.000021,0.000000,0.000000,0.000000,0.024161,0.009703,0.049317
0.053000,0.307000,0.000000,0.367000,0.499351,-0.000139,0.281187,0.499436,-0.000121,0.281283,0.192351,-0.000139,-0.085813,0.210625,0.001413,-0.001348,0.784918,0.784920,44.972625,180.000000,-0.000000,0.000000,179.898312,0.039378,-44.972534,0.101688,-0.039378,44.972534,-0.000050,0.000000,0.000022,0.000000,0.000000,0.000000,0.006731,0.007973,-0.055427
0.054000,0.307000,0.000000,0.367000,0.499348,-0.000139,0.281180,0.499436,-0.000121,0.281283,0.192348,-0.000139,-0.085820,0.210625,0.001432,-0.001354,0.784902,0.784904,44.971689,180.000000,-0.000000,0.000000,179.897204,0.039243,-44.971597,0.102796,-0.039243,44.971597,-0.000053,0.000000,0.000024,0.000000,0.000000,0.000000,-0.008658,0.010846,-0.016176
0.055000,0.307000,0.000000,0.367000,0.499345,-0.000143,0.281178,0.499436,-0.000121,0.281283,0.192345,-0.000143,-0.085822,0.210623,0.001451,-0.001354,0.784902,0.784905,44.971730,180.000000,-0.000000,0.000000,179.896241,0.038893,-44.971635,0.103759,-0.038893,44.971635,-0.000057,0.000000,0.000025,0.000000,0.000000,0.000000,-0.008921,0.013770,-0.039346
0.056000,0.307000,0.000000,0.367000,0.499344,-0.000148,0.281179,0.499436,-0.000121,0.281283,0.192344,-0.000148,-0.085821,0.210622,0.001468,-0.001346,0.784881,0.784884,44.970537,180.000000,-0.000000,0.000000,179.895524,0.038126,-44.970442,0.104476,-0.038126,44.970442,-0.000060,0.000000,0.000027,0.000000,0.000000,0.000000,-0.021024,0.005544,0.017352
0.057000,0.307000,0.000000,0.367000,0.499341,-0.000152,0.281175,0.499436,-0.000121,0.281283,0.192341,-0.000152,-0.085825,0.210621,0.001493,-0.001346,0.784868,0.784871,44.969783,180.000000,-0.000000,0.000000,179.894242,0.037565,-44.969684,0.105758,-0.037565,44.969684,-0.000064,0.000000,0.000029,0.000000,0.000000,0.000000,-0.003137,-0.003294,-0.034591
0.058000,0.307000,0.000000,0.367000,0.499339,-0.000154,0.281171,0.499436,-0.000121,0.281283,0.192339,-0.000154,-0.085829,0.210620,0.001516,-0.001344,0.784855,0.784858,44.969042,180.000000,-0.000000,0.000000,179.893089,0.036994,-44.968940,0.106911,-0.036994,44.968940,-0.000068,0.000000,0.000030,0.000000,0.000000,0.000000,-0.023134,0.017508,-0.001684
0.059000,0.307000,0.000000,0.367000,0.499339,-0.000159,0.281172,0.499436,-0.000121,0.281283,0.192339,-0.000159,-0.085828,0.210620,0.001539,-0.001334,0.784835,0.784838,44.967907,180.000000,-0.000000,0.000000,179.892109,0.035964,-44.967805,0.107891,-0.035964,44.967805,-0.000073,0.000000,0.000032,0.000000,0.000000,0.000000,0.028369,0.012878,-0.004622
0.060000,0.307000,0.000000,0.367000,0.499335,-0.000164,0.281167,0.499435,-0.000121,0.281283,0.192335,-0.000164,-0.085833,0.210619,0.001564,-0.001334,0.784823,0.784826,44.967220,180.000000,-0.000000,0.000000,179.890818,0.035428,-44.967115,0.109182,-0.035428,44.967115,-0.000077,0.000000,0.000034,0.000000,0.000000,0.000000,0.049767,0.006523,-0.016019
0.061000,0.307000,0.000000,0.367000,0.499334,-0.000166,0.281166,0.499435,-0.000121,0.281283,0.192334,-0.000166,-0.085834,0.210618,0.001586,-0.001328,0.784811,0.784814,44.966535,180.000000,-0.000000,0.000000,179.889812,0.034652,-44.966429,0.110188,-0.034652,44.966429,-0.000082,0.000000,0.000036,0.000000,0.000000,0.000000,0.010740,0.030937,-0.035603
0.062000,0.307000,0.000000,0.367000,0.499332,-0.000168,0.281161,0.499435,-0.000121,0.281283,0.192332,-0.000168,-0.085839,0.210618,0.001608,-0.001329,0.784793,0.784795,44.965467,180.000000,-0.000000,0.000000,179.888673,0.034213,-44.965357,0.111327,-0.034213,44.965357,-0.000086,0.000000,0.000038,0.000000,0.000000,0.000000,0.024863,-0.024416,0.031610
0.063000,0.307000,0.000000,0.367000,0.499331,-0.000171,0.281164,0.499435,-0.000121,0.281283,0.192331,-0.000171,-0.085836,0.210616,0.001622,-0.001320,0.784779,0.784782,44.964706,180.000000,-0.000000,0.000000,179.888121,0.033474,-44.964594,0.111879,-0.033474,44.964594,-0.000091,0.000000,0.000041,0.000000,0.000000,0.000000,-0.016264,-0.029645,0.042814
0.064000,0.307000,0.000000,0.367000,0.499329,-0.000173,0.281158,0.499435,-0.000121,0.281283,0.192329,-0.000173,-0.085842,0.210616,0.001637,-0.001327,0.784778,0.784781,44.964629,180.000000,-0.000000,0.000000,179.887208,0.033540,-44.964516,0.112792,-0.033540,44.964516,-0.000096,0.000000,0.000043,0.000000,0.000000,0.000000,-0.014094,-0.013447,0.023494
0.065000,0.307000,0.000000,0.367000,0.499326,-0.000177,0.281157,0.499435,-0.000121,0.281283,0.192326,-0.000177,-0.085843,0.210614,0.001646,-0.001324,0.784776,0.784779,44.964534,180.000000,-0.000000,0.000000,179.886799,0.033144,-44.964420,0.113201,-0.033144,44.964420,-0.000102,0.000000,0.000045,0.000000,0.000000,0.000000,0.010160,0.010113,-0.024488
0.066000,0.307000,0.000000,0.367000,0.499325,-0.000178,0.281155,0.499435,-0.000121,0.281284,0.192325,-0.000178,-0.085845,0.210614,0.001656,-0.001328,0.784770,0.784773,44.964164,180.000000,-0.000000,0.000000,179.886240,0.033148,-44.964048,0.113760,-0.033148,44.964048,-0.000107,0.000000,0.000048,0.000000,0.000000,0.000000,0.024520,0.002693,-0.003922
0.067000,0.307000,0.000000,0.367000,0.499323,-0.000179,0.281151,0.499435,-0.000121,0.281284,0.192323,-0.000179,-0.085849,0.210614,0.001662,-0.001331,0.784769,0.784772,44.964126,180.000000,-0.000000,0.000000,179.885819,0.033196,-44.964009,0.114181,-0.033196,44.964009,-0.000113,0.000000,0.000050,0.000000,0.000000,0.000000,0.025716,-0.029398,-0.030673
0.068000,0.307000,0.000000,0.367000,0.499321,-0.000178,0.281149,0.499435,-0.000121,0.281284,0.192321,-0.000178,-0.085851,0.210613,0.001664,-0.001336,0.784763,0.784766,44.963756,180.000000,-0.000000,0.000000,179.885614,0.033417,-44.963640,0.114386,-0.033417,44.963640,-0.000119,0.000000,0.000053,0.000000,0.000000,0.000000,-0.003177,0.031031,-0.023705
0.069000,0.307000,0.000000,0.367000,0.499321,-0.000176,0.281149,0.499435,-0.000121,0.281284,0.192321,-0.000176,-0.085851,0.210613,0.001666,-0.001335,0.784754,0.784757,44.963240,180.000000,-0.000000,0.000000,179.885562,0.033300,-44.963123,0.114438,-0.033300,44.963123,-0.000125,0.000000,0.000056,0.000000,0.000000,0.000000,0.007470,-0.019380,-0.007052
0.070000,0.307000,0.000000,0.367000,0.499317,-0.000177,0.281145,0.499434,-0.000121,0.281284,0.192317,-0.000177,-0.085855,0.210611,0.001672,-0.001347,0.784759,0.784762,44.963559,180.000000,-0.000000,0.000000,179.885003,0.033799,-44.963442,0.114997,-0.033799,44.963442,-0.000131,0.000000,0.000058,0.000000,0.000000,0.000000,0.003676,-0.004174,-0.015411
0.071000,0.307000,0.000000,0.367000,0.499315,-0.000178,0.281143,0.499434,-0.000121,0.281284,0.192315,-0.000178,-0.085857,0.210610,0.001673,-0.001351,0.784758,0.784761,44.963476,180.000000,-0.000000,0.000000,179.884824,0.033952,-44.963357,0.115176,-0.033952,44.963357,-0.000137,0.000000,0.000061,0.000000,0.000000,0.000000,-0.024907,0.001206,0.070318
0.072000,0.307000,0.000000,0.367000,0.499316,-0.000178,0.281145,0.499434,-0.000121,0.281284,0.192316,-0.000178,-0.085855,0.210610,0.001671,-0.001347,0.784752,0.784755,44.963139,180.000000,-0.000000,0.000000,179.885023,0.033795,-44.963022,0.114977,-0.033795,44.963022,-0.000144,0.000000,0.000064,0.000000,0.000000,0.000000,-0.009468,0.015549,0.028231
0.073000,0.307000,0.000000,0.367000,0.499312,-0.000176,0.281138,0.499434,-0.000121,0.281284,0.192312,-0.000176,-0.085862,0.210610,0.001676,-0.001363,0.784754,0.784757,44.963239,180.000000,-0.000000,0.000000,179.884405,0.034555,-44.963121,0.115595,-0.034555,44.963121,-0.000151,0.000000,0.000067,0.000000,0.000000,0.000000,-0.052492,0.005862,0.038844
0.074000,0.307000,0.000000,0.367000,0.499311,-0.000176,0.281137,0.499434,-0.000121,0.281284,0.192311,-0.000176,-0.085863,0.210609,0.001678,-0.001364,0.784748,0.784751,44.962931,180.000000,-0.000000,0.000000,179.884281,0.034561,-44.962814,0.115719,-0.034561,44.962814,-0.000158,0.000000,0.000070,0.000000,0.000000,0.000000,-0.016843,0.007859,0.037033
0.075000,0.307000,0.000000,0.367000,0.499310,-0.000177,0.281137,0.499434,-0.000121,0.281284,0.192310,-0.000177,-0.085863,0.210608,0.001677,-0.001362,0.784750,0.784753,44.963032,180.000000,-0.000000,0.000000,179.884397,0.034494,-44.962915,0.115603,-0.034494,44.962915,-0.000166,0.000000,0.000074,0.000000,0.000000,0.000000,0.027214,0.023990,0.007580
0.076000,0.307000,0.000000,0.367000,0.499310,-0.000178,0.281137,0.499433,-0.000121,0.281284,0.192310,-0.000178,-0.085863,0.210607,0.001678,-0.001363,0.784748,0.784751,44.962911,180.000000,-0.000000,0.000000,179.884305,0.034477,-44.962792,0.115695,-0.034477,44.962792,-0.000173,0.000000,0.000077,0.000000,0.000000,0.000000,-0.008949,0.005536,0.011003
0.077000,0.307000,0.000000,0.367000,0.499306,-0.000175,0.281134,0.499433,-0.000121,0.281284,0.192306,-0.000175,-0.085866,0.210606,0.001683,-0.001370,0.784750,0.784753,44.963061,180.000000,-0.000000,0.000000,179.883909,0.034748,-44.962939,0.116091,-0.034748,44.962939,-0.000181,0.000000,0.000081,0.000000,0.000000,0.000000,-0.015943,0.000929,0.007972
0.078000,0.307000,0.000000,0.367000,0.499305,-0.000178,0.281128,0.499433,-0.000121,0.281284,0.192305,-0.000178,-0.085872,0.210606,0.001686,-0.001381,0.784751,0.784754,44.963068,180.000000,-0.000000,0.000000,179.883518,0.035257,-44.962949,0.116482,-0.035257,44.962949,-0.000189,0.000000,0.000084,0.000000,0.000000,0.000000,-0.000335,0.022544,0.037111
0.079000,0.307000,0.000000,0.367000,0.499304,-0.000176,0.281130,0.499433,-0.000121,0.281284,0.192304,-0.000176,-0.085870,0.210606,0.001685,-0.001379,0.784748,0.784751,44.962921,180.000000,-0.000000,0.000000,179.883591,0.035178,-44.962802,0.116409,-0.035178,44.962802,-0.000197,0.000000,0.000088,0.000000,0.000000,0.000000,0.005910,0.003251,0.003690
0.080000,0.307000,0.000000,0.367000,0.499301,-0.000176,0.281126,0.499433,-0.000121,0.281285,0.192301,-0.000176,-0.085874,0.210604,0.001689,-0.001389,0.784755,0.784758,44.963318,180.000000,-0.000000,0.000000,179.883208,0.035585,-44.963198,0.116792,-0.035585,44.963198,-0.000205,0.000000,0.000092,0.000000,0.000000,0.000000,0.022127,-0.030069,-0.034212
0.081000,0.307000,0.000000,0.367000,0.499301,-0.000175,0.281126,0.499433,-0.000121,0.281285,0.192301,-0.000175,-0.085874,0.210604,0.001690,-0.001387,0.784745,0.784748,44.962745,180.000000,-0.000000,0.000000,179.883221,0.035469,-44.962626,0.116779,-0.035469,44.962626,-0.000214,0.000000,0.000095,0.000000,0.000000,0.000000,0.015947,-0.009316,-0.039292
0.082000,0.307000,0.000000,0.367000,0.499300,-0.000177,0.281123,0.499432,-0.000121,0.281285,0.192300,-0.000177,-0.085877,0.210604,0.001691,-0.001392,0.784752,0.784755,44.963178,180.000000,-0.000000,0.000000,179.883019,0.035696,-44.963055,0.116981,-0.035696,44.963055,-0.000223,0.000000,0.000099,0.000000,0.000000,0.000000,-0.034130,0.020605,-0.055952
0.083000,0.307000,0.000000,0.367000,0.499296,-0.000174,0.281119,0.499432,-0.000121,0.281285,0.192296,-0.000174,-0.085881,0.210603,0.001695,-0.001403,0.784749,0.784752,44.962962,180.000000,-0.000000,0.000000,179.882564,0.036194,-44.962840,0.117436,-0.036194,44.962840,-0.000232,0.000000,0.000103,0.000000,0.000000,0.000000,-0.001956,-0.001494,0.004233
0.084000,0.307000,0.000000,0.367000,0.499294,-0.000175,0.281117,0.499432,-0.000121,0.281285,0.192294,-0.000175,-0.085883,0.210602,0.001701,-0.001406,0.784748,0.784751,44.962918,180.000000,-0.000000,0.000000,179.882241,0.036231,-44.962795,0.117759,-0.036231,44.962795,-0.000242,0.000000,0.000108,0.000000,0.000000,0.000000,0.012296,0.013210,0.020316
0.085000,0.307000,0.000000,0.367000,0.499295,-0.000176,0.281118,0.499432,-0.000121,0.281285,0.192295,-0.000176,-0.085882,0.210601,0.001699,-0.001403,0.784748,0.784751,44.962933,180.000000,-0.000000,0.000000,179.882361,0.036124,-44.962812,0.117639,-0.036124,44.962812,-0.000251,0.000000,0.000112,0.000000,0.000000,0.000000,0.007142,-0.021190,-0.029896
0.086000,0.307000,0.000000,0.367000,0.499293,-0.000177,0.281116,0.499431,-0.000121,0.281285,0.192293,-0.000177,-0.085884,0.210601,0.001705,-0.001407,0.784752,0.784755,44.963156,180.000000,-0.000000,0.000000,179.882012,0.036183,-44.963031,0.117988,-0.036183,44.963031,-0.000261,0.000000,0.000116,0.000000,0.000000,0.000000,-0.023616,-0.001130,-0.022853
0.087000,0.307000,0.000000,0.367000,0.499292,-0.000177,0.281114,0.499431,-0.000121,0.281285,0.192292,-0.000177,-0.085886,0.210601,0.001707,-0.001408,0.784748,0.784751,44.962919,180.000000,-0.000000,0.000000,179.881877,0.036223,-44.962795,0.118123,-0.036223,44.962795,-0.000271,0.000000,0.000121,0.000000,0.000000,0.000000,-0.029657,-0.004004,-0.039773
0.088000,0.307000,0.000000,0.367000,0.499290,-0.000179,0.281113,0.499431,-0.000121,0.281285,0.192290,-0.000179,-0.085887,0.210599,0.001711,-0.001410,0.784741,0.784745,44.962549,180.000000,-0.000000,0.000000,179.881632,0.036209,-44.962425,0.118368,-0.036209,44.962425,-0.000282,0.000000,0.000125,0.000000,0.000000,0.000000,0.014312,-0.006171,0.019856
0.089000,0.307000,0.000000,0.367000,0.499287,-0.000178,0.281110,0.499430,-0.000121,0.281286,0.192287,-0.000178,-0.085890,0.210598,0.001718,-0.001417,0.784737,0.784740,44.962284,180.000000,-0.000000,0.000000,179.881112,0.036434,-44.962160,0.118888,-0.036434,44.962160,-0.000292,0.000000,0.000130,0.000000,0.000000,0.000000,0.020480,0.022441,0.057928
0.090000,0.307000,0.000000,0.367000,0.499288,-0.000180,0.281110,0.499430,-0.000121,0.281286,0.192288,-0.000180,-0.085890,0.210599,0.001717,-0.001414,0.784747,0.784750,44.962871,180.000000,-0.000000,0.000000,179.881251,0.036298,-44.962746,0.118749,-0.036298,44.962746,-0.000303,0.000000,0.000135,0.000000,0.000000,0.000000,0.022482,0.034822,0.009861
0.091000,0.307000,0.000000,0.367000,0.499287,-0.000177,0.281110,0.499430,-0.000121,0.281286,0.192287,-0.000177,-0.085890,0.210598,0.001720,-0.001416,0.784730,0.784733,44.961898,180.000000,-0.000000,0.000000,179.881024,0.036337,-44.961773,0.118976,-0.036337,44.961773,-0.000314,0.000000,0.000140,0.000000,0.000000,0.000000,-0.015759,-0.009346,-0.007500
0.092000,0.307000,0.000000,0.367000,0.499286,-0.000180,0.281109,0.499430,-0.000121,0.281286,0.192286,-0.000180,-0.085891,0.210597,0.001725,-0.001413,0.784729,0.784732,44.961859,180.000000,-0.000000,0.000000,179.880817,0.036089,-44.961732,0.119183,-0.036089,44.961732,-0.000326,0.000000,0.000145,0.000000,0.000000,0.000000,0.011928,0.016865,0.015775
0.093000,0.307000,0.000000,0.367000,0.499283,-0.000179,0.281104,0.499429,-0.000121,0.281286,0.192283,-0.000179,-0.085896,0.210596,0.001730,-0.001424,0.784731,0.784734,44.961946,180.000000,-0.000000,0.000000,179.880324,0.036532,-44.961819,0.119676,-0.036532,44.961819,-0.000337,0.000000,0.000150,0.000000,0.000000,0.000000,0.033720,0.002550,0.023575
0.094000,0.307000,0.000000,0.367000,0.499282,-0.000178,0.281105,0.499429,-0.000121,0.281286,0.192282,-0.000178,-0.085895,0.210595,0.001730,-0.001420,0.784718,0.784721,44.961195,180.000000,-0.000000,0.000000,179.880424,0.036301,-44.961068,0.119576,-0.036301,44.961068,-0.000349,0.000000,0.000155,0.000000,0.000000,0.000000,0.024289,0.002617,-0.029733
0.095000,0.307000,0.000000,0.367000,0.499280,-0.000178,0.281100,0.499428,-0.000121,0.281286,0.192280,-0.000178,-0.085900,0.210595,0.001739,-0.001432,0.784718,0.784721,44.961200,180.000000,-0.000000,0.000000,179.879709,0.036771,-44.961073,0.120291,-0.036771,44.961073,-0.000361,0.000000,0.000161,0.000000,0.000000,0.000000,-0.001551,0.000531,0.023790
0.096000,0.307000,0.000000,0.367000,0.499277,-0.000181,0.281099,0.499428,-0.000121,0.281287,0.192277,-0.000181,-0.085901,0.210594,0.001739,-0.001437,0.784728,0.784731,44.961784,180.000000,-0.000000,0.000000,179.879618,0.036998,-44.961655,0.120382,-0.036998,44.961655,-0.000374,0.000000,0.000166,0.000000,0.000000,0.000000,-0.001823,-0.011005,-0.000221
0.097000,0.307000,0.000000,0.367000,0.499276,-0.000184,0.281097,0.499428,-0.000121,0.281287,0.192276,-0.000184,-0.085903,0.210593,0.001747,-0.001438,0.784726,0.784729,44.961647,180.000000,-0.000000,0.000000,179.879160,0.036912,-44.961517,0.120840,-0.036912,44.961517,-0.000386,0.000000,0.000172,0.000000,0.000000,0.000000,-0.016147,0.001324,0.031497
0.098000,0.307000,0.000000,0.367000,0.499275,-0.000181,0.281095,0.499427,-0.000121,0.281287,0.192275,-0.000181,-0.085905,0.210593,0.001747,-0.001443,0.784726,0.784729,44.961647,180.000000,-0.000000,0.000000,179.879048,0.037166,-44.961517,0.120952,-0.037166,44.961517,-0.000399,0.000000,0.000178,0.000000,0.000000,0.000000,0.015429,0.041004,0.008087
0.099000,0.307000,0.000000,0.367000,0.499273,-0.000183,0.281094,0.499427,-0.000121,0.281287,0.192273,-0.000183,-0.085906,0.210592,0.001749,-0.001445,0.784734,0.784737,44.962106,180.000000,-0.000000,0.000000,179.878918,0.037235,-44.961976,0.121082,-0.037235,44.961976,-0.000412,0.000000,0.000184,0.000000,0.000000,0.000000,0.003434,0.058434,0.055706
0.100000,0.307000,0.000000,0.367000,0.499271,-0.000183,0.281092,0.499426,-0.000121,0.281287,0.192271,-0.000183,-0.085908,0.210591,0.001756,-0.001448,0.784723,0.784726,44.961485,180.000000,-0.000000,0.000000,179.878496,0.037249,-44.961353,0.121504,-0.037249,44.961353,-0.000426,0.000000,0.000190,0.000000,0.000000,0.000000,0.006088,0.016906,-0.007268
0.101000,0.307000,0.000000,0.367000,0.499270,-0.000185,0.281090,0.499426,-0.000121,0.281287,0.192270,-0.000185,-0.085910,0.210591,0.001758,-0.001450,0.784723,0.784726,44.961507,180.000000,-0.000000,0.000000,179.878345,0.037263,-44.961377,0.121655,-0.037263,44.961377,-0.000440,0.000000,0.000196,0.000000,0.000000,0.000000,-0.001409,0.012330,0.028329
0.102000,0.307000,0.000000,0.367000,0.499268,-0.000186,0.281090,0.499426,-0.000121,0.281288,0.192268,-0.000186,-0.085910,0.210589,0.001763,-0.001451,0.784731,0.784735,44.961982,180.000000,-0.000000,0.000000,179.878091,0.037205,-44.961850,0.121909,-0.037205,44.961850,-0.000454,0.000000,0.000202,0.000000,0.000000,0.000000,0.007264,0.012033,0.044768
0.103000,0.307000,0.000000,0.367000,0.499266,-0.000182,0.281086,0.499425,-0.000121,0.281288,0.192266,-0.000182,-0.085914,0.210589,0.001768,-0.001458,0.784722,0.784726,44.961460,180.000000,-0.000000,0.000000,179.877686,0.037466,-44.961329,0.122314,-0.037466,44.961329,-0.000468,0.000000,0.000208,0.000000,0.000000,0.000000,-0.006703,0.014236,-0.001898
0.104000,0.307000,0.000000,0.367000,0.499267,-0.000183,0.281088,0.499425,-0.000121,0.281288,0.192267,-0.000183,-0.085912,0.210588,0.001766,-0.001453,0.784715,0.784719,44.961065,180.000000,-0.000000,0.000000,179.877888,0.037263,-44.960933,0.122112,-0.037263,44.960933,-0.000483,0.000000,0.000215,0.000000,0.000000,0.000000,-0.018327,0.011549,0.041532
0.105000,0.307000,0.000000,0.367000,0.499266,-0.000185,0.281085,0.499424,-0.000121,0.281288,0.192266,-0.000185,-0.085915,0.210589,0.001772,-0.001457,0.784721,0.784725,44.961419,180.000000,-0.000000,0.000000,179.877497,0.037323,-44.961285,0.122503,-0.037323,44.961285,-0.000497,0.000000,0.000222,0.000000,0.000000,0.000000,-0.007919,0.007332,0.049023
0.106000,0.307000,0.000000,0.367000,0.499264,-0.000186,0.281084,0.499424,-0.000121,0.281289,0.192264,-0.000186,-0.085916,0.210587,0.001773,-0.001460,0.784726,0.784730,44.961699,180.000000,-0.000000,0.000000,179.877384,0.037457,-44.961565,0.122616,-0.037457,44.961565,-0.000513,0.000000,0.000228,0.000000,0.000000,0.000000,0.043571,-0.002138,-0.060251
0.107000,0.307000,0.000000,0.367000,0.499262,-0.000186,0.281081,0.499423,-0.000121,0.281289,0.192262,-0.000186,-0.085919,0.210587,0.001780,-0.001464,0.784714,0.784717,44.960973,180.000000,-0.000000,0.000000,179.876908,0.037544,-44.960839,0.123092,-0.037544,44.960839,-0.000528,0.000000,0.000235,0.000000,0.000000,0.000000,0.024508,-0.023511,-0.001909
0.108000,0.307000,0.000000,0.367000,0.499261,-0.000187,0.281081,0.499423,-0.000121,0.281289,0.192261,-0.000187,-0.085919,0.210586,0.001786,-0.001463,0.784708,0.784711,44.960630,180.000000,-0.000000,0.000000,179.876612,0.037357,-44.960496,0.123388,-0.037357,44.960496,-0.000544,0.000000,0.000242,0.000000,0.000000,0.000000,-0.005253,-0.028934,0.044597
0.109000,0.307000,0.000000,0.367000,0.499260,-0.000186,0.281077,0.499422,-0.000121,0.281289,0.192260,-0.000186,-0.085923,0.210586,0.001790,-0.001469,0.784707,0.784710,44.960587,180.000000,-0.000000,0.000000,179.876306,0.037574,-44.960452,0.123694,-0.037574,44.960452,-0.000560,0.000000,0.000249,0.000000,0.000000,0.000000,0.013546,-0.038535,-0.047322
0.110000,0.307000,0.000000,0.367000,0.499259,-0.000188,0.281078,0.499421,-0.000121,0.281290,0.192259,-0.000188,-0.085922,0.210585,0.001792,-0.001470,0.784702,0.784705,44.960312,180.000000,-0.000000,0.000000,179.876138,0.037597,-44.960177,0.123862,-0.037597,44.960177,-0.000576,0.000000,0.000257,0.000000,0.000000,0.000000,0.009562,-0.026401,0.014719
0.111000,0.307000,0.000000,0.367000,0.499259,-0.000187,0.281076,0.499421,-0.000121,0.281290,0.192259,-0.000187,-0.085924,0.210586,0.001798,-0.001468,0.784692,0.784695,44.959734,180.000000,-0.000000,0.000000,179.875857,0.037368,-44.959597,0.124143,-0.037368,44.959597,-0.000592,0.000000,0.000264,0.000000,0.000000,0.000000,-0.001360,-0.043439,0.042076
0.112000,0.307000,0.000000,0.367000,0.499258,-0.000188,0.281075,0.499420,-0.000121,0.281290,0.192258,-0.000188,-0.085925,0.210585,0.001799,-0.001469,0.784701,0.784705,44.960278,180.000000,-0.000000,0.000000,179.875804,0.037371,-44.960141,0.124196,-0.037371,44.960141,-0.000609,0.000000,0.000271,0.000000,0.000000,0.000000,0.016819,0.012571,-0.026776
0.113000,0.307000,0.000000,0.367000,0.499257,-0.000192,0.281075,0.499420,-0.000121,0.281290,0.192257,-0.000192,-0.085925,0.210584,0.001803,-0.001473,0.784706,0.784709,44.960533,180.000000,-0.000000,0.000000,179.875532,0.037493,-44.960397,0.124468,-0.037493,44.960397,-0.000626,0.000000,0.000279,0.000000,0.000000,0.000000,-0.012269,0.017398,-0.030275
0.114000,0.307000,0.000000,0.367000,0.499256,-0.000189,0.281072,0.499419,-0.000121,0.281291,0.192256,-0.000189,-0.085928,0.210585,0.001808,-0.001475,0.784689,0.784693,44.959585,180.000000,-0.000000,0.000000,179.875221,0.037476,-44.959448,0.124779,-0.037476,44.959448,-0.000644,0.000000,0.000287,0.000000,0.000000,0.000000,-0.016568,0.018596,0.005124
0.115000,0.307000,0.000000,0.367000,0.499254,-0.000189,0.281071,0.499418,-0.000121,0.281291,0.192254,-0.000189,-0.085929,0.210584,0.001811,-0.001475,0.784691,0.784695,44.959687,180.000000,-0.000000,0.000000,179.875081,0.037448,-44.959549,0.124919,-0.037448,44.959549,-0.000662,0.000000,0.000295,0.000000,0.000000,0.000000,-0.040532,-0.021267,-0.048694
0.116000,0.307000,0.000000,0.367000,0.499255,-0.000191,0.281071,0.499418,-0.000121,0.281291,0.192255,-0.000191,-0.085929,0.210584,0.001814,-0.001473,0.784690,0.784694,44.959626,180.000000,-0.000000,0.000000,179.874968,0.037291,-44.959486,0.125032,-0.037291,44.959486,-0.000680,0.000000,0.000303,0.000000,0.000000,0.000000,-0.011125,0.027150,0.043769
0.117000,0.307000,0.000000,0.367000,0.499252,-0.000192,0.281071,0.499417,-0.000121,0.281292,0.192252,-0.000192,-0.085929,0.210582,0.001815,-0.001477,0.784690,0.784693,44.959625,180.000000,-0.000000,0.000000,179.874838,0.037446,-44.959486,0.125162,-0.037446,44.959486,-0.000698,0.000000,0.000311,0.000000,0.000000,0.000000,-0.028168,0.040948,0.036649
0.118000,0.307000,0.000000,0.367000,0.499251,-0.000190,0.281068,0.499416,-0.000121,0.281292,0.192251,-0.000190,-0.085932,0.210582,0.001819,-0.001481,0.784693,0.784697,44.959798,180.000000,-0.000000,0.000000,179.874534,0.037604,-44.959658,0.125466,-0.037604,44.959658,-0.000716,0.000000,0.000319,0.000000,0.000000,0.000000,0.021724,-0.008463,-0.014008
0.119000,0.307000,0.000000,0.367000,0.499250,-0.000191,0.281066,0.499415,-0.000121,0.281292,0.192250,-0.000191,-0.085934,0.210582,0.001818,-0.001486,0.784700,0.784704,44.960207,180.000000,-0.000000,0.000000,179.874452,0.037845,-44.960068,0.125548,-0.037845,44.960068,-0.000735,0.000000,0.000327,0.000000,0.000000,0.000000,0.022220,-0.018198,-0.079514
0.120000,0.307000,0.000000,0.367000,0.499250,-0.000190,0.281066,0.499415,-0.000121,0.281293,0.192250,-0.000190,-0.085934,0.210582,0.001819,-0.001483,0.784691,0.784695,44.959707,180.000000,-0.000000,0.000000,179.874500,0.037677,-44.959566,0.125500,-0.037677,44.959566,-0.000754,0.000000,0.000336,0.000000,0.000000,0.000000,-0.002073,-0.015002,0.056498
0.121000,0.307000,0.000000,0.367000,0.499248,-0.000187,0.281064,0.499414,-0.000121,0.281293,0.192248,-0.000187,-0.085936,0.210581,0.001821,-0.001489,0.784690,0.784693,44.959614,180.000000,-0.000000,0.000000,179.874235,0.037941,-44.959474,0.125765,-0.037941,44.959474,-0.000774,0.000000,0.000345,0.000000,0.000000,0.000000,0.004860,-0.036371,-0.040264
0.122000,0.307000,0.000000,0.367000,0.499247,-0.000190,0.281061,0.499413,-0.000121,0.281293,0.192247,-0.000190,-0.085939,0.210581,0.001823,-0.001494,0.784699,0.784702,44.960118,180.000000,-0.000000,0.000000,179.874020,0.038155,-44.959979,0.125980,-0.038155,44.959979,-0.000794,0.000000,0.000354,0.000000,0.000000,0.000000,0.006520,0.002782,-0.070361
0.123000,0.307000,0.000000,0.367000,0.499246,-0.000191,0.281059,0.499412,-0.000121,0.281294,0.192246,-0.000191,-0.085941,0.210581,0.001827,-0.001496,0.784691,0.784695,44.959703,180.000000,-0.000000,0.000000,179.873793,0.038168,-44.959564,0.126207,-0.038168,44.959564,-0.000814,0.000001,0.000362,0.000000,0.000000,0.000000,0.028828,-0.007092,0.015487
0.124000,0.307000,0.000000,0.367000,0.499245,-0.000195,0.281059,0.499411,-0.000121,0.281294,0.192245,-0.000195,-0.085941,0.210580,0.001827,-0.001497,0.784697,0.784700,44.960002,180.000000,-0.000000,0.000000,179.873797,0.038218,-44.959861,0.126203,-0.038218,44.959861,-0.000834,0.000001,0.000372,0.000000,0.000000,0.000000,0.020948,-0.051460,0.009985
0.125000,0.307000,0.000000,0.367000,0.499245,-0.000192,0.281058,0.499411,-0.000121,0.281294,0.192245,-0.000192,-0.085942,0.210581,0.001827,-0.001496,0.784695,0.784699,44.959921,180.000000,-0.000000,0.000000,179.873789,0.038171,-44.959781,0.126211,-0.038171,44.959781,-0.000855,0.000001,0.000381,0.000000,0.000000,0.000000,0.013877,-0.011580,0.013285
0.126000,0.307000,0.000000,0.367000,0.499243,-0.000191,0.281059,0.499410,-0.000121,0.281295,0.192243,-0.000191,-0.085941,0.210579,0.001828,-0.001497,0.784687,0.784690,44.959445,180.000000,-0.000000,0.000000,179.873702,0.038216,-44.959303,0.126298,-0.038216,44.959303,-0.000876,0.000001,0.000390,0.000000,0.000000,0.000000,-0.004605,0.004846,-0.019120
0.127000,0.307000,0.000000,0.367000,0.499241,-0.000191,0.281055,0.499409,-0.000121,0.281295,0.192241,-0.000191,-0.085945,0.210578,0.001832,-0.001504,0.784683,0.784687,44.959257,180.000000,-0.000000,0.000000,179.873353,0.038459,-44.959114,0.126647,-0.038459,44.959114,-0.000897,0.000001,0.000400,0.000000,0.000000,0.000000,0.002582,0.022792,-0.021943
0.128000,0.307000,0.000000,0.367000,0.499238,-0.000192,0.281052,0.499408,-0.000121,0.281296,0.192238,-0.000192,-0.085948,0.210577,0.001837,-0.001513,0.784691,0.784695,44.959712,180.000000,-0.000000,0.000000,179.872940,0.038863,-44.959568,0.127060,-0.038863,44.959568,-0.000919,0.000001,0.000409,0.000000,0.000000,0.000000,0.000898,-0.006440,-0.023943
0.129000,0.307000,0.000000,0.367000,0.499237,-0.000192,0.281051,0.499407,-0.000121,0.281296,0.192237,-0.000192,-0.085949,0.210576,0.001842,-0.001515,0.784685,0.784689,44.959363,180.000000,-0.000000,0.000000,179.872645,0.038825,-44.959221,0.127355,-0.038825,44.959221,-0.000940,0.000001,0.000419,0.000000,0.000000,0.000000,-0.001697,-0.018904,-0.032096
0.130000,0.307000,0.000000,0.367000,0.499238,-0.000192,0.281050,0.499406,-0.000121,0.281296,0.192238,-0.000192,-0.085950,0.210577,0.001841,-0.001515,0.784678,0.784682,44.958963,180.000000,-0.000000,0.000000,179.872689,0.038885,-44.958820,0.127311,-0.038885,44.958820,-0.000963,0.000001,0.000429,0.000000,0.000000,0.000000,-0.021045,-0.002350,0.030948
0.131000,0.307000,0.000000,0.367000,0.499237,-0.000195,0.281051,0.499405,-0.000121,0.281297,0.192237,-0.000195,-0.085949,0.210576,0.001841,-0.001514,0.784688,0.784692,44.959515,180.000000,-0.000000,0.000000,179.872677,0.038781,-44.959370,0.127323,-0.038781,44.959370,-0.000985,0.000001,0.000439,0.000000,0.000000,0.000000,0.011962,0.004527,0.078946
0.132000,0.307000,0.000000,0.367000,0.499236,-0.000192,0.281049,0.499404,-0.000121,0.281297,0.192236,-0.000192,-0.085951,0.210576,0.001841,-0.001516,0.784690,0.784694,44.959653,180.000000,-0.000000,0.000000,179.872656,0.038919,-44.959510,0.127344,-0.038919,44.959510,-0.001008,0.000001,0.000449,0.000000,0.000000,0.000000,-0.019537,-0.010789,-0.019114
0.133000,0.307000,0.000000,0.367000,0.499234,-0.000192,0.281045,0.499403,-0.000121,0.281298,0.192234,-0.000192,-0.085955,0.210575,0.001844,-0.001523,0.784684,0.784687,44.959269,180.000000,-0.000000,0.000000,179.872323,0.039202,-44.959124,0.127677,-0.039202,44.959124,-0.001031,0.000001,0.000459,0.000000,0.000000,0.000000,0.006318,-0.012919,-0.074443
0.134000,0.307000,0.000000,0.367000,0.499233,-0.000194,0.281044,0.499402,-0.000121,0.281298,0.192233,-0.000194,-0.085956,0.210575,0.001848,-0.001526,0.784686,0.784689,44.959395,180.000000,-0.000000,0.000000,179.872042,0.039284,-44.959250,0.127958,-0.039284,44.959250,-0.001054,0.000001,0.000470,0.000000,0.000000,0.000000,-0.020296,0.011417,0.051380
0.135000,0.307000,0.000000,0.367000,0.499231,-0.000191,0.281042,0.499401,-0.000121,0.281299,0.192231,-0.000191,-0.085958,0.210574,0.001852,-0.001531,0.784683,0.784686,44.959222,180.000000,-0.000000,0.000000,179.871768,0.039426,-44.959076,0.128232,-0.039426,44.959076,-0.001078,0.000001,0.000480,0.000000,0.000000,0.000000,0.000594,0.014268,0.037593
0.136000,0.307000,0.000000,0.367000,0.499231,-0.000193,0.281043,0.499400,-0.000121,0.281299,0.192231,-0.000193,-0.085957,0.210574,0.001851,-0.001528,0.784684,0.784688,44.959309,180.000000,-0.000000,0.000000,179.871866,0.039323,-44.959163,0.128134,-0.039323,44.959163,-0.001102,0.000001,0.000491,0.000000,0.000000,0.000000,0.035661,-0.027444,-0.067325
0.137000,0.307000,0.000000,0.367000,0.499229,-0.000192,0.281041,0.499399,-0.000121,0.281300,0.192229,-0.000192,-0.085959,0.210573,0.001855,-0.001533,0.784677,0.784680,44.958877,180.000000,-0.000000,0.000000,179.871541,0.039478,-44.958730,0.128459,-0.039478,44.958730,-0.001126,0.000001,0.000502,0.000000,0.000000,0.000000,0.028728,-0.015660,-0.062950
0.138000,0.307000,0.000000,0.367000,0.499228,-0.000190,0.281038,0.499397,-0.000121,0.281300,0.192228,-0.000190,-0.085962,0.210573,0.001856,-0.001539,0.784685,0.784689,44.959342,180.000000,-0.000000,0.000000,179.871403,0.039773,-44.959196,0.128597,-0.039773,44.959196,-0.001151,0.000001,0.000513,0.000000,0.000000,0.000000,0.037618,-0.000622,0.013364
0.139000,0.307000,0.000000,0.367000,0.499228,-0.000192,0.281039,0.499396,-0.000121,0.281301,0.192228,-0.000192,-0.085961,0.210572,0.001856,-0.001538,0.784683,0.784687,44.959253,180.000000,-0.000000,0.000000,179.871391,0.039747,-44.959107,0.128609,-0.039747,44.959107,-0.001176,0.000001,0.000524,0.000000,0.000000,0.000000,-0.001773,-0.015070,0.027733
0.140000,0.307000,0.000000,0.367000,0.499226,-0.000192,0.281038,0.499395,-0.000121,0.281301,0.192226,-0.000192,-0.085962,0.210571,0.001856,-0.001542,0.784682,0.784686,44.959169,180.000000,-0.000000,0.000000,179.871312,0.039944,-44.959023,0.128688,-0.039944,44.959023,-0.001201,0.000001,0.000535,0.000000,0.000000,0.000000,0.011937,0.012173,-0.043485
0.141000,0.307000,0.000000,0.367000,0.499226,-0.000191,0.281037,0.499394,-0.000121,0.281302,0.192226,-0.000191,-0.085963,0.210572,0.001857,-0.001543,0.784683,0.784687,44.959249,180.000000,-0.000000,0.000000,179.871259,0.039986,-44.959102,0.128741,-0.039986,44.959102,-0.001227,0.000001,0.000546,0.000000,0.000000,0.000000,0.085219,0.005228,-0.078746
0.142000,0.307000,0.000000,0.367000,0.499224,-0.000193,0.281033,0.499393,-0.000121,0.281302,0.192224,-0.000193,-0.085967,0.210572,0.001861,-0.001550,0.784690,0.784694,44.959634,180.000000,-0.000000,0.000000,179.870920,0.040240,-44.959486,0.129080,-0.040240,44.959486,-0.001253,0.000001,0.000558,0.000000,0.000000,0.000000,0.005246,0.022396,-0.029516
0.143000,0.307000,0.000000,0.367000,0.499224,-0.000191,0.281034,0.499391,-0.000121,0.281303,0.192224,-0.000191,-0.085966,0.210571,0.001857,-0.001546,0.784679,0.784683,44.959001,180.000000,-0.000000,0.000000,179.871158,0.040123,-44.958854,0.128842,-0.040123,44.958854,-0.001279,0.000001,0.000570,0.000000,0.000000,0.000000,-0.017295,0.023921,-0.001606
0.144000,0.307000,0.000000,0.367000,0.499223,-0.000193,0.281032,0.499390,-0.000121,0.281304,0.192223,-0.000193,-0.085968,0.210571,0.001864,-0.001551,0.784687,0.784691,44.959485,180.000000,-0.000000,0.000000,179.870712,0.040235,-44.959337,0.129288,-0.040235,44.959337,-0.001305,0.000001,0.000581,0.000000,0.000000,0.000000,-0.026952,-0.013642,0.022123
0.145000,0.307000,0.000000,0.367000,0.499224,-0.000193,0.281035,0.499389,-0.000121,0.281304,0.192224,-0.000193,-0.085965,0.210570,0.001862,-0.001543,0.784684,0.784688,44.959315,180.000000,-0.000000,0.000000,179.870996,0.039881,-44.959168,0.129004,-0.039881,44.959168,-0.001332,0.000001,0.000593,0.000000,0.000000,0.000000,0.022227,-0.024025,0.011623
0.146000,0.307000,0.000000,0.367000,0.499221,-0.000195,0.281031,0.499387,-0.000121,0.281305,0.192221,-0.000195,-0.085969,0.210570,0.001863,-0.001554,0.784678,0.784682,44.958965,180.000000,-0.000000,0.000000,179.870722,0.040414,-44.958817,0.129278,-0.040414,44.958817,-0.001359,0.000001,0.000606,0.000000,0.000000,0.000000,-0.021724,-0.006361,0.013495
0.147000,0.307000,0.000000,0.367000,0.499219,-0.000191,0.281028,0.499386,-0.000121,0.281305,0.192219,-0.000191,-0.085972,0.210569,0.001865,-0.001561,0.784683,0.784686,44.959222,180.000000,-0.000000,0.000000,179.870432,0.040715,-44.959073,0.129568,-0.040715,44.959073,-0.001387,0.000001,0.000618,0.000000,0.000000,0.000000,-0.008096,0.008598,0.022521
0.148000,0.307000,0.000000,0.367000,0.499220,-0.000193,0.281031,0.499385,-0.000121,0.281306,0.192220,-0.000193,-0.085969,0.210569,0.001865,-0.001557,0.784685,0.784689,44.959380,180.000000,-0.000000,0.000000,179.870522,0.040518,-44.959230,0.129478,-0.040518,44.959230,-0.001415,0.000001,0.000630,0.000000,0.000000,0.000000,-0.014820,0.011179,-0.038097
0.149000,0.307000,0.000000,0.367000,0.499218,-0.000192,0.281028,0.499383,-0.000121,0.281307,0.192218,-0.000192,-0.085972,0.210569,0.001869,-0.001561,0.784674,0.784678,44.958730,180.000000,-0.000000,0.000000,179.870252,0.040623,-44.958581,0.129748,-0.040623,44.958581,-0.001443,0.000001,0.000643,0.000000,0.000000,0.000000,0.002932,0.002289,-0.001101
0.150000,0.307000,0.000000,0.367000,0.499219,-0.000193,0.281028,0.499382,-0.000121,0.281307,0.192219,-0.000193,-0.085972,0.210569,0.001869,-0.001560,0.784671,0.784675,44.958539,180.000000,-0.000000,0.000000,179.870260,0.040577,-44.958390,0.129740,-0.040577,44.958390,-0.001471,0.000001,0.000655,0.000000,0.000000,0.000000,0.001860,-0.037266,-0.013857
0.151000,0.307000,0.000000,0.367000,0.499217,-0.000193,0.281026,0.499380,-0.000121,0.281308,0.192217,-0.000193,-0.085974,0.210568,0.001868,-0.001565,0.784673,0.784676,44.958651,180.000000,-0.000000,0.000000,179.870197,0.040881,-44.958503,0.129803,-0.040881,44.958503,-0.001500,0.000001,0.000668,0.000000,0.000000,0.000000,-0.023769,0.002897,0.001868
0.152000,0.307000,0.000000,0.367000,0.499218,-0.000195,0.281027,0.499379,-0.000121,0.281309,0.192218,-0.000195,-0.085973,0.210568,0.001866,-0.001563,0.784685,0.784688,44.959331,180.000000,-0.000000,0.000000,179.870347,0.040799,-44.959184,0.129653,-0.040799,44.959184,-0.001529,0.000001,0.000681,0.000000,0.000000,0.000000,0.021037,0.039728,-0.006057
0.153000,0.307000,0.000000,0.367000,0.499216,-0.000189,0.281025,0.499377,-0.000121,0.281309,0.192216,-0.000189,-0.085975,0.210568,0.001869,-0.001568,0.784672,0.784676,44.958622,180.000000,-0.000000,0.000000,179.870124,0.040995,-44.958474,0.129876,-0.040995,44.958474,-0.001558,0.000001,0.000694,0.000000,0.000000,0.000000,0.022036,-0.014225,-0.023876
0.154000,0.307000,0.000000,0.367000,0.499215,-0.000192,0.281022,0.499375,-0.000121,0.281310,0.192215,-0.000192,-0.085978,0.210568,0.001872,-0.001572,0.784680,0.784684,44.959083,180.000000,-0.000000,0.000000,179.869849,0.041147,-44.958933,0.130151,-0.041147,44.958933,-0.001588,0.000001,0.000707,0.000000,0.000000,0.000000,0.013636,0.016905,-0.049179
0.155000,0.307000,0.000000,0.367000,0.499215,-0.000194,0.281022,0.499374,-0.000121,0.281311,0.192215,-0.000194,-0.085978,0.210568,0.001873,-0.001573,0.784686,0.784689,44.959396,180.000000,-0.000000,0.000000,179.869761,0.041164,-44.959245,0.130239,-0.041164,44.959245,-0.001618,0.000001,0.000721,0.000000,0.000000,0.000000,-0.003398,0.027052,0.009158
0.156000,0.307000,0.000000,0.367000,0.499215,-0.000195,0.281023,0.499372,-0.000121,0.281311,0.192215,-0.000195,-0.085977,0.210568,0.001873,-0.001571,0.784685,0.784689,44.959373,180.000000,-0.000000,0.000000,179.869797,0.041071,-44.959223,0.130203,-0.041071,44.959223,-0.001648,0.000001,0.000734,0.000000,0.000000,0.000000,-0.007938,-0.001141,0.006132
0.157000,0.307000,0.000000,0.367000,0.499214,-0.000193,0.281024,0.499371,-0.000121,0.281312,0.192214,-0.000193,-0.085976,0.210567,0.001871,-0.001569,0.784683,0.784687,44.959255,180.000000,-0.000000,0.000000,179.869983,0.041015,-44.959105,0.130017,-0.041015,44.959105,-0.001679,0.000001,0.000748,0.000000,0.000000,0.000000,0.000487,0.025574,0.024065
0.158000,0.307000,0.000000,0.367000,0.499213,-0.000193,0.281022,0.499369,-0.000121,0.281313,0.192213,-0.000193,-0.085978,0.210566,0.001874,-0.001573,0.784684,0.784688,44.959320,180.000000,-0.000000,0.000000,179.869725,0.041118,-44.959170,0.130275,-0.041118,44.959170,-0.001710,0.000001,0.000762,0.000000,0.000000,0.000000,0.017601,0.037415,0.017746
0.159000,0.307000,0.000000,0.367000,0.499211,-0.000195,0.281020,0.499367,-0.000121,0.281314,0.192211,-0.000195,-0.085980,0.210565,0.001875,-0.001577,0.784688,0.784692,44.959542,180.000000,-0.000000,0.000000,179.869570,0.041339,-44.959392,0.130430,-0.041339,44.959392,-0.001741,0.000001,0.000775,0.000000,0.000000,0.000000,-0.038809,0.023276,0.043847
0.160000,0.307000,0.000000,0.367000,0.499213,-0.000194,0.281022,0.499365,-0.000121,0.281315,0.192213,-0.000194,-0.085978,0.210566,0.001874,-0.001574,0.784680,0.784683,44.959049,180.000000,-0.000000,0.000000,179.869712,0.041182,-44.958899,0.130288,-0.041182,44.958899,-0.001772,0.000001,0.000789,0.000000,0.000000,0.000000,-0.016407,0.011541,0.045124
0.161000,0.307000,0.000000,0.367000,0.499211,-0.000191,0.281020,0.499363,-0.000121,0.281315,0.192211,-0.000191,-0.085980,0.210565,0.001875,-0.001578,0.784680,0.784683,44.959050,180.000000,-0.000000,0.000000,179.869560,0.041369,-44.958899,0.130440,-0.041369,44.958899,-0.001804,0.000001,0.000804,0.000000,0.000000,0.000000,-0.027005,-0.030833,0.013978
0.162000,0.307000,0.000000,0.367000,0.499211,-0.000192,0.281020,0.499362,-0.000121,0.281316,0.192211,-0.000192,-0.085980,0.210565,0.001874,-0.001578,0.784682,0.784686,44.959185,180.000000,-0.000000,0.000000,179.869622,0.041431,-44.959035,0.130378,-0.041431,44.959035,-0.001836,0.000001,0.000818,0.000000,0.000000,0.000000,0.002518,-0.022183,-0.028449
0.163000,0.307000,0.000000,0.367000,0.499211,-0.000193,0.281016,0.499360,-0.000121,0.281317,0.192211,-0.000193,-0.085984,0.210566,0.001877,-0.001585,0.784681,0.784684,44.959104,180.000000,-0.000000,0.000000,179.869293,0.041717,-44.958953,0.130707,-0.041717,44.958953,-0.001869,0.000001,0.000832,0.000000,0.000000,0.000000,-0.032830,-0.001729,-0.011793
0.164000,0.307000,0.000000,0.367000,0.499210,-0.000192,0.281017,0.499358,-0.000121,0.281318,0.192210,-0.000192,-0.085983,0.210565,0.001877,-0.001582,0.784676,0.784680,44.958824,180.000000,-0.000000,0.000000,179.869374,0.041571,-44.958672,0.130626,-0.041571,44.958672,-0.001902,0.000001,0.000847,0.000000,0.000000,0.000000,0.011326,0.007533,0.012510
0.165000,0.307000,0.000000,0.367000,0.499209,-0.000191,0.281015,0.499356,-0.000121,0.281319,0.192209,-0.000191,-0.085985,0.210565,0.001880,-0.001587,0.784680,0.784683,44.959047,180.000000,-0.000000,0.000000,179.869139,0.041737,-44.958895,0.130861,-0.041737,44.958895,-0.001935,0.000001,0.000862,0.000000,0.000000,0.000000,0.030000,0.028386,0.029671
0.166000,0.307000,0.000000,0.367000,0.499208,-0.000196,0.281015,0.499354,-0.000121,0.281320,0.192208,-0.000196,-0.085985,0.210564,0.001880,-0.001587,0.784681,0.784684,44.959105,180.000000,-0.000000,0.000000,179.869115,0.041729,-44.958953,0.130885,-0.041729,44.958953,-0.001968,0.000001,0.000877,0.000000,0.000000,0.000000,0.012825,0.049253,0.020325
0.167000,0.307000,0.000000,0.367000,0.499207,-0.000193,0.281016,0.499352,-0.000121,0.281320,0.192207,-0.000193,-0.085984,0.210563,0.001879,-0.001585,0.784675,0.784679,44.958815,180.000000,-0.000000,0.000000,179.869212,0.041649,-44.958663,0.130788,-0.041649,44.958663,-0.002002,0.000001,0.000892,0.000000,0.000000,0.000000,0.017978,0.014384,0.034062
0.168000,0.307000,0.000000,0.367000,0.499207,-0.000193,0.281014,0.499350,-0.000121,0.281321,0.192207,-0.000193,-0.085986,0.210564,0.001879,-0.001590,0.784681,0.784685,44.959139,180.000000,-0.000000,0.000000,179.869085,0.041911,-44.958986,0.130915,-0.041911,44.958986,-0.002036,0.000001,0.000907,0.000000,0.000000,0.000000,0.006306,0.013660,-0.072534
