t,target_x,target_y,target_z,actual_x,actual_y,actual_z,inner_x,inner_y,inner_z,position_error_x,position_error_y,position_error_z,position_error_norm,orientation_error_x,orientation_error_y,orientation_error_z,orientation_error_norm_rad,orientation_error_norm_deg,target_roll_deg,target_pitch_deg,target_yaw_deg,actual_roll_deg,actual_pitch_deg,actual_yaw_deg,error_roll_deg,error_pitch_deg,error_yaw_deg,inner_vx,inner_vy,inner_vz,filtered_fx,filtered_fy,filtered_fz,masked_fx,masked_fy,masked_fz
0.000000,0.307000,0.000000,0.367000,0.499455,-0.000116,0.281304,0.499455,-0.000116,0.281304,0.192455,-0.000116,-0.085696,0.210672,0.001185,-0.001116,0.785025,0.785027,44.978742,180.000000,-0.000000,0.000000,179.915033,0.032290,-44.978679,0.084967,-0.032290,44.978679,0.000000,0.000000,0.000000,0.000000,0.000000,0.000000,0.000000,0.000000,0.000000
0.001000,0.307000,0.000000,0.367000,0.499456,-0.000122,0.281306,0.499455,-0.000116,0.281304,0.192456,-0.000122,-0.085694,0.210672,0.001185,-0.001116,0.785028,0.785030,44.978882,180.000000,-0.000000,0.000000,179.915054,0.032252,-44.978819,0.084946,-0.032252,44.978819,0.000000,0.000000,0.000000,0.000000,0.000000,0.000000,0.020294,0.005886,0.041007
0.002000,0.307000,0.000000,0.367000,0.499456,-0.000117,0.281305,0.499455,-0.000116,0.281304,0.192456,-0.000117,-0.085695,0.210673,0.001185,-0.001117,0.785026,0.785028,44.978791,180.000000,-0.000000,0.000000,179.914999,0.032290,-44.978728,0.085001,-0.032290,44.978728,-0.000000,0.000000,0.000000,0.000000,0.000000,0.000000,0.005041,0.008147,0.023653
0.003000,0.307000,0.000000,0.367000,0.499456,-0.000117,0.281305,0.499455,-0.000116,0.281304,0.192456,-0.000117,-0.085695,0.210673,0.001186,-0.001115,0.785022,0.785024,44.978540,180.000000,-0.000000,0.000000,179.915021,0.032204,-44.978477,0.084979,-0.032204,44.978477,-0.000000,0.000000,0.000000,0.000000,0.000000,0.000000,-0.009471,0.005132,0.026608
0.004000,0.307000,0.000000,0.367000,0.499454,-0.000118,0.281301,0.499455,-0.000116,0.281304,0.192454,-0.000118,-0.085699,0.210673,0.001188,-0.001124,0.785026,0.785028,44.978777,180.000000,-0.000000,0.000000,179.914677,0.032627,-44.978713,0.085323,-0.032627,44.978713,-0.000000,0.000000,0.000000,0.000000,0.000000,0.000000,0.034604,0.007145,-0.033837
0.005000,0.307000,0.000000,0.367000,0.499454,-0.000119,0.281304,0.499455,-0.000116,0.281304,0.192454,-0.000119,-0.085696,0.210672,0.001187,-0.001118,0.785032,0.785033,44.979100,180.000000,-0.000000,0.000000,179.914907,0.032337,-44.979037,0.085093,-0.032337,44.979037,-0.000000,0.000000,0.000000,0.000000,0.000000,0.000000,0.005888,0.017260,-0.020485
0.006000,0.307000,0.000000,0.367000,0.499456,-0.000118,0.281304,0.499455,-0.000116,0.281304,0.192456,-0.000118,-0.085696,0.210673,0.001180,-0.001120,0.785036,0.785038,44.979346,180.000000,-0.000000,0.000000,179.915229,0.032585,-44.979283,0.084771,-0.032585,44.979283,-0.000000,0.000000,0.000000,0.000000,0.000000,0.000000,-0.010040,-0.018323,-0.025712
0.007000,0.307000,0.000000,0.367000,0.499454,-0.000118,0.281302,0.499455,-0.000116,0.281304,0.192454,-0.000118,-0.085698,0.210672,0.001180,-0.001123,0.785040,0.785042,44.979602,180.000000,-0.000000,0.000000,179.915145,0.032749,-44.979539,0.084855,-0.032749,44.979539,-0.000000,0.000000,0.000000,0.000000,0.000000,0.000000,-0.017255,0.045240,-0.020130
0.008000,0.307000,0.000000,0.367000,0.499451,-0.000118,0.281298,0.499455,-0.000116,0.281304,0.192451,-0.000118,-0.085702,0.210671,0.001184,-0.001131,0.785039,0.785040,44.979492,180.000000,-0.000000,0.000000,179.914789,0.033046,-44.979428,0.085211,-0.033046,44.979428,-0.000000,0.000000,0.000000,0.000000,0.000000,0.000000,0.001323,0.014100,-0.079893
0.009000,0.307000,0.000000,0.367000,0.499452,-0.000118,0.281298,0.499455,-0.000116,0.281304,0.192452,-0.000118,-0.085702,0.210671,0.001186,-0.001128,0.785033,0.785035,44.979173,180.000000,-0.000000,0.000000,179.914737,0.032896,-44.979109,0.085263,-0.032896,44.979109,-0.000000,0.000000,0.000000,0.000000,0.000000,0.000000,0.014617,-0.022276,0.004811
0.010000,0.307000,0.000000,0.367000,0.499450,-0.000117,0.281298,0.499455,-0.000116,0.281304,0.192450,-0.000117,-0.085702,0.210670,0.001191,-0.001128,0.785028,0.785030,44.978916,180.000000,-0.000000,0.000000,179.914448,0.032769,-44.978853,0.085552,-0.032769,44.978853,-0.000000,0.000000,0.000000,0.000000,0.000000,0.000000,-0.004337,-0.013905,0.036194
0.011000,0.307000,0.000000,0.367000,0.499449,-0.000120,0.281296,0.499455,-0.000116,0.281304,0.192449,-0.000120,-0.085704,0.210670,0.001195,-0.001130,0.785024,0.785026,44.978684,180.000000,-0.000000,0.000000,179.914209,0.032783,-44.978619,0.085791,-0.032783,44.978619,-0.000000,0.000000,0.000000,0.000000,0.000000,0.000000,-0.003101,0.016740,0.024740
0.012000,0.307000,0.000000,0.367000,0.499449,-0.000120,0.281297,0.499455,-0.000116,0.281304,0.192449,-0.000120,-0.085703,0.210670,0.001197,-0.001128,0.785019,0.785021,44.978393,180.000000,-0.000000,0.000000,179.914164,0.032651,-44.978327,0.085836,-0.032651,44.978327,-0.000000,0.000000,0.000000,0.000000,0.000000,0.000000,0.010825,0.005334,0.028286
0.013000,0.307000,0.000000,0.367000,0.499448,-0.000117,0.281296,0.499455,-0.000116,0.281304,0.192448,-0.000117,-0.085704,0.210669,0.001196,-0.001129,0.785017,0.785018,44.978235,180.000000,-0.000000,0.000000,179.914173,0.032723,-44.978170,0.085827,-0.032723,44.978170,-0.000000,0.000000,0.000000,0.000000,0.000000,0.000000,0.023985,0.002832,0.049820
0.014000,0.307000,0.000000,0.367000,0.499447,-0.000119,0.281296,0.499455,-0.000116,0.281304,0.192447,-0.000119,-0.085704,0.210668,0.001196,-0.001133,0.785022,0.785023,44.978524,180.000000,-0.000000,0.000000,179.914100,0.032890,-44.978460,0.085900,-0.032890,44.978460,-0.000001,0.000000,0.000000,0.000000,0.000000,0.000000,0.005197,-0.026568,0.039061
0.015000,0.307000,0.000000,0.367000,0.499445,-0.000121,0.281293,0.499455,-0.000116,0.281304,0.192445,-0.000121,-0.085707,0.210667,0.001200,-0.001139,0.785030,0.785032,44.979015,180.000000,-0.000000,0.000000,179.913751,0.033116,-44.978950,0.086249,-0.033116,44.978950,-0.000001,0.000000,0.000000,0.000000,0.000000,0.000000,-0.018215,-0.001030,0.011677
0.016000,0.307000,0.000000,0.367000,0.499446,-0.000117,0.281296,0.499455,-0.000116,0.281304,0.192446,-0.000117,-0.085704,0.210667,0.001198,-0.001134,0.785019,0.785021,44.978391,180.000000,-0.000000,0.000000,179.913975,0.032903,-44.978327,0.086025,-0.032903,44.978327,-0.000001,0.000000,0.000000,0.000000,0.000000,0.000000,-0.019353,-0.020703,0.014832
0.017000,0.307000,0.000000,0.367000,0.499444,-0.000118,0.281290,0.499455,-0.000116,0.281304,0.192444,-0.000118,-0.085710,0.210667,0.001207,-0.001144,0.785025,0.785027,44.978712,180.000000,-0.000000,0.000000,179.913278,0.033256,-44.978646,0.086722,-0.033256,44.978646,-0.000001,0.000000,0.000001,0.000000,0.000000,0.000000,-0.012449,0.016962,-0.060249
0.018000,0.307000,0.000000,0.367000,0.499443,-0.000120,0.281290,0.499455,-0.000116,0.281304,0.192443,-0.000120,-0.085710,0.210666,0.001209,-0.001144,0.785020,0.785021,44.978413,180.000000,-0.000000,0.000000,179.913205,0.033210,-44.978346,0.086795,-0.033210,44.978346,-0.000002,0.000000,0.000001,0.000000,0.000000,0.000000,0.007724,-0.030065,0.021632
0.019000,0.307000,0.000000,0.367000,0.499439,-0.000121,0.281285,0.499455,-0.000116,0.281304,0.192439,-0.000121,-0.085715,0.210665,0.001213,-0.001153,0.785013,0.785014,44.978016,180.000000,-0.000000,0.000000,179.912781,0.033560,-44.977950,0.087219,-0.033560,44.977950,-0.000002,0.000000,0.000001,0.000000,0.000000,0.000000,0.008350,0.010552,-0.043234
0.020000,0.307000,0.000000,0.367000,0.499439,-0.000121,0.281283,0.499455,-0.000116,0.281304,0.192439,-0.000121,-0.085717,0.210666,0.001219,-0.001156,0.785008,0.785010,44.977751,180.000000,-0.000000,0.000000,179.912441,0.033607,-44.977684,0.087559,-0.033607,44.977684,-0.000002,0.000000,0.000001,0.000000,0.000000,0.000000,-0.012543,-0.003382,-0.013902
0.021000,0.307000,0.000000,0.367000,0.499439,-0.000121,0.281285,0.499455,-0.000116,0.281304,0.192439,-0.000121,-0.085715,0.210665,0.001221,-0.001151,0.785001,0.785002,44.977329,180.000000,-0.000000,0.000000,179.912407,0.033304,-44.977262,0.087593,-0.033304,44.977262,-0.000003,0.000000,0.000001,0.000000,0.000000,0.000000,-0.046723,0.004323,0.021024
0.022000,0.307000,0.000000,0.367000,0.499436,-0.000121,0.281281,0.499455,-0.000116,0.281304,0.192436,-0.000121,-0.085719,0.210664,0.001230,-0.001159,0.784993,0.784995,44.976891,180.000000,-0.000000,0.000000,179.911797,0.033552,-44.976822,0.088203,-0.033552,44.976822,-0.000003,0.000000,0.000002,0.000000,0.000000,0.000000,-0.004670,0.006331,-0.064492
0.023000,0.307000,0.000000,0.367000,0.499437,-0.000121,0.281284,0.499455,-0.000116,0.281304,0.192437,-0.000121,-0.085716,0.210663,0.001231,-0.001152,0.784998,0.785000,44.977164,180.000000,-0.000000,0.000000,179.911899,0.033162,-44.977095,0.088101,-0.033162,44.977095,-0.000004,0.000000,0.000002,0.000000,0.000000,0.000000,-0.013260,-0.004275,0.010217
0.024000,0.307000,0.000000,0.367000,0.499434,-0.000124,0.281280,0.499455,-0.000116,0.281304,0.192434,-0.000124,-0.085720,0.210663,0.001237,-0.001161,0.784995,0.784997,44.977021,180.000000,-0.000000,0.000000,179.911392,0.033496,-44.976953,0.088608,-0.033496,44.976953,-0.000005,0.000000,0.000002,0.000000,0.000000,0.000000,-0.018209,0.001142,-0.077967
0.025000,0.307000,0.000000,0.367000,0.499432,-0.000125,0.281278,0.499455,-0.000116,0.281304,0.192432,-0.000125,-0.085722,0.210662,0.001241,-0.001161,0.785001,0.785003,44.977368,180.000000,-0.000000,0.000000,179.911174,0.033376,-44.977298,0.088826,-0.033376,44.977298,-0.000006,0.000000,0.000003,0.000000,0.000000,0.000000,-0.015092,0.039688,-0.002490
0.026000,0.307000,0.000000,0.367000,0.499432,-0.000125,0.281278,0.499455,-0.000116,0.281304,0.192432,-0.000125,-0.085722,0.210662,0.001246,-0.001160,0.784992,0.784993,44.976808,180.000000,-0.000000,0.000000,179.910955,0.033238,-44.976738,0.089045,-0.033238,44.976738,-0.000007,0.000000,0.000003,0.000000,0.000000,0.000000,-0.007786,0.000494,0.021288
0.027000,0.307000,0.000000,0.367000,0.499430,-0.000123,0.281276,0.499455,-0.000116,0.281304,0.192430,-0.000123,-0.085724,0.210661,0.001251,-0.001165,0.784984,0.784986,44.976361,180.000000,-0.000000,0.000000,179.910577,0.033412,-44.976291,0.089423,-0.033412,44.976291,-0.000008,0.000000,0.000003,0.000000,0.000000,0.000000,0.005802,-0.003386,0.010122
0.028000,0.307000,0.000000,0.367000,0.499429,-0.000127,0.281275,0.499455,-0.000116,0.281304,0.192429,-0.000127,-0.085725,0.210660,0.001254,-0.001166,0.784993,0.784995,44.976902,180.000000,-0.000000,0.000000,179.910400,0.033372,-44.976832,0.089600,-0.033372,44.976832,-0.000009,0.000000,0.000004,0.000000,0.000000,0.000000,-0.026907,-0.008167,-0.056604
0.029000,0.307000,0.000000,0.367000,0.499428,-0.000125,0.281273,0.499455,-0.000116,0.281304,0.192428,-0.000125,-0.085727,0.210660,0.001262,-0.001166,0.784975,0.784977,44.975853,180.000000,-0.000000,0.000000,179.909996,0.033194,-44.975784,0.090004,-0.033194,44.975784,-0.000010,0.000000,0.000004,0.000000,0.000000,0.000000,-0.028654,-0.030597,-0.067281
0.030000,0.307000,0.000000,0.367000,0.499424,-0.000127,0.281268,0.499455,-0.000116,0.281304,0.192424,-0.000127,-0.085732,0.210658,0.001273,-0.001177,0.784975,0.784977,44.975846,180.000000,-0.000000,0.000000,179.909162,0.033537,-44.975774,0.090838,-0.033537,44.975774,-0.000011,0.000000,0.000005,0.000000,0.000000,0.000000,-0.056466,0.012501,0.009422
0.031000,0.307000,0.000000,0.367000,0.499423,-0.000127,0.281267,0.499455,-0.000116,0.281304,0.192423,-0.000127,-0.085733,0.210658,0.001279,-0.001180,0.784971,0.784973,44.975649,180.000000,-0.000000,0.000000,179.908836,0.033560,-44.975576,0.091164,-0.033560,44.975576,-0.000013,0.000000,0.000006,0.000000,0.000000,0.000000,-0.010832,-0.015049,0.022903
0.032000,0.307000,0.000000,0.367000,0.499422,-0.000131,0.281266,0.499455,-0.000116,0.281304,0.192422,-0.000131,-0.085734,0.210658,0.001283,-0.001180,0.784974,0.784976,44.975785,180.000000,-0.000000,0.000000,179.908609,0.033463,-44.975712,0.091391,-0.033463,44.975712,-0.000014,0.000000,0.000006,0.000000,0.000000,0.000000,0.012059,-0.016883,-0.062956
0.033000,0.307000,0.000000,0.367000,0.499420,-0.000132,0.281264,0.499455,-0.000116,0.281304,0.192420,-0.000132,-0.085736,0.210657,0.001288,-0.001180,0.784973,0.784975,44.975732,180.000000,-0.000000,0.000000,179.908354,0.033386,-44.975658,0.091646,-0.033386,44.975658,-0.000016,0.000000,0.000007,0.000000,0.000000,0.000000,0.036132,0.000686,-0.035735
0.034000,0.307000,0.000000,0.367000,0.499418,-0.000130,0.281263,0.499455,-0.000116,0.281304,0.192418,-0.000130,-0.085737,0.210656,0.001295,-0.001182,0.784969,0.784971,44.975513,180.000000,-0.000000,0.000000,179.907958,0.033335,-44.975439,0.092042,-0.033335,44.975439,-0.000017,0.000000,0.000008,0.000000,0.000000,0.000000,-0.003998,0.012392,-0.059558
0.035000,0.307000,0.000000,0.367000,0.499417,-0.000133,0.281260,0.499455,-0.000116,0.281304,0.192417,-0.000133,-0.085740,0.210656,0.001302,-0.001185,0.784957,0.784959,44.974831,180.000000,-0.000000,0.000000,179.907517,0.033326,-44.974755,0.092483,-0.033326,44.974755,-0.000019,0.000000,0.000009,0.000000,0.000000,0.000000,0.026454,0.032549,0.030913
0.036000,0.307000,0.000000,0.367000,0.499414,-0.000134,0.281255,0.499455,-0.000116,0.281304,0.192414,-0.000134,-0.085745,0.210655,0.001315,-0.001193,0.784961,0.784963,44.975049,180.000000,-0.000000,0.000000,179.906686,0.033443,-44.974973,0.093314,-0.033443,44.974973,-0.000021,0.000000,0.000010,0.000000,0.000000,0.000000,-0.014484,0.004606,0.014453
0.037000,0.307000,0.000000,0.367000,0.499411,-0.000133,0.281253,0.499455,-0.000116,0.281304,0.192411,-0.000133,-0.085747,0.210653,0.001325,-0.001192,0.784946,0.784948,44.974195,180.000000,-0.000000,0.000000,179.906161,0.033203,-44.974118,0.093839,-0.033203,44.974118,-0.000024,0.000000,0.000011,0.000000,0.000000,0.000000,-0.024985,0.019419,0.102585
0.038000,0.307000,0.000000,0.367000,0.499410,-0.000137,0.281252,0.499455,-0.000116,0.281304,0.192410,-0.000137,-0.085748,0.210653,0.001335,-0.001192,0.784946,0.784948,44.974219,180.000000,-0.000000,0.000000,179.905647,0.032979,-44.974142,0.094353,-0.032979,44.974142,-0.000026,0.000000,0.000012,0.000000,0.000000,0.000000,-0.007839,-0.038506,-0.038571
0.039000,0.307000,0.000000,0.367000,0.499409,-0.000138,0.281250,0.499455,-0.000116,0.281304,0.192409,-0.000138,-0.085750,0.210652,0.001344,-0.001191,0.784938,0.784940,44.973732,180.000000,-0.000000,0.000000,179.905217,0.032730,-44.973654,0.094783,-0.032730,44.973654,-0.000029,0.000000,0.000013,0.000000,0.000000,0.000000,0.015674,-0.011491,0.066335
0.040000,0.307000,0.000000,0.367000,0.499406,-0.000141,0.281246,0.499455,-0.000116,0.281304,0.192406,-0.000141,-0.085754,0.210651,0.001361,-0.001194,0.784929,0.784931,44.973217,180.000000,-0.000000,0.000000,179.904255,0.032538,-44.973137,0.095745,-0.032538,44.973137,-0.000031,0.000000,0.000014,0.000000,0.000000,0.000000,0.002314,-0.027017,-0.055343
0.041000,0.307000,0.000000,0.367000,0.499407,-0.000141,0.281247,0.499455,-0.000116,0.281304,0.192407,-0.000141,-0.085753,0.210651,0.001371,-0.001188,0.784920,0.784922,44.972707,180.000000,-0.000000,0.000000,179.903899,0.032002,-44.972625,0.096101,-0.032002,44.972625,-0.000034,0.000000,0.000015,0.000000,0.000000,0.000000,0.017504,0.016267,-0.042242
0.042000,0.307000,0.000000,0.367000,0.499404,-0.000143,0.281245,0.499455,-0.000116,0.281304,0.192404,-0.000143,-0.085755,0.210650,0.001383,-0.001189,0.784912,0.784914,44.972279,180.000000,-0.000000,0.000000,179.903226,0.031816,-44.972196,0.096774,-0.031816,44.972196,-0.000037,0.000000,0.000017,0.000000,0.000000,0.000000,0.000358,0.003769,-0.072840
0.043000,0.307000,0.000000,0.367000,0.499401,-0.000146,0.281240,0.499455,-0.000116,0.281304,0.192401,-0.000146,-0.085760,0.210649,0.001397,-0.001197,0.784905,0.784907,44.971883,180.000000,-0.000000,0.000000,179.902342,0.031909,-44.971800,0.097658,-0.031909,44.971800,-0.000040,0.000000,0.000018,0.000000,0.000000,0.000000,0.017944,-0.018912,-0.038498
0.044000,0.307000,0.000000,0.367000,0.499401,-0.000147,0.281238,0.499455,-0.000116,0.281304,0.192401,-0.000147,-0.085762,0.210649,0.001411,-0.001195,0.784902,0.784904,44.971669,180.000000,-0.000000,0.000000,179.901683,0.031503,-44.971582,0.098317,-0.031503,44.971582,-0.000044,0.000000,0.000019,0.000000,0.000000,0.000000,0.033514,-0.003049,0.015013
0.045000,0.307000,0.000000,0.367000,0.499400,-0.000151,0.281240,0.499455,-0.000116,0.281304,0.192400,-0.000151,-0.085760,0.210648,0.001422,-0.001186,0.784887,0.784889,44.970854,180.000000,-0.000000,0.000000,179.901318,0.030802,-44.970766,0.098682,-0.030802,44.970766,-0.000047,0.000000,0.000021,0.000000,0.000000,0.000000,0.023787,0.024576,0.025807
0.046000,0.307000,0.000000,0.367000,0.499395,-0.000152,0.281232,0.499455,-0.000116,0.281304,0.192395,-0.000152,-0.085768,0.210647,0.001442,-0.001198,0.784874,0.784876,44.970089,180.000000,-0.000000,0.000000,179.900024,0.030992,-44.970000,0.099976,-0.030992,44.970000,-0.000051,0.000000,0.000023,0.000000,0.000000,0.000000,-0.014992,0.043144,-0.028394
0.047000,0.307000,0.000000,0.367000,0.499394,-0.000157,0.281233,0.499455,-0.000116,0.281304,0.192394,-0.000157,-0.085767,0.210646,0.001450,-0.001194,0.784881,0.784883,44.970482,180.000000,-0.000000,0.000000,179.899687,0.030627,-44.970394,0.100313,-0.030627,44.970394,-0.000055,0.000000,0.000025,0.000000,0.000000,0.000000,-0.001435,0.007129,-0.036379
0.048000,0.307000,0.000000,0.367000,0.499392,-0.000156,0.281230,0.499455,-0.000116,0.281304,0.192392,-0.000156,-0.085770,0.210644,0.001461,-0.001195,0.784862,0.784864,44.969407,180.000000,-0.000000,0.000000,179.899089,0.030437,-44.969317,0.100911,-0.030437,44.969317,-0.000059,0.000000,0.000026,0.000000,0.000000,0.000000,0.015602,-0.005439,-0.052778
0.049000,0.307000,0.000000,0.367000,0.499388,-0.000156,0.281226,0.499455,-0.000116,0.281304,0.192388,-0.000156,-0.085774,0.210642,0.001472,-0.001203,0.784862,0.784864,44.969405,180.000000,-0.000000,0.000000,179.898350,0.030610,-44.969312,0.101650,-0.030610,44.969312,-0.000064,0.000000,0.000028,0.000000,0.000000,0.000000,-0.014321,-0.026333,-0.024470
0.050000,0.307000,0.000000,0.367000,0.499384,-0.000157,0.281221,0.499454,-0.000116,0.281304,0.192384,-0.000157,-0.085779,0.210641,0.001483,-0.001210,0.784851,0.784853,44.968768,180.000000,-0.000000,0.000000,179.897646,0.030734,-44.968677,0.102354,-0.030734,44.968677,-0.000068,0.000000,0.000030,0.000000,0.000000,0.000000,0.007967,0.039863,0.009071
0.051000,0.307000,0.000000,0.367000,0.499384,-0.000158,0.281222,0.499454,-0.000116,0.281304,0.192384,-0.000158,-0.085778,0.210641,0.001488,-0.001207,0.784853,0.784855,44.968877,180.000000,-0.000000,0.000000,179.897483,0.030487,-44.968783,0.102517,-0.030487,44.968783,-0.000073,0.000000,0.000032,0.000000,0.000000,0.000000,0.006881,0.020540,-0.038686
0.052000,0.307000,0.000000,0.367000,0.499382,-0.000158,0.281218,0.499454,-0.000116,0.281304,0.192382,-0.000158,-0.085782,0.210640,0.001494,-0.001212,0.784841,0.784843,44.968220,180.000000,-0.000000,0.000000,179.897053,0.030659,-44.968127,0.102947,-0.030659,44.968127,-0.000078,0.000000,0.000035,0.000000,0.000000,0.000000,-0.002918,0.015197,-0.007155
0.053000,0.307000,0.000000,0.367000,0.499378,-0.000158,0.281214,0.499454,-0.000116,0.281305,0.192378,-0.000158,-0.085786,0.210639,0.001498,-0.001221,0.784842,0.784844,44.968270,180.000000,-0.000000,0.000000,179.896632,0.031029,-44.968175,0.103368,-0.031029,44.968175,-0.000083,0.000000,0.000037,0.000000,0.000000,0.000000,0.013297,-0.009700,0.021304
0.054000,0.307000,0.000000,0.367000,0.499376,-0.000159,0.281211,0.499454,-0.000116,0.281305,0.192376,-0.000159,-0.085789,0.210638,0.001501,-0.001227,0.784842,0.784845,44.968290,180.000000,-0.000000,0.000000,179.896344,0.031242,-44.968194,0.103656,-0.031242,44.968194,-0.000088,0.000000,0.000039,0.000000,0.000000,0.000000,0.033825,-0.036050,0.018240
0.055000,0.307000,0.000000,0.367000,0.499371,-0.000159,0.281204,0.499454,-0.000116,0.281305,0.192371,-0.000159,-0.085796,0.210637,0.001509,-0.001243,0.784837,0.784839,44.967972,180.000000,-0.000000,0.000000,179.895611,0.031902,-44.967875,0.104389,-0.031902,44.967875,-0.000094,0.000000,0.000042,0.000000,0.000000,0.000000,-0.006958,0.006979,0.029392
0.056000,0.307000,0.000000,0.367000,0.499369,-0.000159,0.281202,0.499454,-0.000116,0.281305,0.192369,-0.000159,-0.085798,0.210635,0.001513,-0.001247,0.784833,0.784836,44.967775,180.000000,-0.000000,0.000000,179.895329,0.032047,-44.967677,0.104671,-0.032047,44.967677,-0.000100,0.000000,0.000045,0.000000,0.000000,0.000000,-0.010106,0.007619,-0.050887
0.057000,0.307000,0.000000,0.367000,0.499366,-0.000161,0.281200,0.499454,-0.000116,0.281305,0.192366,-0.000161,-0.085800,0.210633,0.001515,-0.001254,0.784839,0.784841,44.968080,180.000000,-0.000000,0.000000,179.895084,0.032358,-44.967982,0.104916,-0.032358,44.967982,-0.000106,0.000000,0.000047,0.000000,0.000000,0.000000,0.000352,0.017223,0.006010
0.058000,0.307000,0.000000,0.367000,0.499363,-0.000158,0.281197,0.499454,-0.000116,0.281305,0.192363,-0.000158,-0.085803,0.210632,0.001516,-0.001259,0.784835,0.784837,44.967858,180.000000,-0.000000,0.000000,179.894910,0.032600,-44.967760,0.105090,-0.032600,44.967760,-0.000112,0.000000,0.000050,0.000000,0.000000,0.000000,-0.019946,0.009311,-0.003632
0.059000,0.307000,0.000000,0.367000,0.499360,-0.000157,0.281193,0.499454,-0.000116,0.281305,0.192360,-0.000157,-0.085807,0.210631,0.001518,-0.001269,0.784847,0.784849,44.968552,180.000000,-0.000000,0.000000,179.894582,0.033064,-44.968455,0.105418,-0.033064,44.968455,-0.000119,0.000000,0.000053,0.000000,0.000000,0.000000,-0.022538,-0.010787,0.003569
0.060000,0.307000,0.000000,0.367000,0.499357,-0.000157,0.281192,0.499454,-0.000116,0.281305,0.192357,-0.000157,-0.085808,0.210629,0.001523,-0.001272,0.784832,0.784834,44.967689,180.000000,-0.000000,0.000000,179.894263,0.033076,-44.967590,0.105737,-0.033076,44.967590,-0.000126,0.000000,0.000056,0.000000,0.000000,0.000000,0.011228,0.004305,0.004760
0.061000,0.307000,0.000000,0.367000,0.499357,-0.000158,0.281187,0.499453,-0.000116,0.281305,0.192357,-0.000158,-0.085813,0.210630,0.001525,-0.001279,0.784840,0.784843,44.968174,180.000000,-0.000000,0.000000,179.894034,0.033409,-44.968073,0.105966,-0.033409,44.968073,-0.000133,0.000000,0.000059,0.000000,0.000000,0.000000,0.011250,0.019486,0.021494
0.062000,0.307000,0.000000,0.367000,0.499354,-0.000160,0.281186,0.499453,-0.000116,0.281305,0.192354,-0.000160,-0.085814,0.210628,0.001523,-0.001284,0.784843,0.784845,44.968324,180.000000,-0.000000,0.000000,179.894011,0.033697,-44.968226,0.105989,-0.033697,44.968226,-0.000140,0.000000,0.000062,0.000000,0.000000,0.000000,-0.035715,-0.028242,-0.034235
0.063000,0.307000,0.000000,0.367000,0.499351,-0.000156,0.281182,0.499453,-0.000116,0.281305,0.192351,-0.000156,-0.085818,0.210627,0.001528,-0.001292,0.784828,0.784831,44.967498,180.000000,-0.000000,0.000000,179.893563,0.033998,-44.967397,0.106437,-0.033998,44.967397,-0.000148,0.000000,0.000066,0.000000,0.000000,0.000000,-0.004912,-0.006518,-0.033051
0.064000,0.307000,0.000000,0.367000,0.499347,-0.000158,0.281177,0.499453,-0.000116,0.281305,0.192347,-0.000158,-0.085823,0.210626,0.001533,-0.001302,0.784830,0.784832,44.967572,180.000000,-0.000000,0.000000,179.893130,0.034449,-44.967472,0.106870,-0.034449,44.967472,-0.000156,0.000000,0.000069,0.000000,0.000000,0.000000,-0.024785,-0.026374,-0.002222
0.065000,0.307000,0.000000,0.367000,0.499346,-0.000160,0.281176,0.499453,-0.000116,0.281305,0.192346,-0.000160,-0.085824,0.210625,0.001538,-0.001304,0.784832,0.784835,44.967712,180.000000,-0.000000,0.000000,179.892783,0.034421,-44.967610,0.107217,-0.034421,44.967610,-0.000164,0.000000,0.000073,0.000000,0.000000,0.000000,-0.034846,-0.016878,-0.001100
0.066000,0.307000,0.000000,0.367000,0.499342,-0.000160,0.281172,0.499453,-0.000116,0.281305,0.192342,-0.000160,-0.085828,0.210623,0.001543,-0.001313,0.784825,0.784827,44.967292,180.000000,-0.000000,0.000000,179.892373,0.034796,-44.967190,0.107627,-0.034796,44.967190,-0.000172,0.000000,0.000077,0.000000,0.000000,0.000000,-0.028738,-0.013997,0.032173
0.067000,0.307000,0.000000,0.367000,0.499340,-0.000162,0.281169,0.499452,-0.000116,0.281305,0.192340,-0.000162,-0.085831,0.210622,0.001545,-0.001317,0.784838,0.784841,44.968082,180.000000,-0.000000,0.000000,179.892190,0.034967,-44.967979,0.107810,-0.034967,44.967979,-0.000181,0.000000,0.000081,0.000000,0.000000,0.000000,0.006993,-0.010415,-0.005728
0.068000,0.307000,0.000000,0.367000,0.499337,-0.000159,0.281166,0.499452,-0.000116,0.281305,0.192337,-0.000159,-0.085834,0.210621,0.001551,-0.001324,0.784822,0.784825,44.967162,180.000000,-0.000000,0.000000,179.891708,0.035190,-44.967057,0.108292,-0.035190,44.967057,-0.000190,0.000000,0.000084,0.000000,0.000000,0.000000,0.001669,0.004278,-0.021580
0.069000,0.307000,0.000000,0.367000,0.499336,-0.000160,0.281166,0.499452,-0.000116,0.281305,0.192336,-0.000160,-0.085834,0.210620,0.001552,-0.001324,0.784829,0.784831,44.967531,180.000000,-0.000000,0.000000,179.891686,0.035151,-44.967429,0.108314,-0.035151,44.967429,-0.000199,0.000000,0.000089,0.000000,0.000000,0.000000,-0.006634,0.003023,-0.003320
0.070000,0.307000,0.000000,0.367000,0.499335,-0.000161,0.281164,0.499452,-0.000116,0.281306,0.192335,-0.000161,-0.085836,0.210620,0.001558,-0.001324,0.784818,0.784821,44.966914,180.000000,-0.000000,0.000000,179.891342,0.035026,-44.966810,0.108658,-0.035026,44.966810,-0.000208,0.000000,0.000093,0.000000,0.000000,0.000000,-0.033623,-0.007893,-0.010956
0.071000,0.307000,0.000000,0.367000,0.499331,-0.000159,0.281159,0.499452,-0.000116,0.281306,0.192331,-0.000159,-0.085841,0.210618,0.001562,-0.001337,0.784817,0.784819,44.966835,180.000000,-0.000000,0.000000,179.890856,0.035627,-44.966728,0.109144,-0.035627,44.966728,-0.000218,0.000000,0.000097,0.000000,0.000000,0.000000,0.000820,-0.006415,-0.031210
0.072000,0.307000,0.000000,0.367000,0.499330,-0.000161,0.281155,0.499451,-0.000116,0.281306,0.192330,-0.000161,-0.085845,0.210618,0.001568,-0.001342,0.784823,0.784826,44.967193,180.000000,-0.000000,0.000000,179.890473,0.035737,-44.967086,0.109527,-0.035737,44.967086,-0.000228,0.000000,0.000102,0.000000,0.000000,0.000000,-0.007538,0.002572,-0.019925
0.073000,0.307000,0.000000,0.367000,0.499327,-0.000159,0.281153,0.499451,-0.000116,0.281306,0.192327,-0.000159,-0.085847,0.210617,0.001569,-0.001346,0.784811,0.784813,44.966496,180.000000,-0.000000,0.000000,179.890298,0.035934,-44.966390,0.109702,-0.035934,44.966390,-0.000238,0.000000,0.000106,0.000000,0.000000,0.000000,0.008199,-0.016641,0.012485
0.074000,0.307000,0.000000,0.367000,0.499325,-0.000161,0.281149,0.499451,-0.000116,0.281306,0.192325,-0.000161,-0.085851,0.210616,0.001575,-0.001357,0.784813,0.784816,44.966642,180.000000,-0.000000,0.000000,179.889792,0.036377,-44.966535,0.110208,-0.036377,44.966535,-0.000249,0.000000,0.000111,0.000000,0.000000,0.000000,-0.028625,-0.021408,0.002765
0.075000,0.307000,0.000000,0.367000,0.499325,-0.000160,0.281150,0.499451,-0.000116,0.281306,0.192325,-0.000160,-0.085850,0.210616,0.001575,-0.001352,0.784820,0.784822,44.967015,180.000000,-0.000000,0.000000,179.889852,0.036109,-44.966909,0.110148,-0.036109,44.966909,-0.000260,0.000000,0.000116,0.000000,0.000000,0.000000,-0.022270,0.028306,-0.059323
0.076000,0.307000,0.000000,0.367000,0.499321,-0.000159,0.281144,0.499450,-0.000116,0.281306,0.192321,-0.000159,-0.085856,0.210615,0.001581,-0.001364,0.784810,0.784813,44.966452,180.000000,-0.000000,0.000000,179.889295,0.036610,-44.966342,0.110705,-0.036610,44.966342,-0.000271,0.000000,0.000121,0.000000,0.000000,0.000000,0.005235,-0.017348,-0.020894
0.077000,0.307000,0.000000,0.367000,0.499320,-0.000162,0.281145,0.499450,-0.000116,0.281306,0.192320,-0.000162,-0.085855,0.210614,0.001581,-0.001364,0.784817,0.784820,44.966882,180.000000,-0.000000,0.000000,179.889323,0.036591,-44.966774,0.110677,-0.036591,44.966774,-0.000282,0.000000,0.000126,0.000000,0.000000,0.000000,-0.011565,-0.021019,-0.014530
0.078000,0.307000,0.000000,0.367000,0.499316,-0.000161,0.281140,0.499450,-0.000116,0.281306,0.192316,-0.000161,-0.085860,0.210612,0.001589,-0.001374,0.784818,0.784821,44.966924,180.000000,-0.000000,0.000000,179.888655,0.036953,-44.966815,0.111345,-0.036953,44.966815,-0.000294,0.000000,0.000131,0.000000,0.000000,0.000000,-0.013530,-0.005103,0.013831
0.079000,0.307000,0.000000,0.367000,0.499314,-0.000161,0.281138,0.499449,-0.000116,0.281307,0.192314,-0.000161,-0.085862,0.210612,0.001591,-0.001380,0.784813,0.784816,44.966647,180.000000,-0.000000,0.000000,179.888446,0.037209,-44.966538,0.111554,-0.037209,44.966538,-0.000306,0.000000,0.000136,0.000000,0.000000,0.000000,0.019142,-0.024147,0.001374
0.080000,0.307000,0.000000,0.367000,0.499313,-0.000161,0.281135,0.499449,-0.000116,0.281307,0.192313,-0.000161,-0.085865,0.210611,0.001597,-0.001382,0.784814,0.784817,44.966706,180.000000,-0.000000,0.000000,179.888114,0.037224,-44.966596,0.111886,-0.037224,44.966596,-0.000319,0.000000,0.000142,0.000000,0.000000,0.000000,0.040341,-0.019891,-0.024532
0.081000,0.307000,0.000000,0.367000,0.499312,-0.000163,0.281135,0.499449,-0.000116,0.281307,0.192312,-0.000163,-0.085865,0.210610,0.001595,-0.001384,0.784817,0.784820,44.966865,180.000000,-0.000000,0.000000,179.888171,0.037323,-44.966755,0.111829,-0.037323,44.966755,-0.000331,0.000000,0.000147,0.000000,0.000000,0.000000,0.024185,-0.001063,-0.052006
0.082000,0.307000,0.000000,0.367000,0.499309,-0.000163,0.281131,0.499448,-0.000116,0.281307,0.192309,-0.000163,-0.085869,0.210609,0.001601,-0.001391,0.784810,0.784813,44.966479,180.000000,-0.000000,0.000000,179.887705,0.037587,-44.966369,0.112295,-0.037587,44.966369,-0.000344,0.000000,0.000153,0.000000,0.000000,0.000000,-0.014812,0.015120,-0.008295
0.083000,0.307000,0.000000,0.367000,0.499309,-0.000162,0.281127,0.499448,-0.000116,0.281307,0.192309,-0.000162,-0.085873,0.210610,0.001603,-0.001396,0.784808,0.784811,44.966373,180.000000,-0.000000,0.000000,179.887499,0.037769,-44.966262,0.112501,-0.037769,44.966262,-0.000357,0.000000,0.000159,0.000000,0.000000,0.000000,-0.029241,-0.028660,0.045916
0.084000,0.307000,0.000000,0.367000,0.499307,-0.000162,0.281128,0.499448,-0.000116,0.281307,0.192307,-0.000162,-0.085872,0.210608,0.001603,-0.001397,0.784812,0.784815,44.966568,180.000000,-0.000000,0.000000,179.887452,0.037841,-44.966455,0.112548,-0.037841,44.966455,-0.000371,0.000000,0.000165,0.000000,0.000000,0.000000,0.013823,0.011721,0.018449
0.085000,0.307000,0.000000,0.367000,0.499303,-0.000163,0.281124,0.499447,-0.000116,0.281308,0.192303,-0.000163,-0.085876,0.210607,0.001610,-0.001404,0.784813,0.784816,44.966621,180.000000,-0.000000,0.000000,179.886943,0.038071,-44.966509,0.113057,-0.038071,44.966509,-0.000385,0.000000,0.000171,0.000000,0.000000,0.000000,0.008645,-0.006091,0.031999
0.086000,0.307000,0.000000,0.367000,0.499302,-0.000162,0.281122,0.499447,-0.000116,0.281308,0.192302,-0.000162,-0.085878,0.210606,0.001608,-0.001408,0.784811,0.784814,44.966533,180.000000,-0.000000,0.000000,179.886987,0.038312,-44.966422,0.113013,-0.038312,44.966422,-0.000399,0.000000,0.000178,0.000000,0.000000,0.000000,0.020127,-0.008824,-0.044589
0.087000,0.307000,0.000000,0.367000,0.499300,-0.000163,0.281120,0.499447,-0.000116,0.281308,0.192300,-0.000163,-0.085880,0.210605,0.001614,-0.001413,0.784808,0.784811,44.966331,180.000000,-0.000000,0.000000,179.886579,0.038433,-44.966219,0.113421,-0.038433,44.966219,-0.000413,0.000000,0.000184,0.000000,0.000000,0.000000,0.003840,0.000906,0.010252
0.088000,0.307000,0.000000,0.367000,0.499299,-0.000164,0.281121,0.499446,-0.000116,0.281308,0.192299,-0.000164,-0.085879,0.210604,0.001612,-0.001410,0.784817,0.784820,44.966864,180.000000,-0.000000,0.000000,179.886756,0.038308,-44.966750,0.113244,-0.038308,44.966750,-0.000428,0.000000,0.000191,0.000000,0.000000,0.000000,0.014813,-0.009157,-0.001473
0.089000,0.307000,0.000000,0.367000,0.499295,-0.000163,0.281115,0.499446,-0.000116,0.281308,0.192295,-0.000163,-0.085885,0.210603,0.001618,-0.001423,0.784803,0.784806,44.966096,180.000000,-0.000000,0.000000,179.886160,0.038888,-44.965982,0.113840,-0.038888,44.965982,-0.000443,0.000000,0.000197,0.000000,0.000000,0.000000,0.002296,-0.016942,0.015420
0.090000,0.307000,0.000000,0.367000,0.499295,-0.000160,0.281114,0.499445,-0.000116,0.281309,0.192295,-0.000160,-0.085886,0.210603,0.001619,-0.001424,0.784795,0.784798,44.965626,180.000000,-0.000000,0.000000,179.886069,0.038882,-44.965511,0.113931,-0.038882,44.965511,-0.000459,0.000000,0.000204,0.000000,0.000000,0.000000,0.007798,-0.024536,-0.041922
0.091000,0.307000,0.000000,0.367000,0.499293,-0.000166,0.281110,0.499445,-0.000116,0.281309,0.192293,-0.000166,-0.085890,0.210603,0.001621,-0.001430,0.784811,0.784814,44.966502,180.000000,-0.000000,0.000000,179.885864,0.039150,-44.966388,0.114136,-0.039150,44.966388,-0.000474,0.000000,0.000211,0.000000,0.000000,0.000000,0.006047,0.012389,0.005154
0.092000,0.307000,0.000000,0.367000,0.499290,-0.000163,0.281106,0.499444,-0.000116,0.281309,0.192290,-0.000163,-0.085894,0.210602,0.001626,-0.001439,0.784797,0.784800,44.965733,180.000000,-0.000000,0.000000,179.885384,0.039524,-44.965618,0.114616,-0.039524,44.965618,-0.000491,0.000000,0.000218,0.000000,0.000000,0.000000,0.003426,-0.012369,-0.007522
0.093000,0.307000,0.000000,0.367000,0.499290,-0.000164,0.281108,0.499444,-0.000116,0.281309,0.192290,-0.000164,-0.085892,0.210601,0.001626,-0.001434,0.784802,0.784805,44.966029,180.000000,-0.000000,0.000000,179.885501,0.039297,-44.965915,0.114499,-0.039297,44.965915,-0.000507,0.000000,0.000226,0.000000,0.000000,0.000000,0.002066,-0.006920,0.007266
0.094000,0.307000,0.000000,0.367000,0.499286,-0.000163,0.281103,0.499443,-0.000116,0.281309,0.192286,-0.000163,-0.085897,0.210600,0.001633,-0.001446,0.784798,0.784801,44.965804,180.000000,-0.000000,0.000000,179.884868,0.039753,-44.965688,0.115132,-0.039753,44.965688,-0.000524,0.000000,0.000233,0.000000,0.000000,0.000000,0.043848,-0.022455,-0.012123
0.095000,0.307000,0.000000,0.367000,0.499285,-0.000167,0.281102,0.499443,-0.000116,0.281310,0.192285,-0.000167,-0.085898,0.210599,0.001632,-0.001450,0.784809,0.784812,44.966408,180.000000,-0.000000,0.000000,179.884860,0.039952,-44.966291,0.115140,-0.039952,44.966291,-0.000541,0.000000,0.000241,0.000000,0.000000,0.000000,0.029195,-0.015420,0.032219
0.096000,0.307000,0.000000,0.367000,0.499282,-0.000162,0.281099,0.499442,-0.000116,0.281310,0.192282,-0.000162,-0.085901,0.210598,0.001636,-0.001455,0.784793,0.784796,44.965511,180.000000,-0.000000,0.000000,179.884510,0.040158,-44.965393,0.115490,-0.040158,44.965393,-0.000558,0.000000,0.000248,0.000000,0.000000,0.000000,-0.015177,-0.040118,0.018422
0.097000,0.307000,0.000000,0.367000,0.499281,-0.000164,0.281097,0.499442,-0.000116,0.281310,0.192281,-0.000164,-0.085903,0.210597,0.001638,-0.001459,0.784797,0.784800,44.965754,180.000000,-0.000000,0.000000,179.884310,0.040304,-44.965637,0.115690,-0.040304,44.965637,-0.000576,0.000000,0.000256,0.000000,0.000000,0.000000,-0.003669,-0.060674,-0.025331
0.098000,0.307000,0.000000,0.367000,0.499279,-0.000164,0.281095,0.499441,-0.000116,0.281310,0.192279,-0.000164,-0.085905,0.210596,0.001638,-0.001462,0.784799,0.784803,44.965875,180.000000,-0.000000,0.000000,179.884255,0.040469,-44.965758,0.115745,-0.040469,44.965758,-0.000594,0.000000,0.000264,0.000000,0.000000,0.000000,-0.008778,-0.006292,0.011205
0.099000,0.307000,0.000000,0.367000,0.499276,-0.000162,0.281091,0.499440,-0.000116,0.281311,0.192276,-0.000162,-0.085909,0.210595,0.001641,-0.001472,0.784799,0.784802,44.965834,180.000000,-0.000000,0.000000,179.883886,0.040902,-44.965714,0.116114,-0.040902,44.965714,-0.000612,0.000000,0.000272,0.000000,0.000000,0.000000,-0.016075,-0.029932,-0.010447
0.100000,0.307000,0.000000,0.367000,0.499273,-0.000164,0.281087,0.499440,-0.000116,0.281311,0.192273,-0.000164,-0.085913,0.210594,0.001647,-0.001484,0.784800,0.784803,44.965886,180.000000,-0.000000,0.000000,179.883356,0.041377,-44.965767,0.116644,-0.041377,44.965767,-0.000630,0.000000,0.000281,0.000000,0.000000,0.000000,-0.026592,-0.040361,0.037218
0.101000,0.307000,0.000000,0.367000,0.499272,-0.000168,0.281089,0.499439,-0.000116,0.281311,0.192272,-0.000168,-0.085911,0.210593,0.001644,-0.001479,0.784813,0.784816,44.966626,180.000000,-0.000000,0.000000,179.883591,0.041179,-44.966506,0.116409,-0.041179,44.966506,-0.000649,0.000000,0.000289,0.000000,0.000000,0.000000,-0.013902,0.003523,0.055015
0.102000,0.307000,0.000000,0.367000,0.499271,-0.000164,0.281088,0.499438,-0.000116,0.281312,0.192271,-0.000164,-0.085912,0.210593,0.001647,-0.001480,0.784803,0.784806,44.966082,180.000000,-0.000000,0.000000,179.883424,0.041197,-44.965960,0.116576,-0.041197,44.965960,-0.000669,0.000000,0.000298,0.000000,0.000000,0.000000,0.021117,-0.008366,0.003015
0.103000,0.307000,0.000000,0.367000,0.499269,-0.000164,0.281084,0.499438,-0.000116,0.281312,0.192269,-0.000164,-0.085916,0.210592,0.001650,-0.001486,0.784801,0.784804,44.965955,180.000000,-0.000000,0.000000,179.883136,0.041433,-44.965835,0.116864,-0.041433,44.965835,-0.000688,0.000000,0.000306,0.000000,0.000000,0.000000,-0.017706,0.010177,0.013196
0.104000,0.307000,0.000000,0.367000,0.499265,-0.000168,0.281081,0.499437,-0.000116,0.281312,0.192265,-0.000168,-0.085919,0.210590,0.001657,-0.001495,0.784809,0.784813,44.966449,180.000000,-0.000000,0.000000,179.882608,0.041762,-44.966328,0.117392,-0.041762,44.966328,-0.000708,0.000000,0.000315,0.000000,0.000000,0.000000,0.004317,-0.010490,0.035374
0.105000,0.307000,0.000000,0.367000,0.499266,-0.000166,0.281080,0.499436,-0.000116,0.281313,0.192266,-0.000166,-0.085920,0.210591,0.001656,-0.001495,0.784800,0.784803,44.965909,180.000000,-0.000000,0.000000,179.882615,0.041761,-44.965787,0.117385,-0.041761,44.965787,-0.000729,0.000000,0.000324,0.000000,0.000000,0.000000,-0.051648,-0.007616,0.016388
0.106000,0.307000,0.000000,0.367000,0.499264,-0.000165,0.281078,0.499436,-0.000116,0.281313,0.192264,-0.000165,-0.085922,0.210589,0.001656,-0.001500,0.784803,0.784806,44.966068,180.000000,-0.000000,0.000000,179.882557,0.042026,-44.965946,0.117443,-0.042026,44.965946,-0.000749,0.000000,0.000334,0.000000,0.000000,0.000000,-0.023556,-0.033793,0.048202
0.107000,0.307000,0.000000,0.367000,0.499262,-0.000165,0.281076,0.499435,-0.000116,0.281313,0.192262,-0.000165,-0.085924,0.210589,0.001663,-0.001503,0.784796,0.784799,44.965663,180.000000,-0.000000,0.000000,179.882096,0.042047,-44.965540,0.117904,-0.042047,44.965540,-0.000770,0.000000,0.000343,0.000000,0.000000,0.000000,-0.021945,-0.056899,0.046673
0.108000,0.307000,0.000000,0.367000,0.499259,-0.000164,0.281073,0.499434,-0.000116,0.281314,0.192259,-0.000164,-0.085927,0.210588,0.001663,-0.001510,0.784799,0.784803,44.965872,180.000000,-0.000000,0.000000,179.881974,0.042422,-44.965750,0.118026,-0.042422,44.965750,-0.000791,0.000000,0.000352,0.000000,0.000000,0.000000,0.002524,0.007007,0.008174
0.109000,0.307000,0.000000,0.367000,0.499258,-0.000167,0.281070,0.499433,-0.000116,0.281314,0.192258,-0.000167,-0.085930,0.210587,0.001667,-0.001513,0.784801,0.784804,44.965953,180.000000,-0.000000,0.000000,179.881675,0.042467,-44.965830,0.118325,-0.042467,44.965830,-0.000813,0.000000,0.000362,0.000000,0.000000,0.000000,0.028567,-0.019462,0.049463
0.110000,0.307000,0.000000,0.367000,0.499255,-0.000168,0.281067,0.499432,-0.000116,0.281314,0.192255,-0.000168,-0.085933,0.210586,0.001672,-0.001523,0.784799,0.784802,44.965867,180.000000,-0.000000,0.000000,179.881212,0.042853,-44.965743,0.118788,-0.042853,44.965743,-0.000835,0.000001,0.000372,0.000000,0.000000,0.000000,-0.004544,0.016443,0.036106
0.111000,0.307000,0.000000,0.367000,0.499255,-0.000166,0.281068,0.499431,-0.000116,0.281315,0.192255,-0.000166,-0.085932,0.210586,0.001672,-0.001522,0.784796,0.784799,44.965662,180.000000,-0.000000,0.000000,179.881217,0.042828,-44.965538,0.118783,-0.042828,44.965538,-0.000857,0.000001,0.000382,0.000000,0.000000,0.000000,-0.004517,0.023528,0.012765
0.112000,0.307000,0.000000,0.367000,0.499256,-0.000166,0.281067,0.499431,-0.000116,0.281315,0.192256,-0.000166,-0.085933,0.210586,0.001671,-0.001519,0.784797,0.784800,44.965741,180.000000,-0.000000,0.000000,179.881361,0.042713,-44.965618,0.118639,-0.042713,44.965618,-0.000880,0.000001,0.000392,0.000000,0.000000,0.000000,0.028311,0.008660,-0.025212
0.113000,0.307000,0.000000,0.367000,0.499253,-0.000166,0.281066,0.499430,-0.000116,0.281315,0.192253,-0.000166,-0.085934,0.210585,0.001672,-0.001526,0.784789,0.784792,44.965269,180.000000,-0.000000,0.000000,179.881168,0.043007,-44.965147,0.118832,-0.043007,44.965147,-0.000903,0.000001,0.000402,0.000000,0.000000,0.000000,0.013486,-0.021507,-0.065331
0.114000,0.307000,0.000000,0.367000,0.499251,-0.000167,0.281062,0.499429,-0.000116,0.281316,0.192251,-0.000167,-0.085938,0.210585,0.001679,-0.001531,0.784785,0.784789,44.965073,180.000000,-0.000000,0.000000,179.880678,0.043113,-44.964949,0.119322,-0.043113,44.964949,-0.000926,0.000001,0.000412,0.000000,0.000000,0.000000,-0.000592,-0.017266,0.006149
0.115000,0.307000,0.000000,0.367000,0.499249,-0.000166,0.281059,0.499428,-0.000116,0.281316,0.192249,-0.000166,-0.085941,0.210584,0.001683,-0.001538,0.784789,0.784792,44.965264,180.000000,-0.000000,0.000000,179.880319,0.043431,-44.965139,0.119681,-0.043431,44.965139,-0.000950,0.000001,0.000423,0.000000,0.000000,0.000000,-0.008019,0.023144,0.038130
0.116000,0.307000,0.000000,0.367000,0.499249,-0.000167,0.281060,0.499427,-0.000116,0.281317,0.192249,-0.000167,-0.085940,0.210583,0.001682,-0.001533,0.784788,0.784792,44.965243,180.000000,-0.000000,0.000000,179.880470,0.043199,-44.965118,0.119530,-0.043199,44.965118,-0.000974,0.000001,0.000433,0.000000,0.000000,0.000000,0.001364,0.011182,-0.003331
0.117000,0.307000,0.000000,0.367000,0.499246,-0.000167,0.281056,0.499426,-0.000116,0.281317,0.192246,-0.000167,-0.085944,0.210583,0.001685,-0.001543,0.784790,0.784793,44.965317,180.000000,-0.000000,0.000000,179.880131,0.043622,-44.965190,0.119869,-0.043622,44.965190,-0.000998,0.000001,0.000444,0.000000,0.000000,0.000000,-0.007243,0.009616,-0.098615
0.118000,0.307000,0.000000,0.367000,0.499246,-0.000166,0.281057,0.499425,-0.000116,0.281318,0.192246,-0.000166,-0.085943,0.210582,0.001681,-0.001542,0.784795,0.784798,44.965619,180.000000,-0.000000,0.000000,179.880329,0.043671,-44.965494,0.119671,-0.043671,44.965494,-0.001022,0.000001,0.000455,0.000000,0.000000,0.000000,0.029905,-0.001911,-0.090202
0.119000,0.307000,0.000000,0.367000,0.499246,-0.000164,0.281056,0.499424,-0.000116,0.281318,0.192246,-0.000164,-0.085944,0.210582,0.001681,-0.001543,0.784785,0.784789,44.965070,180.000000,-0.000000,0.000000,179.880356,0.043703,-44.964944,0.119644,-0.043703,44.964944,-0.001047,0.000001,0.000466,0.000000,0.000000,0.000000,0.004274,-0.012147,-0.013295
0.120000,0.307000,0.000000,0.367000,0.499244,-0.000167,0.281053,0.499423,-0.000116,0.281319,0.192244,-0.000167,-0.085947,0.210582,0.001683,-0.001550,0.784792,0.784796,44.965484,180.000000,-0.000000,0.000000,179.880051,0.044027,-44.965357,0.119949,-0.044027,44.965357,-0.001073,0.000001,0.000478,0.000000,0.000000,0.000000,0.026522,0.000187,0.050324
0.121000,0.307000,0.000000,0.367000,0.499243,-0.000167,0.281052,0.499422,-0.000116,0.281319,0.192243,-0.000167,-0.085948,0.210581,0.001684,-0.001554,0.784790,0.784793,44.965336,180.000000,-0.000000,0.000000,179.879911,0.044210,-44.965209,0.120089,-0.044210,44.965209,-0.001098,0.000001,0.000489,0.000000,0.000000,0.000000,0.001263,0.010162,-0.021593
0.122000,0.307000,0.000000,0.367000,0.499242,-0.000166,0.281052,0.499420,-0.000116,0.281320,0.192242,-0.000166,-0.085948,0.210581,0.001685,-0.001552,0.784789,0.784792,44.965279,180.000000,-0.000000,0.000000,179.879944,0.044112,-44.965151,0.120056,-0.044112,44.965151,-0.001124,0.000001,0.000501,0.000000,0.000000,0.000000,0.003818,-0.006423,-0.038214
0.123000,0.307000,0.000000,0.367000,0.499239,-0.000164,0.281047,0.499419,-0.000116,0.281320,0.192239,-0.000164,-0.085953,0.210579,0.001692,-0.001563,0.784784,0.784787,44.965009,180.000000,-0.000000,0.000000,179.879314,0.044512,-44.964881,0.120686,-0.044512,44.964881,-0.001151,0.000001,0.000512,0.000000,0.000000,0.000000,-0.010050,-0.003896,-0.042889
0.124000,0.307000,0.000000,0.367000,0.499240,-0.000165,0.281049,0.499418,-0.000116,0.281321,0.192240,-0.000165,-0.085951,0.210580,0.001690,-0.001557,0.784781,0.784785,44.964845,180.000000,-0.000000,0.000000,179.879558,0.044244,-44.964719,0.120442,-0.044244,44.964719,-0.001177,0.000001,0.000524,0.000000,0.000000,0.000000,-0.008806,-0.051347,0.023321
0.125000,0.307000,0.000000,0.367000,0.499239,-0.000165,0.281048,0.499417,-0.000116,0.281321,0.192239,-0.000165,-0.085952,0.210579,0.001693,-0.001560,0.784791,0.784794,44.965407,180.000000,-0.000000,0.000000,179.879360,0.044357,-44.965282,0.120640,-0.044357,44.965282,-0.001204,0.000001,0.000536,0.000000,0.000000,0.000000,-0.002826,-0.040394,-0.000897
0.126000,0.307000,0.000000,0.367000,0.499236,-0.000166,0.281044,0.499416,-0.000116,0.281322,0.192236,-0.000166,-0.085956,0.210578,0.001696,-0.001568,0.784788,0.784792,44.965260,180.000000,-0.000000,0.000000,179.879004,0.044649,-44.965132,0.120996,-0.044649,44.965132,-0.001232,0.000001,0.000548,0.000000,0.000000,0.000000,-0.002069,-0.045368,-0.044816
0.127000,0.307000,0.000000,0.367000,0.499237,-0.000166,0.281046,0.499414,-0.000116,0.281322,0.192237,-0.000166,-0.085954,0.210578,0.001693,-0.001565,0.784790,0.784793,44.965348,180.000000,-0.000000,0.000000,179.879225,0.044601,-44.965219,0.120775,-0.044601,44.965219,-0.001259,0.000001,0.000561,0.000000,0.000000,0.000000,0.063456,-0.003197,0.025835
0.128000,0.307000,0.000000,0.367000,0.499234,-0.000165,0.281042,0.499413,-0.000116,0.281323,0.192234,-0.000165,-0.085958,0.210577,0.001696,-0.001571,0.784793,0.784797,44.965535,180.000000,-0.000000,0.000000,179.878920,0.044852,-44.965407,0.121080,-0.044852,44.965407,-0.001287,0.000001,0.000573,0.000000,0.000000,0.000000,0.014045,0.001654,0.019517
0.129000,0.307000,0.000000,0.367000,0.499232,-0.000165,0.281039,0.499412,-0.000116,0.281323,0.192232,-0.000165,-0.085961,0.210576,0.001701,-0.001578,0.784785,0.784789,44.965078,180.000000,-0.000000,0.000000,179.878550,0.045101,-44.964949,0.121450,-0.045101,44.964949,-0.001316,0.000001,0.000586,0.000000,0.000000,0.000000,-0.036168,-0.009794,0.054380
0.130000,0.307000,0.000000,0.367000,0.499232,-0.000164,0.281039,0.499411,-0.000116,0.281324,0.192232,-0.000164,-0.085961,0.210576,0.001701,-0.001578,0.784787,0.784791,44.965189,180.000000,-0.000000,0.000000,179.878521,0.045094,-44.965060,0.121479,-0.045094,44.965060,-0.001344,0.000001,0.000599,0.000000,0.000000,0.000000,-0.028581,0.003912,-0.002551
0.131000,0.307000,0.000000,0.367000,0.499230,-0.000164,0.281036,0.499409,-0.000116,0.281325,0.192230,-0.000164,-0.085964,0.210576,0.001704,-0.001586,0.784780,0.784783,44.964762,180.000000,-0.000000,0.000000,179.878232,0.045418,-44.964632,0.121768,-0.045418,44.964632,-0.001373,0.000001,0.000611,0.000000,0.000000,0.000000,-0.036570,0.009546,0.023369
0.132000,0.307000,0.000000,0.367000,0.499230,-0.000164,0.281035,0.499408,-0.000116,0.281325,0.192230,-0.000164,-0.085965,0.210576,0.001703,-0.001584,0.784783,0.784786,44.964930,180.000000,-0.000000,0.000000,179.878308,0.045387,-44.964799,0.121692,-0.045387,44.964799,-0.001403,0.000001,0.000625,0.000000,0.000000,0.000000,0.004395,0.006111,-0.026689
0.133000,0.307000,0.000000,0.367000,0.499228,-0.000164,0.281034,0.499406,-0.000116,0.281326,0.192228,-0.000164,-0.085966,0.210575,0.001706,-0.001590,0.784784,0.784787,44.965009,180.000000,-0.000000,0.000000,179.878024,0.045601,-44.964879,0.121976,-0.045601,44.964879,-0.001432,0.000001,0.000638,0.000000,0.000000,0.000000,0.028203,0.012757,-0.083899
0.134000,0.307000,0.000000,0.367000,0.499228,-0.000164,0.281035,0.499405,-0.000116,0.281327,0.192228,-0.000164,-0.085965,0.210575,0.001704,-0.001588,0.784784,0.784788,44.965023,180.000000,-0.000000,0.000000,179.878172,0.045563,-44.964893,0.121828,-0.045563,44.964893,-0.001462,0.000001,0.000651,0.000000,0.000000,0.000000,-0.004527,-0.016827,-0.020497
0.135000,0.307000,0.000000,0.367000,0.499226,-0.000163,0.281033,0.499403,-0.000116,0.281327,0.192226,-0.000163,-0.085967,0.210574,0.001707,-0.001592,0.784781,0.784785,44.964840,180.000000,-0.000000,0.000000,179.877946,0.045662,-44.964710,0.122054,-0.045662,44.964710,-0.001493,0.000001,0.000665,0.000000,0.000000,0.000000,0.001919,-0.006974,0.023640
0.136000,0.307000,0.000000,0.367000,0.499226,-0.000165,0.281033,0.499402,-0.000116,0.281328,0.192226,-0.000165,-0.085967,0.210573,0.001707,-0.001591,0.784784,0.784788,44.965028,180.000000,-0.000000,0.000000,179.877932,0.045644,-44.964898,0.122068,-0.045644,44.964898,-0.001523,0.000001,0.000678,0.000000,0.000000,0.000000,-0.002358,0.032910,-0.011586
0.137000,0.307000,0.000000,0.367000,0.499222,-0.000165,0.281027,0.499400,-0.000116,0.281329,0.192222,-0.000165,-0.085973,0.210572,0.001713,-0.001605,0.784780,0.784783,44.964778,180.000000,-0.000000,0.000000,179.877357,0.046220,-44.964647,0.122643,-0.046220,44.964647,-0.001555,0.000001,0.000692,0.000000,0.000000,0.000000,0.008321,0.016425,-0.085809
0.138000,0.307000,0.000000,0.367000,0.499222,-0.000166,0.281026,0.499399,-0.000116,0.281329,0.192222,-0.000166,-0.085974,0.210572,0.001715,-0.001605,0.784783,0.784787,44.964956,180.000000,-0.000000,0.000000,179.877268,0.046203,-44.964823,0.122732,-0.046203,44.964823,-0.001586,0.000001,0.000706,0.000000,0.000000,0.000000,0.012891,0.017573,-0.025418
0.139000,0.307000,0.000000,0.367000,0.499219,-0.000164,0.281023,0.499397,-0.000116,0.281330,0.192219,-0.000164,-0.085977,0.210572,0.001716,-0.001613,0.784778,0.784781,44.964654,180.000000,-0.000000,0.000000,179.877035,0.046561,-44.964521,0.122965,-0.046561,44.964521,-0.001618,0.000001,0.000720,0.000000,0.000000,0.000000,0.001746,0.044076,-0.026168
0.140000,0.307000,0.000000,0.367000,0.499219,-0.000166,0.281024,0.499395,-0.000116,0.281331,0.192219,-0.000166,-0.085976,0.210571,0.001715,-0.001611,0.784782,0.784785,44.964885,180.000000,-0.000000,0.000000,179.877101,0.046504,-44.964753,0.122899,-0.046504,44.964753,-0.001650,0.000001,0.000735,0.000000,0.000000,0.000000,0.009570,0.027818,-0.055176
0.141000,0.307000,0.000000,0.367000,0.499219,-0.000164,0.281025,0.499394,-0.000116,0.281331,0.192219,-0.000164,-0.085975,0.210570,0.001716,-0.001610,0.784778,0.784781,44.964653,180.000000,-0.000000,0.000000,179.877082,0.046399,-44.964521,0.122918,-0.046399,44.964521,-0.001682,0.000001,0.000749,0.000000,0.000000,0.000000,0.035203,-0.014947,0.031045
0.142000,0.307000,0.000000,0.367000,0.499216,-0.000166,0.281020,0.499392,-0.000116,0.281332,0.192216,-0.000166,-0.085980,0.210570,0.001720,-0.001618,0.784782,0.784785,44.964891,180.000000,-0.000000,0.000000,179.876697,0.046767,-44.964758,0.123303,-0.046767,44.964758,-0.001715,0.000001,0.000764,0.000000,0.000000,0.000000,-0.030776,0.036033,-0.020674
0.143000,0.307000,0.000000,0.367000,0.499217,-0.000165,0.281022,0.499390,-0.000116,0.281333,0.192217,-0.000165,-0.085978,0.210569,0.001718,-0.001615,0.784779,0.784782,44.964707,180.000000,-0.000000,0.000000,179.876885,0.046613,-44.964574,0.123115,-0.046613,44.964574,-0.001748,0.000001,0.000778,0.000000,0.000000,0.000000,-0.011642,0.007288,0.001074
0.144000,0.307000,0.000000,0.367000,0.499215,-0.000166,0.281019,0.499388,-0.000116,0.281334,0.192215,-0.000166,-0.085981,0.210569,0.001722,-0.001621,0.784786,0.784790,44.965139,180.000000,-0.000000,0.000000,179.876564,0.046849,-44.965004,0.123436,-0.046849,44.965004,-0.001781,0.000001,0.000793,0.000000,0.000000,0.000000,-0.009891,-0.037278,0.015166
0.145000,0.307000,0.000000,0.367000,0.499215,-0.000165,0.281020,0.499387,-0.000116,0.281335,0.192215,-0.000165,-0.085980,0.210569,0.001722,-0.001618,0.784775,0.784779,44.964510,180.000000,-0.000000,0.000000,179.876627,0.046722,-44.964376,0.123373,-0.046722,44.964376,-0.001815,0.000001,0.000808,0.000000,0.000000,0.000000,0.024311,-0.011821,-0.032941
0.146000,0.307000,0.000000,0.367000,0.499213,-0.000167,0.281017,0.499385,-0.000116,0.281335,0.192213,-0.000167,-0.085983,0.210568,0.001723,-0.001624,0.784782,0.784786,44.964927,180.000000,-0.000000,0.000000,179.876448,0.046993,-44.964792,0.123552,-0.046993,44.964792,-0.001849,0.000001,0.000823,0.000000,0.000000,0.000000,-0.006723,-0.012015,-0.025290
0.147000,0.307000,0.000000,0.367000,0.499213,-0.000166,0.281017,0.499383,-0.000116,0.281336,0.192213,-0.000166,-0.085983,0.210568,0.001723,-0.001624,0.784769,0.784773,44.964183,180.000000,-0.000000,0.000000,179.876440,0.046997,-44.964048,0.123560,-0.046997,44.964048,-0.001884,0.000001,0.000839,0.000000,0.000000,0.000000,-0.004994,-0.036151,-0.021539
0.148000,0.307000,0.000000,0.367000,0.499211,-0.000167,0.281015,0.499381,-0.000116,0.281337,0.192211,-0.000167,-0.085985,0.210567,0.001725,-0.001629,0.784778,0.784781,44.964645,180.000000,-0.000000,0.000000,179.876245,0.047225,-44.964512,0.123755,-0.047225,44.964512,-0.001918,0.000001,0.000854,0.000000,0.000000,0.000000,-0.010382,-0.016020,-0.044898
0.149000,0.307000,0.000000,0.367000,0.499210,-0.000166,0.281013,0.499379,-0.000116,0.281338,0.192210,-0.000166,-0.085987,0.210567,0.001729,-0.001633,0.784775,0.784778,44.964492,180.000000,-0.000000,0.000000,179.875937,0.047316,-44.964357,0.124063,-0.047316,44.964357,-0.001954,0.000001,0.000870,0.000000,0.000000,0.000000,0.008302,0.002718,-0.054305
0.150000,0.307000,0.000000,0.367000,0.499210,-0.000165,0.281015,0.499377,-0.000116,0.281339,0.192210,-0.000165,-0.085985,0.210566,0.001723,-0.001631,0.784774,0.784777,44.964438,180.000000,-0.000000,0.000000,179.876294,0.047351,-44.964304,0.123706,-0.047351,44.964304,-0.001989,0.000001,0.000886,0.000000,0.000000,0.000000,-0.018771,-0.012450,-0.032860
0.151000,0.307000,0.000000,0.367000,0.499209,-0.000167,0.281012,0.499375,-0.000116,0.281340,0.192209,-0.000167,-0.085988,0.210567,0.001726,-0.001634,0.784781,0.784784,44.964840,180.000000,-0.000000,0.000000,179.876054,0.047420,-44.964705,0.123946,-0.047420,44.964705,-0.002025,0.000001,0.000902,0.000000,0.000000,0.000000,-0.007510,-0.002298,-0.013335
0.152000,0.307000,0.000000,0.367000,0.499208,-0.000166,0.281010,0.499373,-0.000116,0.281341,0.192208,-0.000166,-0.085990,0.210567,0.001732,-0.001638,0.784774,0.784778,44.964455,180.000000,-0.000000,0.000000,179.875639,0.047541,-44.964321,0.124361,-0.047541,44.964321,-0.002061,0.000001,0.000918,0.000000,0.000000,0.000000,-0.009635,0.015792,-0.006572
0.153000,0.307000,0.000000,0.367000,0.499206,-0.000166,0.281009,0.499371,-0.000116,0.281342,0.192206,-0.000166,-0.085991,0.210565,0.001730,-0.001641,0.784773,0.784777,44.964384,180.000000,-0.000000,0.000000,179.875714,0.047704,-44.964251,0.124286,-0.047704,44.964251,-0.002097,0.000001,0.000934,0.000000,0.000000,0.000000,-0.005012,-0.007608,0.012068
0.154000,0.307000,0.000000,0.367000,0.499205,-0.000168,0.281009,0.499369,-0.000116,0.281343,0.192205,-0.000168,-0.085991,0.210565,0.001732,-0.001643,0.784781,0.784785,44.964856,180.000000,-0.000000,0.000000,179.875569,0.047792,-44.964719,0.124431,-0.047792,44.964719,-0.002134,0.000001,0.000950,0.000000,0.000000,0.000000,0.037129,-0.014486,0.054503
0.155000,0.307000,0.000000,0.367000,0.499202,-0.000167,0.281004,0.499367,-0.000116,0.281344,0.192202,-0.000167,-0.085996,0.210564,0.001738,-0.001653,0.784770,0.784774,44.964210,180.000000,-0.000000,0.000000,179.875056,0.048156,-44.964074,0.124944,-0.048156,44.964074,-0.002171,0.000001,0.000967,0.000000,0.000000,0.000000,0.009254,-0.057064,-0.009798
0.156000,0.307000,0.000000,0.367000,0.499206,-0.000166,0.281008,0.499364,-0.000116,0.281345,0.192206,-0.000166,-0.085992,0.210565,0.001732,-0.001643,0.784772,0.784775,44.964311,180.000000,-0.000000,0.000000,179.875562,0.047782,-44.964176,0.124438,-0.047782,44.964176,-0.002209,0.000001,0.000983,0.000000,0.000000,0.000000,-0.016387,-0.023169,0.083388
0.157000,0.307000,0.000000,0.367000,0.499205,-0.000166,0.281007,0.499362,-0.000116,0.281346,0.192205,-0.000166,-0.085993,0.210565,0.001736,-0.001645,0.784766,0.784770,44.964008,180.000000,-0.000000,0.000000,179.875294,0.047805,-44.963872,0.124706,-0.047805,44.963872,-0.002246,0.000001,0.001000,0.000000,0.000000,0.000000,-0.010128,-0.000491,0.025243
0.158000,0.307000,0.000000,0.367000,0.499204,-0.000165,0.281009,0.499360,-0.000116,0.281347,0.192204,-0.000165,-0.085991,0.210563,0.001734,-0.001643,0.784765,0.784768,44.963910,180.000000,-0.000000,0.000000,179.875467,0.047720,-44.963775,0.124533,-0.047720,44.963775,-0.002285,0.000001,0.001017,0.000000,0.000000,0.000000,0.014198,-0.047912,0.024324
0.159000,0.307000,0.000000,0.367000,0.499204,-0.000169,0.281006,0.499358,-0.000116,0.281348,0.192204,-0.000169,-0.085994,0.210564,0.001736,-0.001644,0.784779,0.784783,44.964740,180.000000,-0.000000,0.000000,179.875303,0.047765,-44.964603,0.124697,-0.047765,44.964603,-0.002323,0.000001,0.001034,0.000000,0.000000,0.000000,0.022839,-0.014283,-0.109847
0.160000,0.307000,0.000000,0.367000,0.499202,-0.000165,0.281003,0.499355,-0.000116,0.281349,0.192202,-0.000165,-0.085997,0.210564,0.001739,-0.001653,0.784770,0.784774,44.964224,180.000000,-0.000000,0.000000,179.875010,0.048139,-44.964087,0.124990,-0.048139,44.964087,-0.002362,0.000001,0.001052,0.000000,0.000000,0.000000,0.027988,0.011903,-0.052655
0.161000,0.307000,0.000000,0.367000,0.499201,-0.000168,0.281002,0.499353,-0.000116,0.281350,0.192201,-0.000168,-0.085998,0.210563,0.001740,-0.001653,0.784777,0.784781,44.964630,180.000000,-0.000000,0.000000,179.874950,0.048128,-44.964492,0.125050,-0.048128,44.964492,-0.002401,0.000001,0.001069,0.000000,0.000000,0.000000,-0.015868,-0.021702,0.011510
0.162000,0.307000,0.000000,0.367000,0.499200,-0.000166,0.281001,0.499350,-0.000116,0.281351,0.192200,-0.000166,-0.085999,0.210563,0.001739,-0.001656,0.784776,0.784780,44.964558,180.000000,-0.000000,0.000000,179.874902,0.048312,-44.964422,0.125098,-0.048312,44.964422,-0.002440,0.000001,0.001087,0.000000,0.000000,0.000000,0.022161,0.027268,-0.041935
0.163000,0.307000,0.000000,0.367000,0.499198,-0.000167,0.280998,0.499348,-0.000116,0.281352,0.192198,-0.000167,-0.086002,0.210563,0.001744,-0.001666,0.784767,0.784771,44.964038,180.000000,-0.000000,0.000000,179.874454,0.048709,-44.963901,0.125546,-0.048709,44.963901,-0.002480,0.000001,0.001104,0.000000,0.000000,0.000000,-0.027733,-0.011988,-0.001838
0.164000,0.307000,0.000000,0.367000,0.499200,-0.000166,0.281002,0.499345,-0.000116,0.281353,0.192200,-0.000166,-0.085998,0.210562,0.001740,-0.001654,0.784773,0.784776,44.964380,180.000000,-0.000000,0.000000,179.874907,0.048187,-44.964243,0.125093,-0.048187,44.964243,-0.002520,0.000002,0.001122,0.000000,0.000000,0.000000,0.013108,-0.026616,0.014967
0.165000,0.307000,0.000000,0.367000,0.499197,-0.000166,0.280998,0.499343,-0.000116,0.281354,0.192197,-0.000166,-0.086002,0.210561,0.001746,-0.001665,0.784767,0.784771,44.964077,180.000000,-0.000000,0.000000,179.874380,0.048618,-44.963939,0.125620,-0.048618,44.963939,-0.002561,0.000002,0.001140,0.000000,0.000000,0.000000,-0.019873,-0.004712,-0.021842
0.166000,0.307000,0.000000,0.367000,0.499197,-0.000165,0.280998,0.499340,-0.000116,0.281355,0.192197,-0.000165,-0.086002,0.210561,0.001743,-0.001663,0.784772,0.784776,44.964358,180.000000,-0.000000,0.000000,179.874594,0.048568,-44.964222,0.125406,-0.048568,44.964222,-0.002601,0.000002,0.001158,0.000000,0.000000,0.000000,-0.081968,0.008881,-0.113464
0.167000,0.307000,0.000000,0.367000,0.499196,-0.000168,0.280999,0.499338,-0.000116,0.281356,0.192196,-0.000168,-0.086001,0.210560,0.001747,-0.001662,0.784777,0.784780,44.964603,180.000000,-0.000000,0.000000,179.874390,0.048473,-44.964463,0.125610,-0.048473,44.964463,-0.002642,0.000002,0.001177,0.000000,0.000000,0.000000,-0.021194,0.013634,-0.044744
0.168000,0.307000,0.000000,0.367000,0.499197,-0.000168,0.281000,0.499335,-0.000116,0.281358,0.192197,-0.000168,-0.086000,0.210560,0.001742,-0.001659,0.784778,0.784781,44.964651,180.000000,-0.000000,0.000000,179.874696,0.048381,-44.964514,0.125304,-0.048381,44.964514,-0.002684,0.000002,0.001195,0.000000,0.000000,0.000000,-0.007390,-0.020280,-0.054604
